[{"id":"blueribbon-4523","name":"언양기와집불고기","address":"울산광역시 울주군 언양읍 헌양길 86","jibunAddress":"울산광역시 울주군 언양읍 서부리 13","phone":"052-262-4884  ","foodType":"한식(육류)","mainFood":"","designatedDate":"","lat":35.565334,"lng":129.122291,"region":"울산광역시","source":"blueribbon","ribbonType":"RIBBON_TWO","review":"100년된 기와집을 개조해 만든 곳으로, 40여 년간 한우만을 다루고 있다. 불고기는 양념에 재워둔 소고기를 석쇠에 구워 상에 낸다. 질기지 않고 부드러운 한우의 맛이 좋으며, 반찬과 고기는 모두 천연 옥으로 만든 그릇에 담아 나온다."},{"id":"blueribbon-5924","name":"고래명가","address":"울산광역시 남구 장생포고래로 207","jibunAddress":"울산광역시 남구 장생포동 87-12","phone":"052-269-2361  ","foodType":"한식(어패류)","mainFood":"","designatedDate":"","lat":35.502458,"lng":129.376894,"region":"울산광역시","source":"blueribbon","ribbonType":"RIBBON_TWO","review":"다양한 부위의 고래고기를 먹을 수 있는 곳으로, 밍크고래만을 다룬다. 일행이 많다면 다양한 부위가 한 접시에 나오는 모둠을 추천한다. 얼큰하게 끓여낸 고래찌개의 맛도 좋다는 평이다."},{"id":"blueribbon-31178","name":"시그너스커피바","address":"울산광역시 남구 번영로 119","jibunAddress":"울산광역시 남구 달동 121-2","phone":"070-4228-9292  ","foodType":"카페/커피/티","mainFood":"","designatedDate":"","lat":35.5358801934194,"lng":129.328194341734,"region":"울산광역시","source":"blueribbon","ribbonType":"RIBBON_ONE","review":"버건디색 벽지의 차분한 분위기의 로스터리 카페. 다양한 원두의 핸드드립 커피를 맛볼 수 있으며 커피를 주문하면 원두 소개 카드가 함께 제공된다. "},{"id":"blueribbon-4520","name":"기와집숯불고기","address":"울산광역시 울주군 두동면 계명1길 27","jibunAddress":"울산광역시 울주군 두동면 봉계리 539-4","phone":"052-262-7288  ","foodType":"한식(육류)","mainFood":"","designatedDate":"","lat":35.712992,"lng":129.198184,"region":"울산광역시","source":"blueribbon","ribbonType":"RIBBON_ONE","review":"봉계한우불고기특구 내에 자리한 고깃집. 소금을 뿌린 고기를 숯불 위 석쇠에 구워 먹는 맛이 좋다. 고소한 육회도 별미다. 멸칫국물로 맛을 낸 된장찌개를 곁들여도 좋다."},{"id":"blueribbon-4813","name":"갈비구락부","address":"울산광역시 울주군 삼남면 남상평2길 34-12","jibunAddress":"울산광역시 울주군 삼남면 교동리 1576-12","phone":"052-264-4747  ","foodType":"한식(육류)","mainFood":"","designatedDate":"","lat":35.56057,"lng":129.117658,"region":"울산광역시","source":"blueribbon","ribbonType":"RIBBON_ONE","review":"울산에서 유명한 소고기구이 전문점. 질 좋은 한우를 숯불에 구워 먹을 수 있는 곳으로, 갈빗살을 추천할 만하다. 감칠맛 나는 양념이 인상적인 언양불고기도 맛이 좋다는 평."},{"id":"blueribbon-28398","name":"고래향","address":"울산광역시 남구 도산로139번길 5","jibunAddress":"울산광역시 남구 달동 1383-8","phone":"0507-1381-7373","foodType":"한식(어패류)","mainFood":"","designatedDate":"","lat":35.531851,"lng":129.329298,"region":"울산광역시","source":"blueribbon","ribbonType":"RIBBON_ONE","review":"울산을 대표하는 음식인 고래고기를 맛볼 수 있는 곳. 부드럽게 삶은 수육이 대표 메뉴다. 막찍기는 육사시미처럼 고래고기를 생으로 손질한 음식으로 별미다."},{"id":"blueribbon-4251","name":"도동산방","address":"울산광역시 울주군 상북면 송락골길 133","jibunAddress":"울산광역시 울주군 상북면 산전리 50-16 운시원","phone":"052-254-7076  ","foodType":"한식(일반한식)","mainFood":"","designatedDate":"","lat":35.604137,"lng":129.096417,"region":"울산광역시","source":"blueribbon","ribbonType":"RIBBON_ONE","review":"고풍스러운 한옥 건물이 인상적인 한정식 전문점. 궁중음식을 기초로 한 현대적인 한정식을 낸다. 음식이 대체로 정갈하며 요리에 들어가는 다양한 장은 직접 담가 사용한다. 식사를 마치면 식당과 연결된 전통찻집에서 무료로 차를 마실 수 있다. 연못과 정원을 거닐면서 운치를 즐기기 좋다."},{"id":"blueribbon-29092","name":"아니마","address":"울산광역시 남구 왕생로66번길 13","jibunAddress":"울산광역시 남구 달동 1353-6","phone":"052-903-0106  ","foodType":"이탈리아식","mainFood":"","designatedDate":"","lat":35.539776,"lng":129.332509,"region":"울산광역시","source":"blueribbon","ribbonType":"RIBBON_ONE","review":"분위기 좋은 이탈리안 레스토랑으로, 직접 뽑은 생면으로 만든 다양한 파스타를 선보인다. 트러플오일과 소등심이 들어간 트러플리조토를 비롯해 부채살 스테이크가 대표 메뉴다. 파스타를 비롯해 다양한 음식이 나오는 세트 메뉴도 추천. "},{"id":"blueribbon-29695","name":"마시미로스터스 ","address":"울산광역시 울주군 범서읍 굴화길 51-2","jibunAddress":"울산광역시 울주군 범서읍 굴화리 58-3","phone":"0507-1422-4480","foodType":"카페/커피/티","mainFood":"","designatedDate":"","lat":35.55410683108133,"lng":129.2598833189175,"region":"울산광역시","source":"blueribbon","ribbonType":"RIBBON_ONE","review":"울산에서 몇 안 되는 스페셜티 커피 전문점으로, 로스팅도 직접 하고 있다. 핸드드립으로 내린 커피 맛이 일품. 커피 CSP 과정을 진행하여 커피 관련 전문적인 수업을 들을 수도 있다."},{"id":"blueribbon-3593","name":"만복래숯불구이","address":"울산광역시 울주군 두동면 두동로 1789","jibunAddress":"울산광역시 울주군 두동면 봉계리 871-7","phone":"052-262-7255  ","foodType":"한식(육류)","mainFood":"","designatedDate":"","lat":35.709846,"lng":129.202463,"region":"울산광역시","source":"blueribbon","ribbonType":"RIBBON_ONE","review":"언양과 함께 경상도의 대표적인 불고기촌인 봉계한우불고기특구 내에 자리한 고깃집. 한우에 굵은 왕소금을 뿌려 숯불에 굽는 불고기가 유명하다. 깍두기 모양으로 손질한 깍두기육회도 인기. 참기름을 두른 고추장에 찍어 먹는 것이 특징이다."},{"id":"blueribbon-30374","name":"풍로옥","address":"울산광역시 남구 돋질로239번길 6","jibunAddress":"울산광역시 남구 달동 1321-9","phone":"052-266-0210  ","foodType":"한식(면류)","mainFood":"","designatedDate":"","lat":35.5436617004613,"lng":129.33103563813228,"region":"울산광역시","source":"blueribbon","ribbonType":"RIBBON_ONE","review":"정통 이북 음식을 선보이는 곳으로, 한우와 국내산 재철 채소만을 사용한다. 대표 메뉴인 평양냉면은 메밀 80% 함량의 면과 육향 가득한 육수가 조화를 이룬다. 평양냉면에 식초나 겨자를 뿌리지 않고 그대로 먹는 것 추천."},{"id":"blueribbon-3278","name":"궁중삼계탕","address":"울산광역시 중구 먹자거리 6","jibunAddress":"울산광역시 중구 성남동 228-7","phone":"052-244-1156  ","foodType":"한식(가금류)","mainFood":"","designatedDate":"","lat":35.554684,"lng":129.319874,"region":"울산광역시","source":"blueribbon","ribbonType":"RIBBON_ONE","review":"울산에서 가장 오래된 삼계탕집 중 한 곳으로, 약 50여 년의 역사를 자랑한다. 조미료나 잡다한 재료를 사용하지 않아 국물 맛이 시원하면서도 깔끔하다. 아삭한 깍두기와 된장에 무친 오이고추를 곁들이면 맛있다."},{"id":"blueribbon-3277","name":"무주골","address":"울산광역시 중구 종가6길 32","jibunAddress":"울산광역시 중구 우정동 500-12","phone":"052-243-2842  ","foodType":"한식(민물어패류)","mainFood":"","designatedDate":"","lat":35.56297892259319,"lng":129.31071362635663,"region":"울산광역시","source":"blueribbon","ribbonType":"RIBBON_ONE","review":"장어구이로 유명한 집. 40년 넘는 역사를 자랑한다. 토종 치어로 키운 국산 장어만을 사용하며 참숯에 구워 맛이 더욱 좋다. 장어는 초벌구이 해서 나오며 간장 양념, 고추장 양념, 소금구이 중 선택할 수 있다.  "},{"id":"blueribbon-3274","name":"금강장어","address":"울산광역시 중구 산전길 8-1","jibunAddress":"울산광역시 중구 남외동 567-8","phone":"052-297-9205  ","foodType":"한식(민물어패류)","mainFood":"","designatedDate":"","lat":35.570673,"lng":129.349518,"region":"울산광역시","source":"blueribbon","ribbonType":"RIBBON_ONE","review":"울산에서 수준 높은 장어 전문점으로 손꼽히는 곳. 태화강 주변은 옛날부터 민물장어가 많이 서식하여 장어구이로 유명했던 곳인데, 현재는 태화강에서 민물장어가 잘 잡히지 않아 부산 등지에서 직송한 민물장어를 사용하고 있다."},{"id":"blueribbon-3073","name":"본여우&본정","address":"울산광역시 남구 왕생로120번길 5","jibunAddress":"울산광역시 남구 달동 1319-13","phone":"052-268-1164  ","foodType":"일식","mainFood":"","designatedDate":"","lat":35.544168,"lng":129.329771,"region":"울산광역시","source":"blueribbon","ribbonType":"RIBBON_ONE","review":"본정이라는 상호로 운영하던, 3대째 이어 내려오는 한국 스타일 우동집. 멸칫국물에 다시마, 가쓰오부시를 넣어 맛을 낸 여우우동이 대표 메뉴다. 우동과 초밥으로 구성된 정식메뉴는 가격대비 만족도가 높다."},{"id":"blueribbon-26970","name":"효정밥상","address":"울산광역시 울주군 청량읍 신덕하1길 9","jibunAddress":"울산광역시 울주군 청량읍 상남리 588","phone":"052-227-4995  ","foodType":"한식(어패류)","mainFood":"","designatedDate":"","lat":35.49245173928852,"lng":129.30614419299621,"region":"울산광역시","source":"blueribbon","ribbonType":"RIBBON_ONE","review":"합리적인 가격에 게장백반을 즐길 수 있는 곳. 감칠맛 나는 간장에 절인 간장게장의 맛이 일품이며, 살도 꽉 차있다. 생선구이정식과 두루치기도 인기 메뉴다. 함께 나오는 반찬도 깔끔하다."},{"id":"blueribbon-35790","name":"갓포이찌","address":"울산광역시 남구 왕생로20번길 19","jibunAddress":"울산광역시 남구 달동 1283-16","phone":"052-256-5567","foodType":"일식","mainFood":"","designatedDate":"","lat":35.5358172901256,"lng":129.334870238703,"region":"울산광역시","source":"blueribbon","ribbonType":"RIBBON_ONE","review":"신선한 모둠회를 맛볼 수 있는 곳. 기본 찬으로 작게 모치리도후를 내어준다. 생선회를 제외하고서도 튀김과 조림, 그리고 국물요리도 매우 훌륭하다는 평. "},{"id":"blueribbon-32960","name":"농도","address":"울산광역시 울주군 상북면 명촌길천로 23","jibunAddress":"울산광역시 울주군 상북면 등억알프스리 454-39","phone":"052-264-1700","foodType":"한식(일반한식)","mainFood":"","designatedDate":"","lat":35.5587130790602,"lng":129.083313851217,"region":"울산광역시","source":"blueribbon","ribbonType":"RIBBON_ONE","review":"전통 한옥을 재현한 아름다운 공간에서 등억못을 바라보며 한식이나 전통차를 즐길 수 있는 곳.  정원이나 테라스 등이 훌륭한, 상당히 큰 규모의 카페다. 베이커리도 겸하고 있어 커피나 차에 곁들이기 좋다. 식사는 농도정식세트 한 가지로,  한우불고기 비빔밥 &차&다과 세트가 나오며 10시~ 2시까지 한정 판매한다. "},{"id":"blueribbon-34045","name":"표식","address":"울산광역시 남구 삼산로211번길 3","jibunAddress":"울산광역시 남구 달동 1359-6","phone":"0507-1433-1578  ","foodType":"일식주점","mainFood":"","designatedDate":"","lat":35.5384804761965,"lng":129.329966124898,"region":"울산광역시","source":"blueribbon","ribbonType":"RIBBON_ONE","review":"깔끔한 인테리어의 분위기 좋은 이자카야. 제철 식재료를 사용한 일식 요리를 사케와 즐길 수 있다. 다양한 종류의 생선이 나오는 사시미, 이소베마키, 고등어봉초밥 등이 추천 메뉴. 주문과 동시에 바로 재료를 손질하여 요리한다."},{"id":"blueribbon-34602","name":"라피콜라이탈리아","address":"울산광역시 남구 달삼로 58","jibunAddress":"울산광역시 남구 달동 1283-6","phone":"0507-1400-2825  ","foodType":"이탈리아식","mainFood":"","designatedDate":"","lat":35.5361273272657,"lng":129.335466461812,"region":"울산광역시","source":"blueribbon","ribbonType":"RIBBON_ONE","review":"벽에 걸려있는 미술 작품들이 미술관에 온 듯한 느낌을 주는 이탈리안 레스토랑. 모든 요리에 재료를 아낌없이 넣었으며, 와인과도 잘 어울린다. 버섯이 듬뿍 들어간 꾸덕한 버섯 리조토가 인기 메뉴다. 저녁에는 와인바로도 운영된다."},{"id":"blueribbon-2319","name":"고래고기원조할매집","address":"울산광역시 남구 장생포고래로 135","jibunAddress":"울산광역시 남구 장생포동 335-2","phone":"052-261-7313  ","foodType":"한식(어패류)","mainFood":"","designatedDate":"","lat":35.501737,"lng":129.369561,"region":"울산광역시","source":"blueribbon","ribbonType":"RIBBON_ONE","review":"울산을 대표하는 고래고기 전문점으로, 3대째 대를 잇고 있다. 다양한 부위를 판매하고 있으며, 각 부위에 어울리는 양념이 준비된다. 4인 이상일 경우 수육, 육회, 생고기, 우네, 오베기가 한 접시에 나오는 모둠을 추천한다."},{"id":"blueribbon-2327","name":"수림복국","address":"울산광역시 중구 종가6길 26","jibunAddress":"울산광역시 중구 우정동 500-10 유성프라자 8층","phone":"052-224-0235  ","foodType":"한식(어패류)","mainFood":"","designatedDate":"","lat":35.56309333360177,"lng":129.31132563001626,"region":"울산광역시","source":"blueribbon","ribbonType":"RIBBON_ONE","review":"다양한 종류의 복요리를 맛볼 수 있는 곳. 복국을 주문하면 복튀김이 서비스로 나온다. 콩나물, 미나리 등이 푸짐하게 들어가 시원하게 속을 풀기에 제격이다. 2층은 복 전문점, 3~4층은 회를 전문으로 하는 공간으로 나뉘어 있다."},{"id":"blueribbon-2328","name":"공원불고기","address":"울산광역시 울주군 언양읍 헌양길 32","jibunAddress":"울산광역시 울주군 언양읍 동부리 153-13","phone":"052-262-0421  ","foodType":"한식(육류)","mainFood":"","designatedDate":"","lat":35.565202,"lng":129.125484,"region":"울산광역시","source":"blueribbon","ribbonType":"RIBBON_ONE","review":"언양의 대표적인 음식인 언양불고기를 맛볼 수 있다. 다진 소고기를 석쇠 위에 구워 먹는 맛이 일품이며 파절임 등에 싸서 먹으면 더욱 맛있다. 채 썬 배를 올린 육회도 추천할 만하다."},{"id":"blueribbon-2337","name":"함양집","address":"울산광역시 남구 중앙로208번길 12","jibunAddress":"울산광역시 남구 신정동 579-4","phone":"052-275-6947  ","foodType":"한식(일반한식)","mainFood":"","designatedDate":"","lat":35.539935,"lng":129.31423,"region":"울산광역시","source":"blueribbon","ribbonType":"RIBBON_ONE","review":"울산에서 가장 오래된 식당 중 하나로, 4대째 내려오는 90년 넘는 역사를 자랑한다. 비빔밥을 전문으로 하며 밥그릇과 국그릇도 옛날식 그대로 놋그릇을 사용한다. 소고기를 고아 낸 국물과 끼미(양념장)를 밥에 넣어 밑간을 하고 나서 고사리와 콩나물, 시금치나물, 등을 올리고 그 위에 육회와 전복회, 참기름과 고추장 등을 얹어 비벼 먹는다. 무와 소고기, 홍합을 넣고 끓인 탕국도 같이 나온다."}]