[{"id":"blueribbon-2131","name":"대광식당","address":"광주광역시 서구 상무대로695번길 15","jibunAddress":"광주광역시 서구 마륵동 172-4","phone":"062-226-3939  ","foodType":"한식(육류)","mainFood":"","designatedDate":"","lat":35.1440360460934,"lng":126.839136628554,"region":"광주광역시","source":"blueribbon","ribbonType":"RIBBON_TWO","review":"전에 관해서는 광주 최고라고 일컬어지는 육전이 간판메뉴다. 육전은 육질이 좋은 아롱사태를 얇게 저며서 찹쌀가루를 살짝 묻힌 뒤 계란 옷을 얇게 입혀 굽는다. 자리마다 놓인 전기 팬에서 바로 구워 먹는 것이 특징이다. "},{"id":"blueribbon-4409","name":"광양숯불구이(지산동점)","address":"광주광역시 동구 필문대로 229","jibunAddress":"광주광역시 동구 지산동 718-3","phone":"062-226-9090  ","foodType":"한식(육류)","mainFood":"","designatedDate":"","lat":35.150417,"lng":126.930509,"region":"광주광역시","source":"blueribbon","ribbonType":"RIBBON_ONE","review":"40여 년간 광양식으로 양념한 한우숯불구이를 팔고 있는 곳이다. 달착지근한 양념 맛으로 인해 남녀노소 모두 즐길 수 있다. 양념을 강하게 하고 일정 시간 재운 듯 색이 변해 있다. 밑반찬이 깔끔하게 나오는 편이다."},{"id":"blueribbon-31179","name":"카페304(상무본점)","address":"광주광역시 서구 상무누리로 15","jibunAddress":"광주광역시 서구 마륵동 171-3","phone":"0507-1464-0570","foodType":"카페/커피/티","mainFood":"","designatedDate":"","lat":35.1443297071938,"lng":126.840088340695,"region":"광주광역시","source":"blueribbon","ribbonType":"RIBBON_ONE","review":"다양한 스페셜티커피 원두를 맛볼 수 있는 핸드드립 커피 전문점으로 로스팅도 직접 하고 있다. 넓고 탁 트인 카페 내부에 식물 화분을 늘어뜨린 인테리어와 은은한 커피 향이 매력적이다. "},{"id":"blueribbon-28361","name":"알랭","address":"광주광역시 북구 호동로 3-6","jibunAddress":"광주광역시 북구 용봉동 161-43","phone":"062-228-2345  ","foodType":"프랑스식","mainFood":"","designatedDate":"","lat":35.1748589778627,"lng":126.91318013828,"region":"광주광역시","source":"blueribbon","ribbonType":"RIBBON_ONE","review":"예약제로 운영되는 프렌치 레스토랑. 프리픽스 메뉴로 구성된 코스와 단품 메뉴를 선보이며 가격도 합리적인 편이다. 와인, 맥주 등 요리와 함께 곁들이기 좋은 주류도 다양하게 갖추고 있다."},{"id":"blueribbon-31872","name":"광주옥1947 ","address":"광주광역시 서구 상무대로 1104-20","jibunAddress":"광주광역시 서구 농성동 649-6","phone":"062-362-1616  ","foodType":"한식(육류)","mainFood":"","designatedDate":"","lat":35.1524902757948,"lng":126.88366875296,"region":"광주광역시","source":"blueribbon","ribbonType":"RIBBON_ONE","review":"100% 순메밀로 제면하여 만드는 냉면 전문점. 70년 전통이 있는 곳이다. 평양냉면을 맛볼 때는 육수를 먼저 맛본 후, 식초는 면에 뿌려 먹고, 메밀면은 자르지 않은 상태로 먹다가 편육으로 마무리하는 것이 맛있게 먹는 방법이다."},{"id":"blueribbon-4045","name":"석암돌솥밥","address":"광주광역시 북구 대천로139번길 8-1","jibunAddress":"광주광역시 북구 문흥동 957-9","phone":"062-262-2222  ","foodType":"한식(일반한식)","mainFood":"","designatedDate":"","lat":35.187168,"lng":126.920503,"region":"광주광역시","source":"blueribbon","ribbonType":"RIBBON_ONE","review":"돌솥밥이 대표 메뉴인 곳. 다시마 등 여섯 가지의 재료를 우려낸 물로 돌솥밥을 짓는다. 여기에 갖가지 양념장이나 토하젓을 넣고 비벼 먹는 맛이 일품이다. 돌솥밥을 주문하면 돼지고기 수육을 비롯해 다양한 반찬이 푸짐히 곁들여져 나온다."},{"id":"blueribbon-4034","name":"영발원","address":"광주광역시 북구 서림로 141","jibunAddress":"광주광역시 북구 임동 60-2","phone":"062-525-7436  ","foodType":"중식","mainFood":"","designatedDate":"","lat":35.16005,"lng":126.900384,"region":"광주광역시","source":"blueribbon","ribbonType":"RIBBON_ONE","review":"1955년부터 시작한 화상 중식당으로, 현재는 아들이 이어받아 운영하고 있다. 짜장면 맛이 일품이며 투명한 소스에 바삭하게 튀겨낸 고기가 조화를 이루는 옛날식 탕수육도 추천 메뉴다."},{"id":"blueribbon-4003","name":"나정상회","address":"광주광역시 서구 상무자유로 24","jibunAddress":"광주광역시 서구 치평동 890-18","phone":"062-944-1489  ","foodType":"한식(육류)","mainFood":"","designatedDate":"","lat":35.151073,"lng":126.836814,"region":"광주광역시","source":"blueribbon","ribbonType":"RIBBON_ONE","review":"1971년부터 2대째 내려오는, 50여 년의 역사를 자랑하는 돼지갈비 전문점. 갈비를 소스에 조리듯이 연탄불에 오랫동안 익혀 내오기 때문에 시간이 걸린다. 갈비는 기름기가 빠져 담백한 맛을 자랑하며 동치미와 된장국을 곁들여도 깔끔하고 좋다."},{"id":"blueribbon-4002","name":"예향식당","address":"광주광역시 동구 중앙로 150-4","jibunAddress":"광주광역시 동구 호남동 43-4","phone":"062-234-7731  ","foodType":"한식(일반한식)","mainFood":"","designatedDate":"","lat":35.147418,"lng":126.912695,"region":"광주광역시","source":"blueribbon","ribbonType":"RIBBON_ONE","review":"전라도 한정식 백반집. 조기구이, 닭조림, 꽃게장, 오이무침, 마른반찬 등 30여 가지나 되는 반찬이 한상 가득 차려진다. 꽃게 집게발이 들어간 미역국도 시원하고 좋다. 가격대도 만족할 만하다."},{"id":"blueribbon-6020","name":"궁전제과","address":"광주광역시 동구 충장로 93-6","jibunAddress":"광주광역시 동구 충장로1가 1-9","phone":"062-222-3477  ","foodType":"베이커리","mainFood":"","designatedDate":"","lat":35.147698,"lng":126.917662,"region":"광주광역시","source":"blueribbon","ribbonType":"RIBBON_ONE","review":"광주에서 50여 년의 오래된 빵집으로, 광주 곳곳에 분점이 있을 정도로 유명한 곳이다. 오래된 빵집이지만 생크림케이크와 수제초콜릿 등 현대적인 트렌드의 제품들도 많이 발견할 수 있다. 페이스트리에 달콤한 시럽이 올라간 나비파이가 대표 메뉴다."},{"id":"blueribbon-6426","name":"연화","address":"광주광역시 서구 마륵복개로 147","jibunAddress":"광주광역시 서구 치평동 241-3 아트빌","phone":"062-384-1142  ","foodType":"한식(육류)","mainFood":"","designatedDate":"","lat":35.147845,"lng":126.853111,"region":"광주광역시","source":"blueribbon","ribbonType":"RIBBON_ONE","review":"광주에서 별미로 통하는 육전 전문점이다. 실내가 모두 룸으로 구성되어 있는 것이 특징이며 예약하는 것이 좋다. 맛깔스러운 전라도식 달걀 옷을 얇게 입혀 부쳐낸 육전이 넉넉한 한상으로 나온다. 테이블마다 놓인 전기 그릴에 직접 구워 곧바로 따뜻하게 먹을 수 있다. "},{"id":"blueribbon-6191","name":"신락원","address":"광주광역시 동구 충장로 45-5","jibunAddress":"광주광역시 동구 충장로5가 42","phone":"062-223-6849  ","foodType":"중식","mainFood":"","designatedDate":"","lat":35.1505617573345,"lng":126.913291884113,"region":"광주광역시","source":"blueribbon","ribbonType":"RIBBON_ONE","review":"광주에서는 유명한 화상 중국집으로, 광주 시내 곳곳에 분점을 거느리고 있다. 비교적 고급스러운 중식을 맛볼 수 있는 곳이다. 짜장면과 얼큰한 짬뽕의 맛이 좋은 편이며 탕수육을 곁들이면 금상첨화."},{"id":"blueribbon-6428","name":"미미원","address":"광주광역시 동구 백서로 218","jibunAddress":"광주광역시 동구 동명동 138-5","phone":"0507-1477-3101","foodType":"한식(육류)","mainFood":"","designatedDate":"","lat":35.1470414225913,"lng":126.926553400152,"region":"광주광역시","source":"blueribbon","ribbonType":"RIBBON_ONE","review":"광주에서 유명한 육전을 맛볼 수 있는 곳. 자리에 앉으면 소고기와 밑반찬이 나오고 즉석에서 소고기에 달걀옷을 얇게 입혀 구워준다. 육전에 파 무침을 곁들여 먹으면 더 감칠맛이 좋아진다. 식사는 돌솥밥과 반찬이 나온다."},{"id":"blueribbon-3301","name":"영미오리탕","address":"광주광역시 북구 경양로 126","jibunAddress":"광주광역시 북구 유동 102-31","phone":"062-527-0248  ","foodType":"한식(가금류)","mainFood":"","designatedDate":"","lat":35.161374,"lng":126.905559,"region":"광주광역시","source":"blueribbon","ribbonType":"RIBBON_ONE","review":"오리탕골목에서 가장 오래된 집으로, 50년이 넘는 역사를 자랑한다. 오리탕은 들깨를 풀어서 걸쭉하게 끓이며 미나리가 향긋한 맛을 더한다. 육수는 무료로 1회 추가해준다."},{"id":"blueribbon-8004","name":"화정떡갈비","address":"광주광역시 광산구 광산로29번길 6","jibunAddress":"광주광역시 광산구 송정동 830-7","phone":"062-944-1275  ","foodType":"한식(육류)","mainFood":"","designatedDate":"","lat":35.139236,"lng":126.794979,"region":"광주광역시","source":"blueribbon","ribbonType":"RIBBON_ONE","review":"송정동 떡갈비골목에서 원조로 치는 집 중 하나. 이곳의 떡갈비는 소고기와 돼지고기를 적당히 섞어서 만드는 것이 특징이다. 갈비뿐만 아니라 육회비빔밥도 별미다."},{"id":"blueribbon-3286","name":"홍아네","address":"광주광역시 서구 마륵복개로150번길 7","jibunAddress":"광주광역시 서구 치평동 245-4","phone":"062-384-9401","foodType":"한식(일반한식)","mainFood":"","designatedDate":"","lat":35.146626,"lng":126.852622,"region":"광주광역시","source":"blueribbon","ribbonType":"RIBBON_ONE","review":"전형적인 전라도식 밥상을 받아볼 수 있다. 식사로는 조기탕과 굴비 백반을 추천할 만하다. 한 상 가득 맛깔스러운 반찬이 차려지며 특히 멸치젓의 맛을 잘 살렸다. 현지인에게 더 유명한 집이며 예약을 해야 방문이 쉬우니 참고할 것."},{"id":"blueribbon-13126","name":"가매일식","address":"광주광역시 서구 상무대로 1104-26","jibunAddress":"광주광역시 서구 농성2동 649-1","phone":"062-352-7711  ","foodType":"일식","mainFood":"","designatedDate":"","lat":35.152499,"lng":126.883834,"region":"광주광역시","source":"blueribbon","ribbonType":"RIBBON_ONE","review":"모던하고 깨끗한 인테리어의 대형 일식집. 고급스럽고 수준 높은 일식을 맛볼 수 있다. 일본 사케도 여러 가지가 준비되어 있다. 김대중 전대통령이 방문하여 유명해진 집으로, 연예인의 사인도 한쪽 벽면에 가득 붙어 있다."},{"id":"blueribbon-16416","name":"가족회관","address":"광주광역시 동구 동명로 50","jibunAddress":"광주광역시 동구 동명동 159-15","phone":"062-222-3845  ","foodType":"한식(일반한식)","mainFood":"","designatedDate":"","lat":35.15121,"lng":126.925987,"region":"광주광역시","source":"blueribbon","ribbonType":"RIBBON_ONE","review":"오랜 전통을 자랑하는 한정식 식당이다. 소고기, 생선회, 어패류, 나물 등 깔끔하고 맛있는 전라도 음식을 맛볼 수 있다. 자신의 입맛에 맞지 않는 음식은 손님에게도 내지 않는다는 주방장의 신념이 그대로 느껴지는 곳이다. 상견례나 잔치 등 각종 모임을 하기에 좋다."},{"id":"blueribbon-18914","name":"조선옥","address":"광주광역시 남구 효덕로 105","jibunAddress":"광주광역시 남구 노대동 528-2","phone":"062-654-3322","foodType":"한식(어패류)","mainFood":"","designatedDate":"","lat":35.0964896803868,"lng":126.90729735327,"region":"광주광역시","source":"blueribbon","ribbonType":"RIBBON_ONE","review":""},{"id":"blueribbon-19010","name":"막동이회관","address":"광주광역시 동구 남문로 614","jibunAddress":"광주광역시 동구 소태동 601-2","phone":"062-222-0840  ","foodType":"한식(육류)","mainFood":"","designatedDate":"","lat":35.125626,"lng":126.931824,"region":"광주광역시","source":"blueribbon","ribbonType":"RIBBON_ONE","review":"가격대비 질 좋은 한우 고기를 푸짐하게 먹을 수 있는 곳. 고기를 시키면 기본으로 맑은 국물의 선짓국과 소고기전, 육사시미 등이 나온다. 고기 마블링이 예술이며 참숯 상태도 좋은 편. 생고기(육사시미)도 유명하다."},{"id":"blueribbon-36470","name":"라인벡","address":"광주광역시 광산구 수완로50번길 44-5","jibunAddress":"광주광역시 광산구 수완동 1746","phone":"0507-1491-0625","foodType":"미국식","mainFood":"","designatedDate":"","lat":35.188455719102,"lng":126.830969839581,"region":"광주광역시","source":"blueribbon","ribbonType":"RIBBON_ONE","review":"뉴욕, 샌프란시스코 등에서 요리를 했던 임정동, 전은혜 셰프의 컨템포러리 아메리칸 다이닝. 우리나라의 제철 식재료와 전통 음식을 적극 사용해 풀어나가는 창작 요리가 돋보인다. 시그니처인 토하젓 파스타는 꼭 맛볼 것을 추천한다."},{"id":"blueribbon-36640","name":"덴푸라코에루","address":"광주광역시 광산구 첨단강변로87번길 5","jibunAddress":"광주광역시 광산구 쌍암동 694-142 야스텍타워","phone":"0507-1316-4754","foodType":"일식","mainFood":"","designatedDate":"","lat":35.2143517254971,"lng":126.852021819493,"region":"광주광역시","source":"blueribbon","ribbonType":"RIBBON_ONE","review":"신라호텔 출신의 셰프가 운영하는 일식 전문점. 질 좋은 재료를 사용한 일본 요리와 일본식 튀김을 즐길 수 있다. 모든 좌석은 카운터석으로 구성되어 있으며, 디너에는 주류 주문이 필수다. 런치, 디너 모두 예약제로 운영되니 참고할 것."},{"id":"blueribbon-36193","name":"로지에","address":"광주광역시 서구 유림로50번길 9","jibunAddress":"광주광역시 서구 쌍촌동 1092","phone":"0507-1397-3609","foodType":"디저트/스위트","mainFood":"","designatedDate":"","lat":35.166880612775,"lng":126.864708940673,"region":"광주광역시","source":"blueribbon","ribbonType":"RIBBON_ONE","review":"프랑스 호텔 제과학교 에꼴 리츠 에스코피에를 졸업한 김아련 파티시에의 슈크림, 케이크 전문점. 밀가루, 버터, 초콜릿 모두 프랑스산을 공수해서 쓴다. 크리미하고 리치한 슈크림과 발로나 초콜릿을 사용한 케이크 모두 수준급이다. 일주일 중 3일만 영업하니 주의해서 방문할 것."},{"id":"blueribbon-36115","name":"마리오셰프","address":"광주광역시 남구 제중로 42","jibunAddress":"광주광역시 남구 양림동 367 ","phone":"062-682-5595","foodType":"이탈리아식","mainFood":"","designatedDate":"","lat":35.1382723202655,"lng":126.914174841179,"region":"광주광역시","source":"blueribbon","ribbonType":"RIBBON_ONE","review":""},{"id":"blueribbon-35009","name":"김명화서리태콩국수","address":"광주광역시 남구 천변좌로338번길 16","jibunAddress":"광주광역시 남구 구동 1-21 구동오피스텔","phone":"062-651-3232","foodType":"한식(면류)","mainFood":"","designatedDate":"","lat":35.1485810625633,"lng":126.908810918137,"region":"광주광역시","source":"blueribbon","ribbonType":"RIBBON_ONE","review":"담양에서 유명했던 콩국수 집으로, 광주로 이전한 뒤로도 여전한 인기를 끌고 있다. 국산 서리태로 꾸덕하게 만든 콩물이 일품이며, 계절에 따라 냉, 온 콩국수를 즐길 수 있다. "},{"id":"blueribbon-12506","name":"배리스키친","address":"광주광역시 광산구 임방울대로 324","jibunAddress":"광주광역시 광산구 수완동 1479 1층","phone":"062-953-3367  ","foodType":"베이커리","mainFood":"","designatedDate":"","lat":35.188632,"lng":126.823815,"region":"광주광역시","source":"blueribbon","ribbonType":"RIBBON_ONE","review":"대구의 유명한 베이커리 르배의 형제가 운영하는 곳. 자연발효 효모종을 사용한 바게트 등 건강빵 종류가 여러 가지 있다. 가격대도 좋은 편이다."},{"id":"blueribbon-38261","name":"메종조이초이","address":"광주광역시 동구 구성로194번길 15-4","jibunAddress":"광주광역시 동구 대인동 147","phone":"0507-1429-7357","foodType":"프랑스식","mainFood":"","designatedDate":"","lat":35.152118006969,"lng":126.915532796582,"region":"광주광역시","source":"blueribbon","ribbonType":"RIBBON_ONE","review":""},{"id":"blueribbon-38262","name":"피트","address":"광주광역시 남구 양림로41번길 5-1","jibunAddress":"광주광역시 남구 양림동 99-33","phone":"010-9426-6399","foodType":"프랑스식","mainFood":"","designatedDate":"","lat":35.1372562680005,"lng":126.91348989608,"region":"광주광역시","source":"blueribbon","ribbonType":"RIBBON_ONE","review":""},{"id":"blueribbon-2128","name":"김가원","address":"광주광역시 동구 백서로 145-1","jibunAddress":"광주광역시 동구 남동 70-6","phone":"062-382-8700  ","foodType":"한식(어패류)","mainFood":"","designatedDate":"","lat":35.1428617238044,"lng":126.921112360948,"region":"광주광역시","source":"blueribbon","ribbonType":"RIBBON_ONE","review":"톡 쏘는 홍어 맛이 일품인 흑산 홍어요리 전문점. 홍어회와 돼지고기를 묵은 김치로 감아 먹는 홍어삼합에는 삭힌 홍어와 삭히지 않은 홍어회 두 가지가 올라온다. 엄마가 끓여준 듯한 김치찌개도 고기가 가득 들어있어 즐기기 좋다. "},{"id":"blueribbon-2137","name":"송정떡갈비","address":"광주광역시 광산구 광산로29번길 1","jibunAddress":"광주광역시 광산구 송정동 826-3","phone":"062-944-1439  ","foodType":"한식(육류)","mainFood":"","designatedDate":"","lat":35.138939,"lng":126.794842,"region":"광주광역시","source":"blueribbon","ribbonType":"RIBBON_ONE","review":"1976년 송정식당으로 시작하여 육회비빔밥으로 이름을 날리다가 떡갈비를 같이 하게 되었다. 지금은 떡갈비가 더 유명하다. 떡갈비는 갈빗살을 곱게 다져서 양념하여 치댄 후 간장, 설탕, 파, 마늘 등 갖은 양념장을 발라가며 구운 것으로, 연하고 부드러운 맛을 느낄 수 있다. 광주 떡갈비거리에서 원조집으로 통하는 곳 중의 하나다."},{"id":"blueribbon-2139","name":"영광오리탕","address":"광주광역시 북구 경양로119번길 18","jibunAddress":"광주광역시 북구 신안동 9-2","phone":"062-524-0443  ","foodType":"한식(가금류)","mainFood":"","designatedDate":"","lat":35.162062,"lng":126.906179,"region":"광주광역시","source":"blueribbon","ribbonType":"RIBBON_ONE","review":"뚝배기에 미나리 등 각종 채소와 들깻가루를 함께 넣어 끓여낸 오리탕은 국물이 걸쭉하면서 칼칼하고 고소하다. 오리고기는 초장과 들깻가루를 버무린 양념장에 찍어 먹는다. 뼈를 발라내 살코기만 구워 먹는 오리로스구이도 좋다. 한약재를 넣어 끓인 약오리는 방문 4시간 전 예약해야 한다."},{"id":"blueribbon-39598","name":"차차룸 ","address":"광주광역시 북구 일곡택지로99번길 33","jibunAddress":"광주광역시 북구 일곡동 859-2","phone":"010-8847-4975","foodType":"기타","mainFood":"","designatedDate":"","lat":35.2101091844153,"lng":126.891039653196,"region":"광주광역시","source":"blueribbon","ribbonType":"RIBBON_ONE","review":""},{"id":"blueribbon-32682","name":"반가사유","address":"광주광역시 동구 백서로153번길 6","jibunAddress":"광주광역시 동구 서석동 121","phone":"0507-1310-9622","foodType":"카페/커피/티","mainFood":"","designatedDate":"","lat":35.1435667885526,"lng":126.921977820545,"region":"광주광역시","source":"blueribbon","ribbonType":"RIBBON_ONE","review":"레트로하고 차분한 분위기에서 커피와 함께 책을 읽거나 사색하기 좋은 공간이다. 직접 로스팅하는 다양한 필터 커피를 즐길 수 있으며, 에스프레소와 말차사유도 추천할 만하다. 입구에 간판이 없다는 점을 참고할 것."},{"id":"blueribbon-32681","name":"화이트셔츠커피","address":"광주광역시 서구 월드컵4강로182번길 21","jibunAddress":"광주광역시 서구 내방동 839-18","phone":"0507-1310-0596","foodType":"카페/커피/티","mainFood":"","designatedDate":"","lat":35.1525421939005,"lng":126.871959311877,"region":"광주광역시","source":"blueribbon","ribbonType":"RIBBON_ONE","review":"다양한 싱글오리진의 필터커피를 즐길 수 있는 커피 전문점. 작은 입구 계단을 통해 지하로 내려가면 아늑하면서도 쾌적한 공간이 카페로 꾸며져 있다. 라운드의 바 좌석에서 바리스타가 직접 추천하고 내려주는 커피를 맛보아도 좋다."},{"id":"blueribbon-32738","name":"라롱드꺄레","address":"광주광역시 동구 의재로136번길 35","jibunAddress":"광주광역시 동구 운림동 661-12","phone":"062-232-3375  ","foodType":"프랑스식","mainFood":"","designatedDate":"","lat":35.1320139793883,"lng":126.945467761557,"region":"광주광역시","source":"blueribbon","ribbonType":"RIBBON_ONE","review":"프랑스와 이탈리아에서 유학하고 특히 파리의 라스트렁스에서 경력을 쌓은 김현우 셰프가 고향인 광주에 오픈한 레스토랑. 전남의 식재료를 사용하여 컨템포러리 프렌치 퀴진을 선보인다. "},{"id":"blueribbon-32736","name":"라비올레따","address":"광주광역시 남구 효천로92번길 40","jibunAddress":"광주광역시 남구 임암동 701","phone":"062-652-1369  ","foodType":"이탈리아식","mainFood":"","designatedDate":"","lat":35.105316059605,"lng":126.869922783393,"region":"광주광역시","source":"blueribbon","ribbonType":"RIBBON_ONE","review":"이탈리아 파르마 알마에서 수학하고  우르비노, 피렌체 등의 다이닝 레스토랑에서 근무하다 귀국한 양창호 셰프가 고향인 광주에 오픈한 이탈리안 파인 다이닝. 한국식 피자, 파스타, 스테이크가 아닌 전남 지역의 식재료를 활용한 본격적인 본토식 이탈리안 다이닝을 만날 수 있다."},{"id":"blueribbon-35221","name":"까사델커피","address":"광주광역시 남구 중앙로110번길 31","jibunAddress":"광주광역시 남구 사동 177-15","phone":"0507-1397-3114  ","foodType":"카페/커피/티","mainFood":"","designatedDate":"","lat":35.1437086514286,"lng":126.910364828774,"region":"광주광역시","source":"blueribbon","ribbonType":"RIBBON_ONE","review":"광주에서 커피가 맛있기로 손 꼽히는 커피 전문점이다. 진한 커피향과 너트의 고소함이 잘 어울러진 넛9가 시그니처 메뉴로, 플랫화이트도 인기가 많다. "}]