[{"id":"blueribbon-29385","name":"임페리얼트레져","address":"인천광역시 중구 영종해안남로321번길 186","jibunAddress":"인천광역시 중구 운서동 2874","phone":"032-729-2227  ","foodType":"중식","mainFood":"","designatedDate":"","lat":37.438028,"lng":126.456713,"region":"인천광역시","source":"blueribbon","ribbonType":"RIBBON_TWO","review":"중국 상하이의 광둥식 레스토랑 임페리얼트레져의 한국 지점으로, 파라다이스시티 내에 자리한다. 딤섬을 비롯해 신선한 해산물로 만든 요리, 북경오리 등 시그니처 메뉴를 맛볼 수 있다. 북경오리는 하루 전 예약이 필수다."},{"id":"blueribbon-31717","name":"금문도","address":"인천광역시 강화군 강화읍 중앙로 43","jibunAddress":"인천광역시 강화군 강화읍 남산리 222 강화여객자동차터미널","phone":"032-933-0833  ","foodType":"중식","mainFood":"","designatedDate":"","lat":37.7397766771195,"lng":126.490406706965,"region":"인천광역시","source":"blueribbon","ribbonType":"RIBBON_ONE","review":""},{"id":"blueribbon-4631","name":"학익궁중삼계탕","address":"인천광역시 미추홀구 학익소로63번길 23","jibunAddress":"인천광역시 미추홀구 학익동 37-9","phone":"032-861-3939  ","foodType":"한식(가금류)","mainFood":"","designatedDate":"","lat":37.44174160085888,"lng":126.67180231454223,"region":"인천광역시","source":"blueribbon","ribbonType":"RIBBON_ONE","review":"걸쭉한 국물과 부드러운 닭고기로 인천 일대에서 유명한 삼계탕집. 장뇌, 전복, 옻, 녹각 등이 들어간 다양한 종류의 삼계탕이 이색적이다. 40여 년의 전통을 자랑한다."},{"id":"blueribbon-28093","name":"파니노구스토","address":"인천광역시 남동구 인하로507번길 14","jibunAddress":"인천광역시 남동구 구월동 1474-3 탑프라자","phone":"0507-1401-0046","foodType":"이탈리아식","mainFood":"","designatedDate":"","lat":37.4438,"lng":126.703225,"region":"인천광역시","source":"blueribbon","ribbonType":"RIBBON_ONE","review":"참나무 화덕에 구운 정통 나폴리식 피자를 맛볼 수 있는 곳. 저온 숙성한 도우를 사용해 쫄깃쫄깃한 식감이 살아 있다. 네 가지 종류의 진한 치즈 풍미를 느낄 수 있는 콰트로포르마지오피자와 바질, 치즈, 토마토 세 가지로 맛을 낸 D.O.C피자 등이 대표 메뉴다."},{"id":"blueribbon-5103","name":"용화반점","address":"인천광역시 중구 참외전로174번길 7","jibunAddress":"인천광역시 중구 경동 4-10","phone":"032-773-5970  ","foodType":"중식","mainFood":"","designatedDate":"","lat":37.471968,"lng":126.635388,"region":"인천광역시","source":"blueribbon","ribbonType":"RIBBON_ONE","review":"짬뽕밥이 유명한 중식집. 묵직하고 칼칼한 짬뽕 국물이 특히 좋다. 짬뽕은 순한 맛과 매운 맛을 고를 수 있다. 불 맛을 제대로 살린 볶음밥도 추천메뉴며 다른 중식 메뉴도 수준급이다. 70여 년의 전통을 자랑하는 곳. 정기휴무일과 관계없이 개인 사정으로 문을 닫는 날도 있어서 전화로 확인하는 것이 좋다."},{"id":"blueribbon-5102","name":"프렌치빌","address":"인천광역시 중구 신포로 27-1","jibunAddress":"인천광역시 중구 관동3가 2-5","phone":"0507-1478-3666","foodType":"베이커리","mainFood":"","designatedDate":"","lat":37.471487,"lng":126.625066,"region":"인천광역시","source":"blueribbon","ribbonType":"RIBBON_ONE","review":"3층으로 이루어진 베이커리&레스토랑. 커피를 비롯해 천연발효종을 사용해 구운 빵, 초콜릿 등을 다양하게 즐길 수 있다. 흰색 외관이 깔끔하면서도 예쁘며, 3층 야외 테라스에서 시간을 보내는 것도 추천한다."},{"id":"blueribbon-4307","name":"삼화정","address":"인천광역시 남동구 남동대로922번길 14","jibunAddress":"인천광역시 남동구 간석동 176-5","phone":"032-424-8898  ","foodType":"한식(육류)","mainFood":"","designatedDate":"","lat":37.46456,"lng":126.709028,"region":"인천광역시","source":"blueribbon","ribbonType":"RIBBON_ONE","review":"한우를 전문으로 하는 집. 고기의 가격은 싸지 않지만 맛이 좋아 사람들이 많이 찾는다. 배, 양파, 고추, 마늘 등의 채소가 곁들여 나오는 육회의 맛도 좋다는 평. 된장을 풀어 만든 우거지해장국도 식사 메뉴로 인기가 많다. 40년이 넘는 역사를 자랑하는 곳."},{"id":"blueribbon-4107","name":"부암갈비","address":"인천광역시 남동구 용천로 149","jibunAddress":"인천광역시 남동구 간석동 130-12","phone":"032-425-5538  ","foodType":"한식(육류)","mainFood":"","designatedDate":"","lat":37.462954,"lng":126.714296,"region":"인천광역시","source":"blueribbon","ribbonType":"RIBBON_ONE","review":"신선한 생돼지갈비를 맛볼 수 있는 곳으로, 숯 위에 불판을 올려 구워 먹는다. 갈치속젓, 고추장아찌, 묵은지 등의 반찬 맛도 일품. 마무리 식사로는 갈치속젓이 들어간 갈치속젓비빔밥을 빼놓을 수 없다. 줄 서서 기다릴 필요 없이 2층 대기실에서 편하게 웨이팅 할 수 있다."},{"id":"blueribbon-28511","name":"이화찹쌀순대","address":"인천광역시 중구 인중로26번길 25","jibunAddress":"인천광역시 중구 도원동 67-3","phone":"032-882-3039  ","foodType":"한식(탕/국/찌개/전골)","mainFood":"","designatedDate":"","lat":37.46429467763424,"lng":126.64049697523481,"region":"인천광역시","source":"blueribbon","ribbonType":"RIBBON_ONE","review":"50년 넘는 역사를 자랑하는 순댓집. 찹쌀을 넣어 쫀득한 식감을 내는 찹쌀순대가 대표 메뉴다. 내장과 함께 나오는 모둠 메뉴도 인기며 순대국밥도 식사메뉴로 좋다."},{"id":"blueribbon-28551","name":"툴롱","address":"인천광역시 연수구 인천타워대로132번길 30","jibunAddress":"인천광역시 연수구 송도동 8-3 휴먼빌파크","phone":"032-831-2003  ","foodType":"프랑스식","mainFood":"","designatedDate":"","lat":37.38599150946484,"lng":126.6435586122863,"region":"인천광역시","source":"blueribbon","ribbonType":"RIBBON_ONE","review":"프렌치 요리를 단품으로 즐기기 좋은 비스트로. 제주산 광어로 만든 스테이크와 오리다리콩피를 곁들인 파스타, 오리가슴살스테이크 등이 추천메뉴다. 부담없이 즐기기 좋은 합리적인 가격대의 와인도 다양하게 갖추고 있다."},{"id":"blueribbon-4110","name":"풍전식당","address":"인천광역시 미추홀구 남주길 5","jibunAddress":"인천광역시 미추홀구 주안동 607-11","phone":"032-873-9292  ","foodType":"한식(탕/국/찌개/전골)","mainFood":"","designatedDate":"","lat":37.4544609539309,"lng":126.669851615814,"region":"인천광역시","source":"blueribbon","ribbonType":"RIBBON_ONE","review":"해장국과 육개장이 유명한 집. 뚝배기에 나오는 갈비탕에는 갈빗대와 부드러운 우거지가 들어 있다. 육개장은 두꺼운 양은그릇에 가득 담겨 나오며, 건더기와 고기가 실하게 들어 있다. 40년이 넘는 역사를 자랑한다."},{"id":"blueribbon-28980","name":"신","address":"인천광역시 중구 차이나타운로 25","jibunAddress":"인천광역시 중구 북성동3가 3-66","phone":"032-761-8889  ","foodType":"중식","mainFood":"","designatedDate":"","lat":37.4769396444974,"lng":126.61929074473487,"region":"인천광역시","source":"blueribbon","ribbonType":"RIBBON_ONE","review":"중식의 대가 유방녕 셰프가 운영하는 중국요리 전문점으로, 차이나타운에 자리하고 있다. 아삭한 숙주가 올라간 짜장면을 비롯해 해산물이 풍성하게 올라간 짬뽕, 탕수육 등 다양한 메뉴를 선보인다. "},{"id":"blueribbon-4106","name":"전가복","address":"인천광역시 남동구 하촌로59번길 24","jibunAddress":"인천광역시 남동구 만수동 953-6","phone":"032-468-7869  ","foodType":"중식","mainFood":"","designatedDate":"","lat":37.453284,"lng":126.731974,"region":"인천광역시","source":"blueribbon","ribbonType":"RIBBON_ONE","review":"화상이 운영하는 중국집. 삼선짬뽕이 아닌 일반 짬뽕에도 해물이 듬뿍 들어가 국물이 시원하다. 음식에 쓰이는 재료가 신선해 맛을 잘 살리고 있다. 속이 시원하게 풀리는 굴짬뽕도 별미. "},{"id":"blueribbon-29372","name":"크로마이트커피","address":"인천광역시 연수구 청량로155번길 39-5","jibunAddress":"인천광역시 연수구 옥련동 521","phone":"032-834-6506  ","foodType":"카페/커피/티","mainFood":"","designatedDate":"","lat":37.421254,"lng":126.650581,"region":"인천광역시","source":"blueribbon","ribbonType":"RIBBON_ONE","review":"오래된 주택을 개조한 카페로, 아늑한 분위기로 꾸며져 있다. 일반적인 베리에이션 커피를 비롯해 사이폰커피, 핸드드립 커피 등 다양한 브루잉커피를 맛볼 수 있다. 커피와 함께 곁들이면 좋은 티라미수, 카스텔라 등의 디저트도 좋다."},{"id":"blueribbon-9307","name":"레벨19","address":"인천광역시 연수구 테크노파크로 151","jibunAddress":"인천광역시 연수구 송도동 93-1 오라카이송도파크호텔","phone":"032-210-7360  ","foodType":"기타","mainFood":"","designatedDate":"","lat":37.388092,"lng":126.640783,"region":"인천광역시","source":"blueribbon","ribbonType":"RIBBON_ONE","review":"공원 조망과 해안 조망을 동시에 즐기면서 여유로운 식사를 할 수 있는 뷔페 레스토랑. 별실이 따로 있어 모임이나 비즈니스 장소로 좋다. "},{"id":"blueribbon-29545","name":"멜팅룸","address":"인천광역시 남동구 은봉로312번길 29-16","jibunAddress":"인천광역시 남동구 논현동 605-12","phone":"0507-1467-8012","foodType":"기타","mainFood":"","designatedDate":"","lat":37.40451962512449,"lng":126.725848798049,"region":"인천광역시","source":"blueribbon","ribbonType":"RIBBON_ONE","review":"진한 맛의 수제버거를 만날 수 있는 곳. 소고기 패티와 진득한 치즈가 어우러진 멜팅치즈버거를 비롯해 파리지앵버거, 풀드포크버거 등이 인기 메뉴다. 짭조름한 풀드포크가 들어간 치즈프라이를 곁들여도 좋다. "},{"id":"blueribbon-29612","name":"제이라운지","address":"인천광역시 연수구 인천타워대로 257","jibunAddress":"인천광역시 연수구 송도동 84-2 아트포레","phone":"0507-1405-1672","foodType":"프랑스식","mainFood":"","designatedDate":"","lat":37.3937818483729,"lng":126.633289319826,"region":"인천광역시","source":"blueribbon","ribbonType":"RIBBON_ONE","review":"오너 셰프가 운영하는 프렌치 레스토랑으로, 예약제로 운영된다. 코스 메뉴는 계절별로 바뀌며 제철 식재료를 활용한 프렌치 요리를 즐길 수 있다. 특히 시그니처 메뉴인 양갈비구이의 완성도가 높다는 평."},{"id":"blueribbon-32034","name":"정서진메밀면옥","address":"인천광역시 서구 아라로51번길 3","jibunAddress":"인천광역시 서구 시천동 143-1","phone":"032-566-3844  ","foodType":"한식(면류)","mainFood":"","designatedDate":"","lat":37.5722288955159,"lng":126.681230713614,"region":"인천광역시","source":"blueribbon","ribbonType":"RIBBON_ONE","review":"매일 아침 직접 메밀을 빻아 만드는 100% 순메밀국수 전문점. 양지로 육수를 낸 슴슴한 평양냉면인 물메밀과 비빔메밀이 대표 메뉴다. 바삭하고 고소한 맛이 별미인 감자채전과 곁들여 먹는 것을 추천한다."},{"id":"blueribbon-29730","name":"새라새","address":"인천광역시 중구 영종해안남로321번길 186","jibunAddress":"인천광역시 중구 운서동 2874","phone":"032-729-5010","foodType":"한식(일반한식)","mainFood":"","designatedDate":"","lat":37.4372105315788,"lng":126.45576816685691,"region":"인천광역시","source":"blueribbon","ribbonType":"RIBBON_ONE","review":"인천 파라다이스시티의 부티크호텔 아트파라디소 내에 자리한 모던 퓨전한식파인다이닝 레스토랑. 서양식의 조리 기법을 응용한 창의적인 한식 메뉴를 만날 수 있다. 직접 재배한 식재료를 사용하여 식재료 본연의 맛을 살리는 것이 특징.  조식은 일요일에는 제공되지 않으며 투숙객만 이용할 수 있다."},{"id":"blueribbon-29855","name":"스시요로코부","address":"인천광역시 연수구 센트럴로 194","jibunAddress":"인천광역시 연수구 송도동 23-4 더샵 센트럴파크2","phone":"032-834-6809  ","foodType":"일식","mainFood":"","designatedDate":"","lat":37.393785630906656,"lng":126.64187294130727,"region":"인천광역시","source":"blueribbon","ribbonType":"RIBBON_ONE","review":"비교적 부담없는 가격대의 스시야로, 오마카세로만 운영된다. 부드러운 샤리와 신선한 재료로 평이 좋은 편. 100% 예약제로 운영된다."},{"id":"blueribbon-29896","name":"스시이와","address":"인천광역시 연수구 센트럴로 194","jibunAddress":"인천광역시 연수구 송도동 23-4 더샵 센트럴파크2","phone":"0507-1386-5725","foodType":"일식","mainFood":"","designatedDate":"","lat":37.393785630906656,"lng":126.64187294130727,"region":"인천광역시","source":"blueribbon","ribbonType":"RIBBON_ONE","review":"송도에서 수준 높은 스시를 만날 수 있는 곳. 제철에 맞는 신선한 식재료를 사용하는 오마카세 코스를 선보인다. 스시를 비롯해 맛보기용으로 나오는 카이센동, 튀김 등 구성이 다채롭다. 가격대비 만족도가 높은 편이다. 예약 필수."},{"id":"blueribbon-6845","name":"금문도","address":"인천광역시 계양구 효서로 268","jibunAddress":"인천광역시 계양구 작전동 416-5 금문도","phone":"032-544-6665  ","foodType":"중식","mainFood":"","designatedDate":"","lat":37.527794,"lng":126.725752,"region":"인천광역시","source":"blueribbon","ribbonType":"RIBBON_ONE","review":"매운 고추짬뽕이 유명한 중식당으로, 화상이 운영한다. 고추짬뽕은 약간 걸쭉한 국물 맛을 자랑하며 해산물과 채소 등이 넉넉히 들어가 있다. 2층은 룸으로 되어있어 단체모임 시 좋다. 직접 방문해 포장해가는 것은 가능하나 배달은 하지 않는다. 점심때는 줄을 서야 할 정도로 인기가 많다."},{"id":"blueribbon-6923","name":"오구당당","address":"인천광역시 부평구 경원대로1377번길 47","jibunAddress":"인천광역시 부평구 부평동 546-98","phone":"032-505-3388  ","foodType":"한식(일반한식)","mainFood":"","designatedDate":"","lat":37.493513,"lng":126.722037,"region":"인천광역시","source":"blueribbon","ribbonType":"RIBBON_ONE","review":"우렁쌈밥이 유명한 곳으로, 우렁이 듬뿍 들어 있는 강된장이 맛있어서 찾는 사람이 많다. 쌈 채소도 다양하게 나오는 편. 우렁쌈밥 외에 낚지볶음도 맛이 좋다. 물 대신에 여름에는 헛개수차, 겨울에는 숭늉이 나온다."},{"id":"blueribbon-6792","name":"안스베이커리(구월본점)","address":"인천광역시 남동구 인주대로 664","jibunAddress":"인천광역시 남동구 구월동 279-3 메인프라자 2차","phone":"032-463-0045  ","foodType":"베이커리","mainFood":"","designatedDate":"","lat":37.449175,"lng":126.710864,"region":"인천광역시","source":"blueribbon","ribbonType":"RIBBON_ONE","review":"30년 넘는 오랜 역사를 자랑하는 빵집. 빵의 종류도 다양하고, 케이크의 맛도 좋다는 평이 많다. 특허를 받은 명란 소스가 들어간 명란 바게트가 인기 메뉴다. 부담 없는 가격의 소금 빵도 많이 찾는다. "},{"id":"blueribbon-37007","name":"해월커피(송도점)","address":"인천광역시 연수구 인천타워대로197번길 16","jibunAddress":"인천광역시 연수구 송도동 96","phone":"032-833-0146","foodType":"카페/커피/티","mainFood":"","designatedDate":"","lat":37.389004286781,"lng":126.635327347312,"region":"인천광역시","source":"blueribbon","ribbonType":"RIBBON_ONE","review":"깔끔한 매장에서 커피와 디저트를 즐길 수 있는 카페다. 커피는 에스프레소와 핸드드립 둘 다 준비되어 있다. 직접 만든 크루아상도 맛볼 수 있는데, 크루아상 브런치와 마스카포네 크림 크루아상을 많이 찾는다."},{"id":"blueribbon-8118","name":"송원식당","address":"인천광역시 중구 연안부두로 16","jibunAddress":"인천광역시 중구 항동7가 60 해양센타","phone":"032-884-2838  ","foodType":"한식(어패류)","mainFood":"","designatedDate":"","lat":37.4565683327186,"lng":126.603583401783,"region":"인천광역시","source":"blueribbon","ribbonType":"RIBBON_ONE","review":"연안부두의 밴댕이회무침거리에서 원조로 통하는 곳. 생물밴댕이만 사용하는 것이 특징이다. 된장에 찍어 먹는 밴댕이회, 매콤한 밴댕이회무침 등을 맛볼 수 있으며 무한리필되는 돌게장 맛이 일품이다. 푸짐하게 나오는 밴댕이회무침에 상추, 밥 등을 넣고 비벼 먹어도 맛이 좋다."},{"id":"blueribbon-8129","name":"신포순대","address":"인천광역시 중구 제물량로166번길 33","jibunAddress":"인천광역시 중구 신포동 38-1","phone":"032-773-5735  ","foodType":"한식(탕/국/찌개/전골)","mainFood":"","designatedDate":"","lat":37.471484,"lng":126.62625,"region":"인천광역시","source":"blueribbon","ribbonType":"RIBBON_ONE","review":"신포국제시장 내에서 유명한 순댓집. 찹쌀순대, 당면순대, 카레순대, 매운순대 등 직접 개발한 독특한 순대를 맛볼 수 있다. 깔끔한 국물의 순댓국과 철판에 볶아 먹는 순대곱창볶음도 인기 있다."},{"id":"blueribbon-3327","name":"청실홍실(신포본점)","address":"인천광역시 중구 우현로35번길 23-1","jibunAddress":"인천광역시 중구 신생동 2-1","phone":"032-772-7760  ","foodType":"한식(면류)","mainFood":"","designatedDate":"","lat":37.470842,"lng":126.625026,"region":"인천광역시","source":"blueribbon","ribbonType":"RIBBON_ONE","review":"메밀국수 한 가지로 인천 지역을 석권한 집이다. 메밀 맛이 물씬 나는 고소한 면발과 짭짤한 다시마 국물, 면을 더욱 시원하게 만드는 무즙이면 시원한 메밀국수 한 그릇이 된다. 냉면처럼 겨자와 식초를 적당히 뿌려서 먹는 것도 괜찮다. 날씨가 추워지면 따뜻한 메밀우동, 부드러운 통만두나 매콤한 김치만두 등 선택의 폭이 넓어진다."},{"id":"blueribbon-3326","name":"진흥각","address":"인천광역시 중구 신포로23번길 20","jibunAddress":"인천광역시 중구 중앙동4가 6-2","phone":"032-772-3058  ","foodType":"중식","mainFood":"","designatedDate":"","lat":37.471662,"lng":126.623914,"region":"인천광역시","source":"blueribbon","ribbonType":"RIBBON_ONE","review":"차이나타운의 웬만한 곳보다 오랜 역사의 화상 중식당. 짜장면, 짬뽕, 탕수육을 비롯하여 당면잡채, 난자완스 등의 맛도 좋다. 전가복 같은 해물 요리도 맛이 좋다. 60여 년의 역사를 자랑하는 곳."},{"id":"blueribbon-3193","name":"경인면옥","address":"인천광역시 중구 신포로46번길 38","jibunAddress":"인천광역시 중구 내동 154","phone":"032-762-5770  ","foodType":"한식(면류)","mainFood":"","designatedDate":"","lat":37.472478,"lng":126.628214,"region":"인천광역시","source":"blueribbon","ribbonType":"RIBBON_ONE","review":"오랫동안 냉면과 만두를 해온 집. 70년 넘게 2대에 걸쳐 평양냉면과 온면 맛을 그대로 이어오고 있다. 깔끔한 평양냉면을 선보이며 소고기와 돼지고기가 푸짐하게 들어간 만두를 곁들이면 좋다. 녹두만으로 만든 녹두부침도 추천."},{"id":"blueribbon-30342","name":"숙성명작","address":"인천광역시 서구 담지로8번길 14","jibunAddress":"인천광역시 서구 청라동 171-12","phone":"032-566-9298  ","foodType":"한식(육류)","mainFood":"","designatedDate":"","lat":37.530802862996296,"lng":126.66116238443087,"region":"인천광역시","source":"blueribbon","ribbonType":"RIBBON_ONE","review":"캐주얼하고 깔끔한 분위기에서 숙성한우를 즐길 수 있는 곳이다. 저온에서 일주일간 숙성시킨 최고급 채끝등심과 안심을 치즈와 함께 구워 먹는 맛이 일품이다. 합리적인 가격대의 와인 리스트도 괜찮은 편이며 와인 콜키지가 무료다."},{"id":"blueribbon-30081","name":"비스트로페르레이","address":"인천광역시 서구 크리스탈로 100","jibunAddress":"인천광역시 서구 청라동 152-1 청라호수공원프라자","phone":"0507-1398-3666","foodType":"이탈리아식","mainFood":"","designatedDate":"","lat":37.53386631106574,"lng":126.63692747385267,"region":"인천광역시","source":"blueribbon","ribbonType":"RIBBON_ONE","review":"도심 속 쉼터인 청라중앙호수공원 앞에 자리한 이탈리안 레스토랑. 이탈리안 정통 화덕에 구운 피자를 비롯해 파스타, 리조토, 스테이크 등 진한 이탈리아의 맛을 느낄 수 있다."},{"id":"blueribbon-8138","name":"해장국","address":"인천광역시 동구 동산로87번길 6","jibunAddress":"인천광역시 동구 송림동 59-25","phone":"032-766-0335  ","foodType":"한식(탕/국/찌개/전골)","mainFood":"","designatedDate":"","lat":37.475057,"lng":126.644915,"region":"인천광역시","source":"blueribbon","ribbonType":"RIBBON_ONE","review":"상호가 없는 해장국집. 해장국이라는 이름만 간판에 걸려 있다. 설렁탕은 한우 양지를 넣어 국물이 맑은 편이며 해장국은 설렁탕 국물에 우거지를 넣어 단맛이 난다. 오전 5시부터 10시 30분까지는 해장국을, 11시부터 오후 3시까지는 설렁탕을 판매한다."},{"id":"blueribbon-8220","name":"권오길손국수","address":"인천광역시 서구 검단로 789","jibunAddress":"인천광역시 서구 불로동 779-4 권오길 손국수","phone":"032-564-7541  ","foodType":"한식(면류)","mainFood":"","designatedDate":"","lat":37.615402,"lng":126.686621,"region":"인천광역시","source":"blueribbon","ribbonType":"RIBBON_ONE","review":"국수 명인이 만드는 면발이 맛있기로 유명하다. 즉석 칼국수, 비빔면, 김치말이국수 등이 인기 메뉴. 칼국수는 매운 국물과 맑은 국물 중에 선택할 수 있다. 면의 굵기도 넓은 것으로 주문할 수 있으며 공깃밥 대신 주문할 수 있는 보리밥도 별미다. 오랫동안 국수 공장을 운영해온 곳으로, 식당 위층은 여전히 국수 제조 공장을 겸하고 있다. "},{"id":"blueribbon-13192","name":"강화국수","address":"인천광역시 강화군 강화읍 동문안길 12-1","jibunAddress":"인천광역시 강화군 강화읍 관청리 488-1 삼성양복점","phone":"032-933-7337  ","foodType":"한식(면류)","mainFood":"","designatedDate":"","lat":37.7471090383513,"lng":126.486294894912,"region":"인천광역시","source":"blueribbon","ribbonType":"RIBBON_ONE","review":"70년이 넘는 세월 동안 비빔국수로 인기를 끈 곳이다. 처음에는 비빔국수와 잔치국수만 했으나 지금은 계절에 따라 열무국수, 콩국수, 냉국수도 맛볼 수 있다. 제대로 우려낸 멸치 육수 맛이 좋다. "},{"id":"blueribbon-14927","name":"꼭대기집약수터","address":"인천광역시 강화군 길상면 장흥로101번길 31-11","jibunAddress":"인천광역시 강화군 길상면 장흥리 220-3","phone":"032-937-0914  ","foodType":"한식(육류)","mainFood":"","designatedDate":"","lat":37.611703,"lng":126.510658,"region":"인천광역시","source":"blueribbon","ribbonType":"RIBBON_ONE","review":"일반 가마솥 삼겹살과는 달리 진짜 아궁이 가마솥 위에 삼겹살을 구워 먹는다. 주인장 내외가 직접 기른 돼지고기와 쌀을 사용하며, 가마솥밥이 기본으로 나온다. 가족 모임이나 회사 모임 하기에 적당하다."},{"id":"blueribbon-17334","name":"충남서산꽃게탕집","address":"인천광역시 연수구 대암로22번길 11","jibunAddress":"인천광역시 연수구 옥련동 563-2","phone":"032-831-7339  ","foodType":"한식(어패류)","mainFood":"","designatedDate":"","lat":37.417637,"lng":126.652544,"region":"인천광역시","source":"blueribbon","ribbonType":"RIBBON_ONE","review":"송도에서 유명했던 꽃게 요리 전문 포장마차가 확장 이전한 곳이다. 속이 알찬 게를 사용해 담백하고 깔끔한 맛이 일품이다. 꽃게찜, 꽃게탕, 꽃게무침, 게장 등 다양한 게 요리가 나오는 코스도 추천할 만하다."},{"id":"blueribbon-30797","name":"깨비옥(월드마크점)","address":"인천광역시 연수구 컨벤시아대로 116","jibunAddress":"인천광역시 연수구 송도동 22-21 푸르지오월드마크","phone":"032-833-7736  ","foodType":"한식(탕/국/찌개/전골)","mainFood":"","designatedDate":"","lat":37.3934747558952,"lng":126.646717372459,"region":"인천광역시","source":"blueribbon","ribbonType":"RIBBON_ONE","review":"맑은 국물이 특징인 서울식 곰탕을 맛볼 수 있는 곳이다. 토렴해서 나오는 곰탕은 담백하고 고소하다. 한우육회비빔밥도 인기 메뉴다. "},{"id":"blueribbon-34348","name":"농가의식탁","address":"인천광역시 강화군 선원면 해안동로 1037-8","jibunAddress":"인천광역시 강화군 선원면 연리 433-1","phone":"0507-1369-0145","foodType":"한식(일반한식)","mainFood":"","designatedDate":"","lat":37.7081838842712,"lng":126.514820267929,"region":"인천광역시","source":"blueribbon","ribbonType":"RIBBON_ONE","review":"강화도 농산물로 만드는 퓨전 한식을 즐길 수 있는 곳. 넓은 앞마당과 시골 농가에 초대되어 온 듯한 인테리어가 삼겹구운채소구이가 가장 인기가 좋으며, 파스타도 많이 찾는 메뉴다. 신선한 샐러드와 음료, 후식 등이 준비된 샐러드바도 이용할 수 있다. "},{"id":"blueribbon-18375","name":"열두바구니","address":"인천광역시 연수구 신송로125번길 7","jibunAddress":"인천광역시 연수구 송도동 3-5 이리옴프라자","phone":"032-834-4433  ","foodType":"한식(탕/국/찌개/전골)","mainFood":"","designatedDate":"","lat":37.39488,"lng":126.651559,"region":"인천광역시","source":"blueribbon","ribbonType":"RIBBON_ONE","review":"속이 꽉 찬 게장으로 인기가 좋은 곳이다. 게장을 주문하면 된장찌개, 청국장 등을 함께 내준다. 100% 우리 콩으로 쑨 메주와 간장으로 요리하며, 재래식으로 직접 담근 청국장의 맛이 깊고 진하다. 떡갈비에도 청국장 양념을 하는 점이 특이하다."},{"id":"blueribbon-18732","name":"복화루","address":"인천광역시 부평구 부평대로32번길 16","jibunAddress":"인천광역시 부평구 부평동 211-125","phone":"032-503-9725  ","foodType":"중식","mainFood":"","designatedDate":"","lat":37.494263,"lng":126.723941,"region":"인천광역시","source":"blueribbon","ribbonType":"RIBBON_ONE","review":"인천에서 가장 오래된 중식당으로, 70년 넘는 역사를 자랑한다. 오이채와 달걀프라이가 올라간 전통적인 간짜장을 맛볼 수 있다. 직접 빚어서 만드는 군만두의 맛도 상당하다. 탕수육을 비롯한 요리도 옛날식으로 나온다."},{"id":"blueribbon-2956","name":"죽림다원","address":"인천광역시 강화군 길상면 전등사로 37-41","jibunAddress":"인천광역시 강화군 길상면 온수리 635 전등사","phone":"032-937-7791  ","foodType":"카페/커피/티","mainFood":"","designatedDate":"","lat":37.632894,"lng":126.484912,"region":"인천광역시","source":"blueribbon","ribbonType":"RIBBON_ONE","review":"전등사 안에 있는 다원으로, 6개월 동안 설탕물에 숙성시킨 솔차, 녹차에 강화산 6년근 인삼을 넣은 인삼녹차, 대추차 등이 유명하다. 주변 경치가 빼어나 전등사를 방문하는 관광객이 한 번씩 들르는 곳이기도 하다."},{"id":"blueribbon-23113","name":"만복정","address":"인천광역시 강화군 강화읍 중앙로 17-9","jibunAddress":"인천광역시 강화군 강화읍 갑곳리 849 강화풍물시장 2층 32호","phone":"032-933-3085  ","foodType":"한식(어패류)","mainFood":"","designatedDate":"","lat":37.741527,"lng":126.492891,"region":"인천광역시","source":"blueribbon","ribbonType":"RIBBON_ONE","review":"강화풍물시장 내에 있는 식당으로, 50년 넘는 전통을 자랑한다. 밴댕이회무침이 맛있기로 유명하며, 인삼이 들어 있어 쌉쌀한 맛이 난다. 노릇하게 구운 밴댕이구이도 별미. 회를 주문하면 선짓국이 서비스로 나온다. "},{"id":"blueribbon-36126","name":"안돈","address":"인천광역시 연수구 컨벤시아대로 126","jibunAddress":"인천광역시 연수구 송도동 22-22 푸르지오월드마크","phone":"032-831-7990","foodType":"한식(육류)","mainFood":"","designatedDate":"","lat":37.3929791823293,"lng":126.645688890785,"region":"인천광역시","source":"blueribbon","ribbonType":"RIBBON_ONE","review":"돼지고기를 오마카세로 즐길 수 있는 곳. 돌을 활용한 인테리어로 정적이면서도 고급스러운 분위기. 100% 예약제. 점심은 1부, 저녁은 2부로 나눠서 진행된다. 독창적인 애피타이저 메뉴부터 예사롭지 않다. 비주얼과 퍼포먼스를 모두 잡은 곳이라는 평."},{"id":"blueribbon-35861","name":"디벨로핑룸(연수점)","address":"인천광역시 연수구 청명로 26","jibunAddress":"인천광역시 연수구 청학동 497-2","phone":"032-821-2006","foodType":"카페/커피/티","mainFood":"","designatedDate":"","lat":37.4176352451493,"lng":126.675810259257,"region":"인천광역시","source":"blueribbon","ribbonType":"RIBBON_ONE","review":""},{"id":"blueribbon-35366","name":"카페뮤게트","address":"인천광역시 부평구 부평대로36번길 35","jibunAddress":"인천광역시 부평구 부평동 211-157","phone":"0507-1358-1331","foodType":"카페/커피/티","mainFood":"","designatedDate":"","lat":37.4947910560605,"lng":126.724853680131,"region":"인천광역시","source":"blueribbon","ribbonType":"RIBBON_ONE","review":"블랙톤 인테리어의 깔끔하고 차분한 느낌의 로스터리 카페. 커피 원두는 산미가 있는 것과 없는 것 중에 선택할 수 있다. 버터크림과 후추가 들어간 플랫버터와 뮤게트아인슈페터가 시그니처 메뉴다. 레몬청과 탄산수를 넣은 디카페인 콜드브루 음료인 커몬커몬도 추천. 페퍼민트 차로 만든 밀크티도 맛볼 수 있다. "},{"id":"blueribbon-35546","name":"봄날의정원한식당","address":"인천광역시 강화군 선원면 선원사지로 67","jibunAddress":"인천광역시 강화군 선원면 신정리 423-4","phone":"032-934-0673","foodType":"한식(일반한식)","mainFood":"","designatedDate":"","lat":37.7242095140887,"lng":126.507107185454,"region":"인천광역시","source":"blueribbon","ribbonType":"RIBBON_ONE","review":"중정정원이 보이는 단아한 공간에서 한식을 즐길 수 있는 곳. 직접 담는 보쌈김치와 함께 나오는 보쌈정식이 추천 메뉴다. 모든 메뉴는 제철 나물 반찬과 잡곡 솥밥이 함께 나오는 1인 반상으로 제공된다."},{"id":"blueribbon-35166","name":"커피화로스터스(본점)","address":"인천광역시 연수구 송도과학로27번길 70","jibunAddress":"인천광역시 연수구 송도동 150 롯데캐슬","phone":"0507-1365-7309","foodType":"카페/커피/티","mainFood":"","designatedDate":"","lat":37.3879630465081,"lng":126.667249614783,"region":"인천광역시","source":"blueribbon","ribbonType":"RIBBON_ONE","review":"직접 원두 로스팅을 하는 곳으로, 수상 경력이 많은 바리스타의 핸드 드립 솜씨를 맛볼 수 있다. 커피를 시키면 원두의 특징을 적은 메모지를 함께 준다. 피낭시에, 쿠키, 스콘, 크루아상 등 베이커리 메뉴도 준비되어 있다."},{"id":"blueribbon-37983","name":"뻘다방","address":"인천광역시 옹진군 영흥면 선재로 55","jibunAddress":"인천광역시 옹진군 영흥면 선재리 148-2","phone":"0507-1470-8308","foodType":"카페/커피/티","mainFood":"","designatedDate":"","lat":37.2341897303881,"lng":126.531274839432,"region":"인천광역시","source":"blueribbon","ribbonType":"RIBBON_ONE","review":""},{"id":"blueribbon-32391","name":"아뚜드스윗","address":"인천광역시 강화군 강화읍 강화대로 456-14","jibunAddress":"인천광역시 강화군 강화읍 관청리 881-2","phone":"032-932-5282  ","foodType":"카페/커피/티","mainFood":"","designatedDate":"","lat":37.7484806470159,"lng":126.481559688009,"region":"인천광역시","source":"blueribbon","ribbonType":"RIBBON_ONE","review":"다양한 프랑스식 디저트를 맛볼 수 있는 카페로, 시즌별로 바뀌는 디저트가 포인트다. 프릳츠 원두로 만든 달콤 쌉싸름한 커피가 디저트와 잘 어울린다. 건축가가 설계한 독특한 외관의 건물로 인천시 건축상을 수상했으며 인테리어도 세련되면서 편안하다."},{"id":"blueribbon-33136","name":"오크레스토랑(오크우드프리미어인천점)","address":"인천광역시 연수구 컨벤시아대로 165","jibunAddress":"인천광역시 연수구 송도동 6-10 포스코타워-송도","phone":"032-726-2301  ","foodType":"기타","mainFood":"","designatedDate":"","lat":37.3891408885668,"lng":126.644442676851,"region":"인천광역시","source":"blueribbon","ribbonType":"RIBBON_ONE","review":"36층의 스카이라운지급 전망을 자랑하는 레스토랑. 부위별 다양한 스테이크와 코스 메뉴를 즐길 수 있다. 메인을 시킨 후 애피타이저, 수프, 샐러드, 디저트, 커피가 진열되어 있는 안티파스티 뷔페를 함께 이용할 수 있다."},{"id":"blueribbon-38767","name":"송도커피","address":"인천광역시 연수구 컨벤시아대로 60","jibunAddress":"인천광역시 연수구 송도동 20-23 푸르지오월드마크","phone":"0507-1399-3414","foodType":"카페/커피/티","mainFood":"","designatedDate":"","lat":37.3975857583899,"lng":126.650666499516,"region":"인천광역시","source":"blueribbon","ribbonType":"RIBBON_ONE","review":""},{"id":"blueribbon-2374","name":"충남서산집","address":"인천광역시 강화군 내가면 중앙로 1200","jibunAddress":"인천광역시 강화군 내가면 외포리 385 충남서산집","phone":"032-933-8403  ","foodType":"한식(어패류)","mainFood":"","designatedDate":"","lat":37.7046601088169,"lng":126.391045725067,"region":"인천광역시","source":"blueribbon","ribbonType":"RIBBON_ONE","review":"외포리선착장 인근에 있는 꽃게 전문점. 꽃게탕이 대표 메뉴로, 살이 꽉 찬 꽃게와 칼칼한 국물이 잘 어울린다. 순무김치를 비롯해 어리굴젓 등의 반찬도 맛이 좋으며 잡곡밥도 훌륭하다. 남은 국물에 수제비를 끓여 먹는 맛도 그만이다."},{"id":"blueribbon-2339","name":"대선정","address":"인천광역시 강화군 길상면 온수길 36","jibunAddress":"인천광역시 강화군 길상면 온수리 510-5","phone":"032-937-1907  ","foodType":"한식(일반한식)","mainFood":"","designatedDate":"","lat":37.63973240343648,"lng":126.49070426015393,"region":"인천광역시","source":"blueribbon","ribbonType":"RIBBON_ONE","review":"강화에서 손꼽히는 전통 음식점. 시래기밥과 모두부 등의 음식을 맛볼 수 있다. 메밀칼싹두기는 메밀칼국수를 뜻하는 것으로, 구수한 맛이 일품이다. 시골 맛의 향취가 남아 있는 곳이다."},{"id":"blueribbon-2338","name":"레스토랑8","address":"인천광역시 중구 영종해안남로321번길 208","jibunAddress":"인천광역시 중구 운서동 2850-1 그랜드하얏트인천 이스트타워","phone":"032-745-1234  ","foodType":"기타","mainFood":"","designatedDate":"","lat":37.440445,"lng":126.457435,"region":"인천광역시","source":"blueribbon","ribbonType":"RIBBON_ONE","review":"8개의 각기 다른 코너로 나뉘어 있어 취향에 맞는 요리를 골라 먹을 수 있는 곳. 카페, 생선초밥, 제과, 디저트, 이탈리아식 요리, 한국식 그릴 요리, 일본식 꼬치구이, 국수 요리 등 주메뉴에 따라 각기 다른 코너로 구분되며 각각에 어울리는 색상으로 각 공간을 표현했다. 토, 일요일 디너는 뷔페로 운영한다."},{"id":"blueribbon-2340","name":"갯마을산낙지전문점","address":"인천광역시 서구 담지로86번길 5-43","jibunAddress":"인천광역시 서구 청라동 133-14","phone":"032-561-8077  ","foodType":"한식(어패류)","mainFood":"","designatedDate":"","lat":37.538211,"lng":126.662052,"region":"인천광역시","source":"blueribbon","ribbonType":"RIBBON_ONE","review":"산낙지 전문점. 고추를 갈아 넣은 연포탕은 참기름을 넣지 않아 깨끗하고 시원한 맛이 해장에도 그만이다. 전남 무안에서 직접 보내는 재료를 사용하며, 낙지를 못 잡아 재료가 없으면 식당 문을 닫는다."},{"id":"blueribbon-2343","name":"금산식당","address":"인천광역시 연수구 청능대로53번길 24-4","jibunAddress":"인천광역시 연수구 청학동 483","phone":"032-818-1893  ","foodType":"한식(어패류)","mainFood":"","designatedDate":"","lat":37.417657,"lng":126.673635,"region":"인천광역시","source":"blueribbon","ribbonType":"RIBBON_ONE","review":"대표 메뉴인 밴댕이회를 신김치에 올려서 먹는 맛이 별미다. 밴댕이와 한치를 미나리, 당근, 오이 등의 채소와 함께 버무려내는 밴댕이무침도 맛있다. 밴댕이 철이 아닐 때는 준치회, 한치회, 전어회 등의 제철 회를 즐길 수 있다. 간장게장, 나물 등 밑반찬도 푸짐하게 나오는 편이다. "},{"id":"blueribbon-2344","name":"긴자(송도유원지점)","address":"인천광역시 연수구 청량로120번길 10","jibunAddress":"인천광역시 연수구 옥련동 573","phone":"032-832-7722  ","foodType":"일식","mainFood":"","designatedDate":"","lat":37.4185279909319,"lng":126.655151731132,"region":"인천광역시","source":"blueribbon","ribbonType":"RIBBON_ONE","review":"빼어난 송도의 경관과 정통 일식의 진미를 동시에 느낄 수 있다. 하얀 햇살 사이로 내려다보이는 푸른 바다, 1천 평의 넓은 규모와 화려하고 세련된 일본 식당을 완벽하게 재현한 실내 장식이 돋보인다. 입구의 폭포와 분수, 넓은 정원에 조각처럼 세워진 건물, 현관에 설치된 다리도 인상적이다."},{"id":"blueribbon-2349","name":"벌말매운탕","address":"인천광역시 계양구 벌말로565번길 5","jibunAddress":"인천광역시 계양구 상야동 171-1","phone":"032-544-5785  ","foodType":"한식(민물어패류)","mainFood":"","designatedDate":"","lat":37.578647,"lng":126.778243,"region":"인천광역시","source":"blueribbon","ribbonType":"RIBBON_ONE","review":"김포의 민물고기 매운탕의 원조가 되는 곳이다. 대형 음식점으로 바뀐 지금은 거의 양식을 쓰고 있다. 다진마늘과 미나리 등을 푸짐하게 넣은 메기매운탕이 대표 메뉴로, 칼칼한 국물 맛이 일품이다. 라면, 수제비 사리는 무한리필 된다."},{"id":"blueribbon-2351","name":"부원집","address":"인천광역시 연수구 샘말로8번길 7-10","jibunAddress":"인천광역시 연수구 연수동 629-10","phone":"032-812-1085  ","foodType":"한식(어패류)","mainFood":"","designatedDate":"","lat":37.411992,"lng":126.678551,"region":"인천광역시","source":"blueribbon","ribbonType":"RIBBON_ONE","review":"생선구이 전문점으로, 다양한 생선으로 구성된 모둠생선구이가 대표 메뉴다. 소 힘줄을 뼈와 같이 끓인 스지탕도 인기가 좋으며 키조개관자구이도 술안주로 제격이다. 남은 국물에 수제비를 떠먹는 맛도 좋다."},{"id":"blueribbon-2353","name":"원조선창집장어구이","address":"인천광역시 강화군 선원면 해안동로 1199","jibunAddress":"인천광역시 강화군 선원면 신정리 320-3 선창집장어구이","phone":"032-932-7628  ","foodType":"한식(민물어패류)","mainFood":"","designatedDate":"","lat":37.721607,"lng":126.513266,"region":"인천광역시","source":"blueribbon","ribbonType":"RIBBON_ONE","review":"강화의 명소인 더리미장어마을의 원조. 옛날 자연산 장어를 조리하던 방법 그대로 굽는 담백한 장어구이를 선보인다. 미리 토막을 쳐서 주방에서 초벌구이해 나오는데, 토막을 미리 내야 초벌구이를 하는 동안 장어의 기름이 빠져나가기 때문이라고 한다. 한 차례 구운 장어 토막을 고추장 양념에 담가 석쇠에 얹어 한 번 더 굽는다. 취향에 따라 양념을 더 진하게 발라 구울 수도 있다."},{"id":"blueribbon-2359","name":"신승반점","address":"인천광역시 중구 차이나타운로44번길 31-3","jibunAddress":"인천광역시 중구 북성동2가 11-32","phone":"032-762-9467  ","foodType":"중식","mainFood":"","designatedDate":"","lat":37.475428,"lng":126.617798,"region":"인천광역시","source":"blueribbon","ribbonType":"RIBBON_ONE","review":"청요리 1백 년 역사를 자랑하는 유명한 공화춘을 처음으로 열었던 우회광 씨의 외손녀가 운영하고 있다. 공화춘 집안 대대로 내려오는 짜장소스의 맛이 좋다. 유니짜장면을 비롯한 탕수육, 잡채밥도 추천할 만한 메뉴. 70여 년의 역사를 자랑한다."},{"id":"blueribbon-2372","name":"진두강참장어","address":"인천광역시 강화군 내가면 황청포구로 489","jibunAddress":"인천광역시 강화군 내가면 황청리 852-10 진두강참장어","phone":"032-932-6711  ","foodType":"한식(민물어패류)","mainFood":"","designatedDate":"","lat":37.711918,"lng":126.353835,"region":"인천광역시","source":"blueribbon","ribbonType":"RIBBON_ONE","review":"새끼장어를 바다에서 직접 잡아 6개월 정도 숯가루를 먹여 키운 후 잡는다. 숯불에 구워 먹는 장어는 선도가 좋으므로 소금구이를 추천한다. 순무김치와 장어의 궁합도 좋다. 식당 바로 앞이 진두강이라 강을 바라보며 식사할 수 있다. 포장도 가능하다."},{"id":"blueribbon-2378","name":"토가","address":"인천광역시 강화군 화도면 해안남로 1912","jibunAddress":"인천광역시 강화군 화도면 흥왕리 566-1 ","phone":"032-937-4482  ","foodType":"한식(일반한식)","mainFood":"","designatedDate":"","lat":37.608793,"lng":126.417985,"region":"인천광역시","source":"blueribbon","ribbonType":"RIBBON_ONE","review":"강화도 토속 음식을 맛볼 수 있는 곳. 간이 되어 있지 않은 하얀 국물의 순두부가 특징이며 간장으로 간을 맞추어 먹는다. 청양고추와 새우젓으로 간을 맞추는 두부새우젓찌개도 인기 메뉴다. 한옥을 개조해 편안한 분위기다."},{"id":"blueribbon-2385","name":"화선횟집","address":"인천광역시 중구 우현로49번길 11-25","jibunAddress":"인천광역시 중구 신포동 5-10","phone":"032-772-4408  ","foodType":"한식(어패류)","mainFood":"","designatedDate":"","lat":37.47137550092973,"lng":126.62734974373366,"region":"인천광역시","source":"blueribbon","ribbonType":"RIBBON_ONE","review":"자연산 민어를 전문으로 하는 횟집. 가격은 높은 편이지만 두툼하게 썰어낸 회 맛이 좋다. 민어회를 다 먹고 난 후에는 칼칼한 민어탕으로 마무리한다. 기본으로 나오는 반찬의 맛도 깔끔한 편."}]