[{"id":"blueribbon-5310","name":"성심당","address":"대전광역시 중구 대종로480번길 15","jibunAddress":"대전광역시 중구 은행동 145-1","phone":"1588-8069  ","foodType":"베이커리","mainFood":"","designatedDate":"","lat":36.327735,"lng":127.427271,"region":"대전광역시","source":"blueribbon","ribbonType":"RIBBON_TWO","review":"대전을 상징하는 오래된 빵집. 유산균을 발효시켜 만든 다양한 빵들을 먹을 수 있는 곳이다. 팥 앙금이 들어간 튀김소보로가 가장 유명하다. 70년 가까운 역사를 자랑한다."},{"id":"blueribbon-7086","name":"스시호산","address":"대전광역시 서구 대덕대로 366","jibunAddress":"대전광역시 서구 만년동 282 대전 둔산 해가든 센트럴파크","phone":"042-482-0053  ","foodType":"일식","mainFood":"","designatedDate":"","lat":36.365491,"lng":127.380015,"region":"대전광역시","source":"blueribbon","ribbonType":"RIBBON_TWO","review":"신라호텔 아리아께에서 경력을 쌓은 조리장이 쥐는 스시야. 기대할 만한 수준의 스시를 맛볼 수 있는 곳. 대전에서는 최고의 스시로 손꼽을 수 있는 곳이다. 예약제로 디너 오마카세만 운영하니 방문 시 참고할 것."},{"id":"blueribbon-26730","name":"톨드어스토리","address":"대전광역시 서구 갈마역로25번길 31","jibunAddress":"대전광역시 서구 갈마동 875","phone":"042-867-2335  ","foodType":"카페/커피/티","mainFood":"","designatedDate":"","lat":36.3527262476506,"lng":127.372458280442,"region":"대전광역시","source":"blueribbon","ribbonType":"RIBBON_TWO","review":"하이엔드 로스터리 카페. 커피 공장으로 사용하다 매장의 반을 나누어 카페로 오픈한 곳이다. 브라질 스페셜티 커피 협회에서 인증받은 커피를 사용한다. 다른 커피 전문점에 비해 합리적인 가격에 좋은 원두로 내린 커피를 맛볼 수 있다. 신선한 원두와 드립 기구 등도 판매한다."},{"id":"blueribbon-4442","name":"별난집","address":"대전광역시 동구 중앙로193번길 8","jibunAddress":"대전광역시 동구 중동 60-4","phone":"042-252-7761  ","foodType":"한식(일반한식)","mainFood":"","designatedDate":"","lat":36.330913,"lng":127.430711,"region":"대전광역시","source":"blueribbon","ribbonType":"RIBBON_ONE","review":"두부두루치기를 전문으로 하는 곳. 두부두루치기는 육수와 두부를 넣고 대파, 참기름, 고춧가루 등으로 양념하는 것이 특징이며 당면과 쫄면을 넣어 만든다. 매콤한 맛이 일품이며 자박한 국물에 밥을 비벼 먹으면 좋다. 40년 넘는 전통을 자랑하는 곳."},{"id":"blueribbon-4457","name":"인동왕만두","address":"대전광역시 동구 대전로 697","jibunAddress":"대전광역시 동구 인동 54-6","phone":"042-285-5060  ","foodType":"한식(면류)","mainFood":"","designatedDate":"","lat":36.322418,"lng":127.437239,"region":"대전광역시","source":"blueribbon","ribbonType":"RIBBON_ONE","review":"40년 넘는 역사를 자랑하는 만둣집. 채소와 고기로 만든 만두 소가 푸짐하게 들어간다. 고기는 돼지고기와 소고기를 반반씩 섞는 것이 특징. 만두피가 두껍지 않아 부담없이 먹을 수 있다. 매장이 협소한 편이어서 포장해가는 손님이 많다."},{"id":"blueribbon-31226","name":"뮤제베이커리","address":"대전광역시 중구 대흥로121번길 44","jibunAddress":"대전광역시 중구 대흥동 409-6","phone":"0507-1393-1837","foodType":"베이커리","mainFood":"","designatedDate":"","lat":36.3253924157264,"lng":127.424941579092,"region":"대전광역시","source":"blueribbon","ribbonType":"RIBBON_ONE","review":"박물관이라는 뜻의 베이커리 카페. 매장에 들어서면 빵 냄새와 함께 예술 작품처럼 일렬로 진열되어 있는 빵들이 이목을 끈다. 탁트인 모던한 공간에서 당일 만든 빵과 함께 커피를 즐길 수 있는 곳."},{"id":"blueribbon-31122","name":"온천집","address":"대전광역시 동구 수향길 17","jibunAddress":"대전광역시 동구 소제동 299-69","phone":"0507-1420-0907","foodType":"일식","mainFood":"","designatedDate":"","lat":36.336835126743,"lng":127.436832820805,"region":"대전광역시","source":"blueribbon","ribbonType":"RIBBON_ONE","review":"새로 개발된 대전역 뒷편 소제동에 있는 곳으로, 일본 온천장을 재현했다. 퓨전 샤부샤부를 즐길 수 있다. 1인씩 세팅되는 정식이기 때문에 2명이 서로 다른 메뉴를 주문할 수 있다."},{"id":"blueribbon-28094","name":"피제리아다알리","address":"대전광역시 유성구 지족로349번길 40-5","jibunAddress":"대전광역시 유성구 지족동 981-2","phone":"042-825-8308  ","foodType":"이탈리아식","mainFood":"","designatedDate":"","lat":36.387654,"lng":127.31681,"region":"대전광역시","source":"blueribbon","ribbonType":"RIBBON_ONE","review":"알리네 피자집이라는 뜻의 레스토랑으로, 나폴리피자 인증을 받은 곳이다. 장시간 숙성한 도우로 피자를 만들며 참나무 화덕에 구워 담백한 맛을 느낄 수 있다. 감자튀김과 소시지를 듬뿍 올린 파타테&우스텔피자, 네 가지 치즈가 들어간 콰트로 포르마지오피자 등이 인기 메뉴다."},{"id":"blueribbon-5268","name":"한밭칼국수","address":"대전광역시 중구 목척4길 6","jibunAddress":"대전광역시 중구 은행동 22-1","phone":"042-254-9350  ","foodType":"한식(면류)","mainFood":"","designatedDate":"","lat":36.331175,"lng":127.42355,"region":"대전광역시","source":"blueribbon","ribbonType":"RIBBON_ONE","review":"두부를 넣고 얼큰하게 끓인 두부탕을 어느 정도 먹은 다음에 칼국수를 말아 먹는다. 진한 국물 맛이 특징이며 양도 매우 푸짐하다. 함께 나오는 김치를 곁들이면 칼칼한 맛이 좋다. 볶음밥으로 마무리하는 것도 추천할 만하다. 오픈시간부터 손님이 많기 때문에 웨이팅은 필수다. "},{"id":"blueribbon-5271","name":"방동가든","address":"대전광역시 유성구 성북로 58","jibunAddress":"대전광역시 유성구 방동 161-4 방동가든","phone":"042-544-3000  ","foodType":"한식(육류)","mainFood":"","designatedDate":"","lat":36.287697,"lng":127.307121,"region":"대전광역시","source":"blueribbon","ribbonType":"RIBBON_ONE","review":"양념이 쏙 밴 돼지주물럭(돼지갈비)이 맛있기로 유명한 곳. 숯불에 구워 먹는 맛이 좋으며, 함께 나오는 밑반찬도 맛있다. 질 좋은 생갈비와 양념소갈비도 인기 메뉴. 바로 앞에 방동저수지가 있어 식사 후 근처를 산책하는 것도 좋다."},{"id":"blueribbon-5273","name":"연래춘대반점","address":"대전광역시 유성구 대학로 78","jibunAddress":"대전광역시 유성구 궁동 482-8","phone":"042-825-1177  ","foodType":"중식","mainFood":"","designatedDate":"","lat":36.36043,"lng":127.344547,"region":"대전광역시","source":"blueribbon","ribbonType":"RIBBON_ONE","review":"고급스러운 분위기에서 중식을 즐길 수 있는 곳. 한국 전통 입맛에 맞춘 중식을 선보인다. 짜장면과 볶음밥 등의 식사 메뉴 외에도 전가복, 깐풍기 등의 요리 메뉴도 맛이 좋다."},{"id":"blueribbon-5278","name":"귀빈돌솥밥","address":"대전광역시 서구 만년로68번길 21","jibunAddress":"대전광역시 서구 만년동 349","phone":"042-488-3340  ","foodType":"한식(일반한식)","mainFood":"","designatedDate":"","lat":36.366351,"lng":127.380504,"region":"대전광역시","source":"blueribbon","ribbonType":"RIBBON_ONE","review":"돌솥밥이 맛있기로 유명한 곳. 갓 지은 밥에 20여 가지의 나물을 넣고 비벼 먹는다. 나물의 식감과 향이 어우러져 고소한 맛이 좋다. 석갈비, 떡갈비 등의 메뉴도 인기."},{"id":"blueribbon-5308","name":"오류옥천가","address":"대전광역시 중구 계룡로874번길 87","jibunAddress":"대전광역시 중구 오류동 166-7","phone":"042-532-5658  ","foodType":"한식(육류)","mainFood":"","designatedDate":"","lat":36.321983,"lng":127.40663,"region":"대전광역시","source":"blueribbon","ribbonType":"RIBBON_ONE","review":"대전에서 한우구이로 유명한 곳. 차돌박이, 치마살, 갈빗살 등의 다양한 부위가 나오는 한우알아서 메뉴가 특히 인기다. 청국장에 고기 파지를 듬뿍 넣고 밥을 말아 내는 사장밥도 별미로 통한다."},{"id":"blueribbon-4271","name":"흑룡산촌두부","address":"대전광역시 유성구 수통골로 65-7","jibunAddress":"대전광역시 유성구 덕명동 182-9","phone":"042-824-0511  ","foodType":"한식(일반한식)","mainFood":"","designatedDate":"","lat":36.34643,"lng":127.290973,"region":"대전광역시","source":"blueribbon","ribbonType":"RIBBON_ONE","review":"국산콩을 사용해 재래식 방법으로 두부를 만드는 두부 전문점. 부드러운 두부의 맛이 좋다. 정식메뉴를 주문하면 두부김치, 도토리묵, 청국장 등 다양한 종류의 음식이 한상 가득 푸짐히 차려진다."},{"id":"blueribbon-29124","name":"백마강","address":"대전광역시 유성구 도안대로567번길 3","jibunAddress":"대전광역시 유성구 봉명동 558-5","phone":"042-825-1881  ","foodType":"한식(민물어패류)","mainFood":"","designatedDate":"","lat":36.350803,"lng":127.339851,"region":"대전광역시","source":"blueribbon","ribbonType":"RIBBON_ONE","review":"참숯에 굽는 민물장어 전문점. 질 좋은 민물장어를 사용하며 직원이 먹기 좋게 구워주므로 편하게 먹을 수 있는 장점이 있다. 함께 나오는 생강채나 묵은지에 싸 먹으면 별미. 구수한 장어탕으로 식사를 마무리한다."},{"id":"blueribbon-4000","name":"금성삼계탕","address":"대전광역시 동구 선화로196번길 44","jibunAddress":"대전광역시 동구 중동 32-14","phone":"042-254-3422  ","foodType":"한식(가금류)","mainFood":"","designatedDate":"","lat":36.332117,"lng":127.428763,"region":"대전광역시","source":"blueribbon","ribbonType":"RIBBON_ONE","review":"대전에서 40년 넘게 삼계탕을 선보이는 곳. 뚝배기에 팔팔 끓여 나오며 닭고기 육질이 부드럽다. 바닥에 있는 닭죽을 긁어 먹는 재미도 있다."},{"id":"blueribbon-3817","name":"대선칼국수","address":"대전광역시 서구 둔산중로40번길 28","jibunAddress":"대전광역시 서구 둔산동 1440","phone":"042-471-0317  ","foodType":"한식(면류)","mainFood":"","designatedDate":"","lat":36.349941,"lng":127.388282,"region":"대전광역시","source":"blueribbon","ribbonType":"RIBBON_ONE","review":"대전의 유명한 칼국숫집. 칼국수 반죽은 콩가루를 섞어 직접 손으로 만들고 썰기 때문에 면이 부드럽고 고소하다. 칼국수와 더불어 수육, 오징어두루치기도 인기가 좋다. 60여 년의 역사를 자랑하는 곳."},{"id":"blueribbon-29777","name":"꾸드뱅","address":"대전광역시 유성구 지족동로 146","jibunAddress":"대전광역시 유성구 지족동 1026-2 계룡프라자","phone":"0507-1493-3033","foodType":"베이커리","mainFood":"","designatedDate":"","lat":36.38676342801562,"lng":127.30874648673381,"region":"대전광역시","source":"blueribbon","ribbonType":"RIBBON_ONE","review":"천연 발효종으로 만든 다양한 빵을 만날 수 있는 베이커리. 개량제와 화학첨가제를 사용하지 않으며, 프랑스산 밀가루와 유기농 통밀, 호밀 등 좋은 재료를 사용해 건강한 빵을 선보인다. 부드러운 크루아상과 버터프레즐, 그리고 바게트 안에 리코타치즈와 토마토, 바질 등을 넣은 빵이 인기다."},{"id":"blueribbon-3587","name":"트레비","address":"대전광역시 유성구 유성대로1689번길 8-8","jibunAddress":"대전광역시 유성구 전민동 299-3","phone":"042-862-9300  ","foodType":"이탈리아식","mainFood":"","designatedDate":"","lat":36.399939,"lng":127.397451,"region":"대전광역시","source":"blueribbon","ribbonType":"RIBBON_ONE","review":"이탈리아에서 유학한 셰프가 만드는 정통 이탈리아 요리를 맛볼 수 있다. 파스타에 사용하는 생면과 다른 요리에 들어 가는 리코타치즈, 소시지 등을 모두 직접 만든다. 대전에서 제대로 된 이탈리아 요리를 먹을 수 있는 곳 중 하나라는 평을 받고 있다."},{"id":"blueribbon-3368","name":"유성복집","address":"대전광역시 유성구 온천서로 24","jibunAddress":"대전광역시 유성구 봉명동 441-13","phone":"042-823-5388  ","foodType":"한식(어패류)","mainFood":"","designatedDate":"","lat":36.356376,"lng":127.340043,"region":"대전광역시","source":"blueribbon","ribbonType":"RIBBON_ONE","review":"40년 넘는 역사의 복요리 전문점. 가게 앞의 수족관에서 헤엄치는 활복을 사용하여 신선한 회를 맛볼 수 있다. 다양한 요리로 구성된 코스 메뉴도 인기."},{"id":"blueribbon-29940","name":"누오보나폴리","address":"대전광역시 유성구 농대로 15","jibunAddress":"대전광역시 유성구 궁동 406-10","phone":"042-322-9582  ","foodType":"이탈리아식","mainFood":"","designatedDate":"","lat":36.361973967432924,"lng":127.35299824967332,"region":"대전광역시","source":"blueribbon","ribbonType":"RIBBON_ONE","review":"나폴리 정통 피자를 선보이는 곳. 이탈리아의 엄선된 밀가루와 시칠리아산 소금, 생효모만으로 반죽해 나폴리 본연의 피자 맛을 살리고 있다. 장작 화덕에 구워 풍미를 느낄 수 있으며 파스타도 추천할 만하다."},{"id":"blueribbon-6935","name":"일정","address":"대전광역시 서구 만년로67번길 18-9","jibunAddress":"대전광역시 서구 만년동 323","phone":"042-489-8877  ","foodType":"한식(어패류)","mainFood":"","designatedDate":"","lat":36.36839,"lng":127.380774,"region":"대전광역시","source":"blueribbon","ribbonType":"RIBBON_ONE","review":"법성포 굴비 전문점으로, 남도식 한정식을 내는 곳이다. 굴비정식을 시키면 보리굴비와 함께 맛깔스러운 반찬이 한 상 가득 차려진다. 녹찻물에 밥을 말아 굴비를 곁들이면 그 맛이 일품이다. 실내 분위기도 조용하고 고급스러워 손님 접대나 상견례에도 좋다."},{"id":"blueribbon-3367","name":"여자만장어구이","address":"대전광역시 서구 만년로68번길 38","jibunAddress":"대전광역시 서구 만년동 367","phone":"042-486-2486  ","foodType":"한식(민물어패류)","mainFood":"","designatedDate":"","lat":36.365348,"lng":127.380401,"region":"대전광역시","source":"blueribbon","ribbonType":"RIBBON_ONE","review":"대형 장어구잇집으로, 민물장어를 취급하고 있다. 장어는 기본 2인 이상 주문해야 하며 양념과 간장, 소금구이 중 선택할 수 있다. 일반 장어구이 외에도 몸에 좋은 산삼, 동충하초, 더덕 등을 곁들인 메뉴도 인기가 많다."},{"id":"blueribbon-3366","name":"한우김삿갓","address":"대전광역시 유성구 유성대로1184번길 11-27","jibunAddress":"대전광역시 유성구 신성동 192-12","phone":"042-863-6076  ","foodType":"한식(육류)","mainFood":"","designatedDate":"","lat":36.3949684831333,"lng":127.352933366659,"region":"대전광역시","source":"blueribbon","ribbonType":"RIBBON_ONE","review":"정육식당을 겸하고 있는 한우전문점. 소고기 질이 좋기로 유명한 집으로, 다양한 부위를 맛볼 수 있는 것이 특징이다. 숯불에 구워 먹는 고기 맛이 좋다. 인기가 높은 안창살은 저녁 일찍 재료가 다 떨어진다고 한다."},{"id":"blueribbon-3364","name":"천년의정원","address":"대전광역시 서구 만년로67번길 18-13","jibunAddress":"대전광역시 서구 만년동 322","phone":"042-485-1796  ","foodType":"중식","mainFood":"","designatedDate":"","lat":36.368353,"lng":127.381064,"region":"대전광역시","source":"blueribbon","ribbonType":"RIBBON_ONE","review":"고대 중국의 정원 느낌을 살린 인테리어가 뛰어나다. 특급호텔 출신의 조리사가 만들어 내는 요리들도 고급스러운 편. 퓨전이 약간 가미되어 있는 요리를 즐길 수 있다. "},{"id":"blueribbon-7998","name":"대들보함흥면옥","address":"대전광역시 중구 계백로1583번길 39","jibunAddress":"대전광역시 중구 유천동 311-13","phone":"042-522-5900  ","foodType":"한식(면류)","mainFood":"","designatedDate":"","lat":36.319702,"lng":127.39521,"region":"대전광역시","source":"blueribbon","ribbonType":"RIBBON_ONE","review":"대전 최초의 냉면집으로 알려진 곳으로, 함흥식 비빔냉면을 맛볼 수 있다. 매콤한 회무침이 고명으로 올라가는 회냉면이 별미로 통한다. 주재료인 고구마 전분을 익반죽해 숙성시킨 다음 평양식 메밀을 섞어 만들고 있는 것이 특징. 육수는 한우양지, 사태, 각종 채소 등을 우려낸 국물에 동치미를 배합해 맛을 낸다. 한우를 사용하는 불고기도 인기 메뉴다. 3대를 이어온, 70여 년의 역사를 자랑한다. "},{"id":"blueribbon-3262","name":"사리원면옥","address":"대전광역시 중구 중교로 62","jibunAddress":"대전광역시 중구 대흥동 188-5","phone":"042-256-6506  ","foodType":"한식(면류)","mainFood":"","designatedDate":"","lat":36.326123,"lng":127.426548,"region":"대전광역시","source":"blueribbon","ribbonType":"RIBBON_ONE","review":"1952년부터 4대째 내려오는 전통의 냉면집으로, 실질적으로 대전 냉면의 원조라 할 수 있다. 황해도식을 기본으로 한 깔끔한 육수가 특징이다. 메밀과 전분을 섞어 면을 만드는 것이 특징. 냉면에 곁들이기 좋은 달큰한 소불고기도 꾸준히 인기가 있는 메뉴다. "},{"id":"blueribbon-30053","name":"스시아이","address":"대전광역시 유성구 온천로 26","jibunAddress":"대전광역시 유성구 봉명동 445-4","phone":"0507-1393-1007","foodType":"일식","mainFood":"","designatedDate":"","lat":36.3550923934892,"lng":127.34064964438413,"region":"대전광역시","source":"blueribbon","ribbonType":"RIBBON_ONE","review":"엄선된 식재료로 만든 스시 오마카세 코스를 즐길 수 있는 곳. 스시의 완성도가 높은 편이며 만족도가 높다. 기본 상차림으로 초생강과 우엉조림이 나오며 10년 이상 묵은 천일염과 강원도 철원산 고추냉이가 곁들여진다."},{"id":"blueribbon-8160","name":"소나무집","address":"대전광역시 중구 대종로460번길 59","jibunAddress":"대전광역시 중구 대흥동 2-7","phone":"042-256-1464  ","foodType":"한식(면류)","mainFood":"","designatedDate":"","lat":36.3270065537574,"lng":127.430571079004,"region":"대전광역시","source":"blueribbon","ribbonType":"RIBBON_ONE","review":"두부부침과 오징어칼국수를 하는 곳. 오징어와 총각김치를 넣어 끓여낸 오징어찌개에 칼국수를 넣어 먹는다. 합리적인 가격에 푸짐한 식사를 할 수 있는 것이 장점. 칼국수를 다 먹은 후에는 남은 국물에 밥을 비벼 먹는다."},{"id":"blueribbon-8161","name":"개천식당","address":"대전광역시 동구 대전로779번길 39-2","jibunAddress":"대전광역시 동구 원동 62-12","phone":"042-256-1003","foodType":"한식(면류)","mainFood":"","designatedDate":"","lat":36.3285622363718,"lng":127.431600699161,"region":"대전광역시","source":"blueribbon","ribbonType":"RIBBON_ONE","review":""},{"id":"blueribbon-8162","name":"대전갈비집","address":"대전광역시 중구 대전천서로 419-8","jibunAddress":"대전광역시 중구 대흥동 3-16","phone":"042-254-0758  ","foodType":"한식(육류)","mainFood":"","designatedDate":"","lat":36.3266011675506,"lng":127.430806399788,"region":"대전광역시","source":"blueribbon","ribbonType":"RIBBON_ONE","review":"진하지 않은 양념으로 고기를 숙성시켜 숯불에 구워 먹는 돼지갈빗집. 갈빗대에 고기가 붙어 있는, 진짜 돼지갈비를 맛볼 수 있다. 돼지갈비는 기본 3인분 이상 주문해야 한다. 40년 넘는 역사를 자랑하는 오래된 곳."},{"id":"blueribbon-30669","name":"대전태평소국밥","address":"대전광역시 유성구 문화원로 140","jibunAddress":"대전광역시 유성구 봉명동 676-3 하이랜드Ⅲ","phone":"042-472-8592  ","foodType":"한식(탕/국/찌개/전골)","mainFood":"","designatedDate":"","lat":36.3580801952478,"lng":127.351186444993,"region":"대전광역시","source":"blueribbon","ribbonType":"RIBBON_ONE","review":"대전 유성구에서 지역주민들이 모르는 이가 없을 정도로 유명한 곳이다. 내장수육, 소국밥과 따로국밥, 내장탕, 갈비탕, 육사시미 등 신선하고 질 좋은 한우 요리를 비교적 저렴한 가격대로 즐길 수 있다. "},{"id":"blueribbon-30670","name":"용진식당","address":"대전광역시 유성구 박산로140번길 201-2","jibunAddress":"대전광역시 유성구 구암동 223-7","phone":"042-823-8181  ","foodType":"한식(육류)","mainFood":"","designatedDate":"","lat":36.34845717259386,"lng":127.32473941546232,"region":"대전광역시","source":"blueribbon","ribbonType":"RIBBON_ONE","review":"주택을 개조하여 만든 한우 특수부위 전문점이다. 비교적 가격대가 높은 편이지만, 맛이 좋아 단골층이 두텁다. 부위 중 안창살이 인기며, 토시살도 추천할 만하다. 오랫동안 끓여 깊고 진한 맛을 내는 소고기뭇국에 밥을 말아 마무리하면 좋다. "},{"id":"blueribbon-2936","name":"나루터장어","address":"대전광역시 대덕구 대청로 264","jibunAddress":"대전광역시 대덕구 용호동 39-13","phone":"042-932-2404  ","foodType":"한식(민물어패류)","mainFood":"","designatedDate":"","lat":36.44838662314152,"lng":127.45387658341932,"region":"대전광역시","source":"blueribbon","ribbonType":"RIBBON_ONE","review":"장어와 매운탕 전문점. 장어를 시키면 깔끔한 반찬이 여러 가지 나오며 새우탕도 맛이 좋다. 겉에서 보기에도 웅장한 한옥과 금강이 내려다보이는 전망도 훌륭하다."},{"id":"blueribbon-2937","name":"신도칼국수","address":"대전광역시 동구 대전로825번길 11","jibunAddress":"대전광역시 동구 정동 30-13","phone":"042-253-6799  ","foodType":"한식(면류)","mainFood":"","designatedDate":"","lat":36.33259,"lng":127.430975,"region":"대전광역시","source":"blueribbon","ribbonType":"RIBBON_ONE","review":"공주분식과 함께 대전 칼국수의 양대산맥을 이루는 곳. 멸치로 육수를 내며 담백하면서도 진한 국물 맛이 특징이다. 취향에 따라 양념장을 가미해도 좋으며, 잡내 없는 쫄깃한 수육도 맛이 좋다."},{"id":"blueribbon-19480","name":"향미각","address":"대전광역시 대덕구 쌍청당로 14","jibunAddress":"대전광역시 대덕구 중리동 501-12","phone":"042-626-8252  ","foodType":"중식","mainFood":"","designatedDate":"","lat":36.3632732359855,"lng":127.435317572544,"region":"대전광역시","source":"blueribbon","ribbonType":"RIBBON_ONE","review":"꼬막짬뽕으로 인기 있는 중식당. 홍합과 돼지고기가 어우러져 국물 맛을 낸다. 탕수육도 인기가 있으며 고기와 야채를 잘게 다져 만든 유니짜장면도 맛볼 수 있다. "},{"id":"blueribbon-2233","name":"숯골원냉면","address":"대전광역시 유성구 신성로84번길 18","jibunAddress":"대전광역시 유성구 신성동 136-3 숯골원냉면","phone":"042-861-3287  ","foodType":"한식(면류)","mainFood":"","designatedDate":"","lat":36.390146,"lng":127.350209,"region":"대전광역시","source":"blueribbon","ribbonType":"RIBBON_ONE","review":"1·4 후퇴 때 평양에서 월남하여 4대에 걸쳐 일궈 놓은 평양냉면 전문점이다. 강원도 평창군 내 농가들과 계약 재배한 메밀을 사용하며, 국수를 누를 때 10% 정도 전분을 섞는다. 순메밀을 눌러 달라고 하면 순메밀국수도 말아준다. 면발이 깔깔하면서도 메밀 향을 잘 살리고 있다. 육수는 소고기가 아닌 닭고기를 사용하며, 거기에 알맞게 익힌 동치미 국물만 가미해서 약간 밍밍한 편이다. 고명으로 닭고기가 올라가는 것이 특징."},{"id":"blueribbon-26811","name":"곰에스프레소","address":"대전광역시 유성구 봉명서로 15","jibunAddress":"대전광역시 유성구 봉명동 1052-8 벧엘하우스","phone":"042-825-8515  ","foodType":"카페/커피/티","mainFood":"","designatedDate":"","lat":36.343632,"lng":127.341334,"region":"대전광역시","source":"blueribbon","ribbonType":"RIBBON_ONE","review":"직접 원두를 볶는 로스터리 카페로, 다양한 에스프레소 베이스 커피를 즐길 수 있다. 엑설런트 아이스크림이 올라가는 대전토박이 라테가 독특한 메뉴. 커피와 어울리는 피낭시에나 마들렌 등의 구움과자도 있으며 샌드위치 같은 단한 브런치를 즐길 수 있다. 별바라기공원이 근처에 있어 산책길에 들러도 좋다."},{"id":"blueribbon-26986","name":"홍운장","address":"대전광역시 서구 사마6길 35","jibunAddress":"대전광역시 서구 도마동 106-26","phone":"042-523-4791  ","foodType":"중식","mainFood":"","designatedDate":"","lat":36.3170817325281,"lng":127.37406476312563,"region":"대전광역시","source":"blueribbon","ribbonType":"RIBBON_ONE","review":"도마시장 골목에 자리한 중식당. 화교가 20년 넘게 운영하고 있는 곳이다. 옛날 스타일의 짜장면, 짱뽕, 탕수육 등을 맛볼 수 있으며 전반적으로 자극적이지 않은 맛이 특징이다. 직접 만두피를 빚어 만드는 군만두도 인기다. "},{"id":"blueribbon-2215","name":"교룡짬뽕","address":"대전광역시 유성구 궁동로14번길 14","jibunAddress":"대전광역시 유성구 궁동 414-5","phone":"042-823-3495  ","foodType":"중식","mainFood":"","designatedDate":"","lat":36.362326749675,"lng":127.348185801189,"region":"대전광역시","source":"blueribbon","ribbonType":"RIBBON_ONE","review":"공주 동해원 주인장의 아들이 운영하는 곳으로, 칼칼한 짬뽕이 맛있기로 유명하다. 돼지뼈를 48시간 푹 고아 만든 육수에 채 썬 돼지고기와 오징어와 채소를 넣은 전통 방식의 짬뽕을 맛볼 수 있다. 짜장면은 큼직한 감자가 들어간 옛날식 짜장 제조법을 고수하고 있다."},{"id":"blueribbon-36358","name":"챔프스페이스커피로스터스","address":"대전광역시 동구 수향길 97","jibunAddress":"대전광역시 동구 소제동 299-86","phone":"0507-1425-5388","foodType":"카페/커피/티","mainFood":"","designatedDate":"","lat":36.3358826709238,"lng":127.437080341283,"region":"대전광역시","source":"blueribbon","ribbonType":"RIBBON_ONE","review":""},{"id":"blueribbon-36398","name":"케이브파스타바","address":"대전광역시 서구 갈마역로25번길 9-9","jibunAddress":"대전광역시 서구 갈마동 841","phone":"0507-1384-3419","foodType":"이탈리아식","mainFood":"","designatedDate":"","lat":36.3523777454039,"lng":127.373618700623,"region":"대전광역시","source":"blueribbon","ribbonType":"RIBBON_ONE","review":""},{"id":"blueribbon-35091","name":"더한다이닝","address":"대전광역시 유성구 원신흥로40번길 81","jibunAddress":"대전광역시 유성구 원신흥동 532-14 지하 101호","phone":"042-826-8117  ","foodType":"한식(일반한식)","mainFood":"","designatedDate":"","lat":36.338013170451,"lng":127.344402483639,"region":"대전광역시","source":"blueribbon","ribbonType":"RIBBON_ONE","review":"프렌치에 한식 식재료를 가미한 모던한식을 경험할 수 있는 파인다이닝 레스토랑. 타르트지에 수육과 막걸리 소스로 마무리한 보쌈 타르트와 같은 창의적인 요리를 맛볼 수 있다. 시즌마다 달라지는 메뉴를 즐기는 것도 좋다. "},{"id":"blueribbon-34968","name":"월광박속낙지탕","address":"대전광역시 서구 한밭대로707번길 27","jibunAddress":"대전광역시 서구 월평동 289","phone":"042-487-8253  ","foodType":"한식(어패류)","mainFood":"","designatedDate":"","lat":36.3591723418063,"lng":127.377257266653,"region":"대전광역시","source":"blueribbon","ribbonType":"RIBBON_ONE","review":"복지리 육수를 사용하여 시원한 국물의 박속 낙지탕을 맛볼 수 있다. 신선한 산낙지를 테이블에서 바로 냄비에 넣어 끓여준다. 박속과 청경채, 배추 등이 들어가 국물 맛을 깊게 해준다. "},{"id":"blueribbon-32402","name":"스웨이","address":"대전광역시 서구 문정로150번길 31-6","jibunAddress":"대전광역시 서구 탄방동 1233","phone":"0507-1391-4347","foodType":"이탈리아식","mainFood":"","designatedDate":"","lat":36.3478400269344,"lng":127.397129469285,"region":"대전광역시","source":"blueribbon","ribbonType":"RIBBON_ONE","review":""},{"id":"blueribbon-33839","name":"도어블","address":"대전광역시 중구 대흥로 117","jibunAddress":"대전광역시 중구 대흥동 446-8","phone":"0507-1346-3531","foodType":"중식","mainFood":"","designatedDate":"","lat":36.3235796585697,"lng":127.425205918343,"region":"대전광역시","source":"blueribbon","ribbonType":"RIBBON_ONE","review":"모던한 분위기에서 중화요리와 술을 함께 즐기는 중국식 요리주점. 푸짐하게 나오는 유린기와 누룽지탕이 시그니처 메뉴다. 중국 술뿐 아니라 와인도 갖추고 있다."},{"id":"blueribbon-2210","name":"청주남주동해장국","address":"대전광역시 대덕구 대덕대로1458번길 9","jibunAddress":"대전광역시 대덕구 목상동 148-4","phone":"042-935-9575  ","foodType":"한식(탕/국/찌개/전골)","mainFood":"","designatedDate":"","lat":36.448022,"lng":127.411042,"region":"대전광역시","source":"blueribbon","ribbonType":"RIBBON_ONE","review":"뼈다귀해장국과 선지해장국, 콩나물해장국이 주메뉴로, 푸짐한 뚝배기에 담긴 칼칼하고 진한 국물 맛이 일품이다. 소뼈, 꼬리, 방광 등을 가마솥에 넣고 진한 국물을 만들어 사용한다."},{"id":"blueribbon-2216","name":"만나한우복수집","address":"대전광역시 유성구 도안대로577번길 12","jibunAddress":"대전광역시 유성구 봉명동 554-16","phone":"042-825-0409  ","foodType":"한식(육류)","mainFood":"","designatedDate":"","lat":36.351977,"lng":127.339874,"region":"대전광역시","source":"blueribbon","ribbonType":"RIBBON_ONE","review":"모둠소고기를 시키면 등심, 차돌박이, 안창, 삼겹양지, 치마양지, 부채살 등이 나와 부위별로 다른 맛을 볼 수 있다. 후식으로는 시래기 된장국을 구수하게 끓여 준다. 소뼈를 고아 육수를 한 솥 가득 만들어 놓는다."},{"id":"blueribbon-2217","name":"명랑식당","address":"대전광역시 동구 태전로 56-20","jibunAddress":"대전광역시 동구 삼성동 270-17","phone":"042-623-5031  ","foodType":"한식(탕/국/찌개/전골)","mainFood":"","designatedDate":"","lat":36.33548,"lng":127.428877,"region":"대전광역시","source":"blueribbon","ribbonType":"RIBBON_ONE","review":"육개장 한 가지 메뉴로 40년 넘는 전통을 이어온 식당이다. 기름기를 제거한 고기는 결대로 길게 찢어 그릇에 담겨 나온다. 얼큰하면서도 담백한 국물에 부드러운 양지머리 고기가 육개장의 참맛을 보여준다. 오후 3시까지만 영업하니 방문 시 참고할 것."},{"id":"blueribbon-2222","name":"바질리코","address":"대전광역시 유성구 한밭대로313번길 10","jibunAddress":"대전광역시 유성구 장대동 307-13","phone":"042-825-2825  ","foodType":"이탈리아식","mainFood":"","designatedDate":"","lat":36.365596,"lng":127.336028,"region":"대전광역시","source":"blueribbon","ribbonType":"RIBBON_ONE","review":"분위기 좋은 이탈리안 레스토랑. 아담한 3층 건물의 옥상은 허브밭으로 꾸몄다. 겨울에는 여름에 재배해 둔 허브를 냉동해 두었다가 사용한다. "},{"id":"blueribbon-2229","name":"솔밭묵집","address":"대전광역시 유성구 관용로 51","jibunAddress":"대전광역시 유성구 관평동 542-5","phone":"042-935-5686  ","foodType":"한식(일반한식)","mainFood":"","designatedDate":"","lat":36.41505294773959,"lng":127.3822495116106,"region":"대전광역시","source":"blueribbon","ribbonType":"RIBBON_ONE","review":"구즉도토리묵 거리에 있는 묵집 중의 하나. 도토리묵의 텁텁하고 진한 맛을 볼 수 있다. 큼지막한 대접에 도토리묵을 채 썰어 담고 잘게 썬 김치와 김, 깨소금을 고명으로 얹어 국물을 부어낸다. 자극적인 맛을 원하면 삭힌 풋고추를 첨가하면 매콤하다. 묵과 함께 나오는 보리밥도 별미다."},{"id":"blueribbon-2248","name":"한영식당","address":"대전광역시 중구 계룡로874번길 6","jibunAddress":"대전광역시 중구 오류동 149-25","phone":"042-533-2644  ","foodType":"한식(가금류)","mainFood":"","designatedDate":"","lat":36.323415,"lng":127.41078,"region":"대전광역시","source":"blueribbon","ribbonType":"RIBBON_ONE","review":"매콤하고 구수한 닭볶음탕이 대표 메뉴다. 쫄깃하게 씹히는 육질, 잘 익은 감자, 큼직하게 썰어 넣은 양파 등의 식감이 좋다. 닭볶음탕에 들어가는 간장과 고추장을 재래식으로 직접 담그는 것이 특징. 볶음밥으로 식사를 마무리 하는 것도 추천할 만하다. 70여 년의 역사를 자랑한다."},{"id":"blueribbon-2249","name":"할머니묵집","address":"대전광역시 유성구 금남구즉로 1378","jibunAddress":"대전광역시 유성구 봉산동 709-16 할머니묵집","phone":"042-935-5842  ","foodType":"한식(일반한식)","mainFood":"","designatedDate":"","lat":36.446146,"lng":127.383824,"region":"대전광역시","source":"blueribbon","ribbonType":"RIBBON_ONE","review":"80여 년 전통의 도토리묵과 메밀묵을 맛볼 수 있다. 가을철 마른 도토리 알맹이를 절구에 넣고 빻아서 4~5일 동안 물에 담가 떫은맛을 빼내기 때문에 맛이 부드럽다. 삭힌 풋고추와 참기름 섞인 조선간장으로 간을 해서 먹는 묵사발을 추천한다. 토종닭으로 만든 백숙도 좋으며 예약 손님에 한해 옻닭도 판매하고 있다. "}]