[{"id":"blueribbon-28185","name":"트웰브키친","address":"대구광역시 수성구 무학로11길 10","jibunAddress":"대구광역시 수성구 상동 408-3","phone":"0507-1430-8035","foodType":"이탈리아식","mainFood":"","designatedDate":"","lat":35.830197,"lng":128.615152,"region":"대구광역시","source":"blueribbon","ribbonType":"RIBBON_TWO","review":"유기농 식재료를 사용하는 이탈리안 레스토랑. 제철을 맞은 식재료를 사용한 요리를 선보이며 음식의 개성을 살린 플레이팅이 인상적이다. 합리적인 가격대의 코스 메뉴도 추천."},{"id":"blueribbon-4983","name":"왕거미식당","address":"대구광역시 중구 국채보상로 696-8","jibunAddress":"대구광역시 중구 동인동4가 179","phone":"053-427-6380  ","foodType":"한식(육류)","mainFood":"","designatedDate":"","lat":35.868526,"lng":128.606687,"region":"대구광역시","source":"blueribbon","ribbonType":"RIBBON_TWO","review":"신선한 생고기가 푸짐하게 나오는 생고기 전문점. 쫀득한 생고기를 참기름에 다대기를 넣은 양념장에 찍어 먹는다. 미리 구워서 나오는 양지머리와 오드레기 등도 술안주로 인기. 한정된 양만 판매하므로 일찍 찾아가는 편을 추천한다."},{"id":"blueribbon-6015","name":"장원식당","address":"대구광역시 중구 태평로 256-4","jibunAddress":"대구광역시 중구 동인동1가 368-3","phone":"053-427-4363","foodType":"한식(육류)","mainFood":"","designatedDate":"","lat":35.8722904240528,"lng":128.605125851812,"region":"대구광역시","source":"blueribbon","ribbonType":"RIBBON_TWO","review":"대구에서 뭉티기라 부르는 신선한 생고기를 먹을 수 있는 곳으로, 테이블 네 개의 아담한 규모다. 쫀득한 맛이 일품인 질 좋은 생고기를 맛볼 수 있으며 고소한 기름장에 찍어 먹으면 일품이다. 기본으로 천엽과 간, 등골 등이 나온다."},{"id":"blueribbon-19598","name":"정이품","address":"대구광역시 수성구 범어로19길 54-1","jibunAddress":"대구광역시 수성구 범어동 200-17","phone":"053-752-6228  ","foodType":"한식(어패류)","mainFood":"","designatedDate":"","lat":35.8580913894178,"lng":128.632793463062,"region":"대구광역시","source":"blueribbon","ribbonType":"RIBBON_TWO","review":"자연산 세꼬시와 활어회를 맛볼 수 있는 곳이다. 생굴, 도루묵구이, 재첩국, 과메기 등 평소에 접하기 어려운 요리가 곁들이 음식으로 나온다. 겨울철에는 이시가리도 맛볼 수 있다. 가격대비 푸짐하게 나와 만족도가 높다."},{"id":"blueribbon-36407","name":"오공공구일일","address":"대구광역시 수성구 동원로1길 34","jibunAddress":"대구광역시 수성구 범어동 231-2","phone":"053-755-0911","foodType":"일식","mainFood":"","designatedDate":"","lat":35.8599603978581,"lng":128.638355828115,"region":"대구광역시","source":"blueribbon","ribbonType":"RIBBON_TWO","review":"대구 아소다이닝 이수길 셰프의 가이세키 업장. 제철 식재료를 활용해 달마다 다르게 준비되는 코스요리를 맛볼 수 있다. 가이세키를 베이스로 하여 국내산 식재료를 활용한 요리를 선보인다."},{"id":"blueribbon-2191","name":"원조현풍박소선할매집곰탕","address":"대구광역시 달성군 현풍읍 현풍중앙로 56-1","jibunAddress":"대구광역시 달성군 현풍읍 하리 128-1 원조현풍할매집곰탕","phone":"053-614-2143","foodType":"한식(탕/국/찌개/전골)","mainFood":"","designatedDate":"","lat":35.69458471340069,"lng":128.4457832805499,"region":"대구광역시","source":"blueribbon","ribbonType":"RIBBON_TWO","review":"80년 가까이 대를 이어가며 국물 맛을 지켜온 곳. 곰탕의 진한 국물 맛이 좋으며 곰탕에 들어간 고기의 쫄깃쫄깃한 육질이 일품이다. 대구의 도축장을 비롯하여 경북 지역 곳곳에서 엄선된 고기를 사온다. 가죽나물무침, 무장아찌, 씀바귀, 깻잎 등의 밑반찬도 맛깔스럽다."},{"id":"blueribbon-31536","name":"성서제1능이버섯능이백숙","address":"대구광역시 달서구 달구벌대로251길 12","jibunAddress":"대구광역시 달서구 이곡동 1222-6","phone":"0507-1361-4774  ","foodType":"한식(가금류)","mainFood":"","designatedDate":"","lat":35.8531192251442,"lng":128.505159362715,"region":"대구광역시","source":"blueribbon","ribbonType":"RIBBON_ONE","review":"능이버섯 백숙 요리로 몸에 좋은 보양식을 선보이는 곳. 능이버섯 향이 가득한 깔끔하고 깊은 맛의 국물이 일품이며 녹두찹쌀죽과 함께 먹으면 좋다. 유황오리, 토종닭 두 종류가 있다. 능이오리백숙은 900도가 넘는 화염처리 과정을 거쳐 불순물과 불필요한 지방을 제거하여 잡내가 없으며 토종닭은 우리나라 고유 품종 한닭을 사용한다."},{"id":"blueribbon-31523","name":"아소다이닝","address":"대구광역시 수성구 달구벌대로496길 34","jibunAddress":"대구광역시 수성구 범어동 259-6","phone":"053-217-1002  ","foodType":"일식주점","mainFood":"","designatedDate":"","lat":35.8556714843305,"lng":128.633852759479,"region":"대구광역시","source":"blueribbon","ribbonType":"RIBBON_ONE","review":"깔끔한 느낌의 이자카야. 제철 재료를 사용하며 다양한 종류의 일본식 안주를 맛볼 수 있다. 이 집만의 방식으로 숙성한 사시미가 인기. 칡전분을 이용한 부드러운 크림깨두부 역시 인기 메뉴 중 하나다."},{"id":"blueribbon-31589","name":"셀리우","address":"대구광역시 중구 교동2길 43-9","jibunAddress":"대구광역시 중구 완전동 5-58","phone":"053-260-9999  ","foodType":"프랑스식","mainFood":"","designatedDate":"","lat":35.8724682114633,"lng":128.598166401698,"region":"대구광역시","source":"blueribbon","ribbonType":"RIBBON_ONE","review":"고급스러운 분위기에서 코스 요리를 즐길 수 있는 파인 다이닝 레스토랑. 오픈 주방 형태의 바 좌석과 테이블을 갖추고 있다. 다양한 와인리스트가 있어 와인과 페어링 하기도 좋다."},{"id":"blueribbon-31157","name":"신산홍","address":"대구광역시 동구 아양로7길 12","jibunAddress":"대구광역시 동구 신암동 766 신암뜨란채","phone":"0507-1321-5650","foodType":"한식(가금류)","mainFood":"","designatedDate":"","lat":35.8823321773353,"lng":128.61768521709,"region":"대구광역시","source":"blueribbon","ribbonType":"RIBBON_ONE","review":"평화시장 똥집 골목 부근에서 닭목살로 유명한 곳. 주문할 때 맵기 조절이 가능하며 김을 살짝 구워서 닭목살소스를 같이 찍어 먹으면 좋다. 웰컴주로 산삼주 한잔씩 주는 것이 특징."},{"id":"blueribbon-4529","name":"녹양","address":"대구광역시 중구 중앙대로 441","jibunAddress":"대구광역시 중구 화전동 46-11","phone":"053-257-1796  ","foodType":"한식(육류)","mainFood":"","designatedDate":"","lat":35.8725612844738,"lng":128.594105919501,"region":"대구광역시","source":"blueribbon","ribbonType":"RIBBON_ONE","review":"소 뒷다리, 허벅지 안쪽 살을 깍두기 크기로 뭉텅뭉텅 썰어낸 뭉티기가 대표 메뉴다. 마블링이 전혀 없는 뭉티기는 쫀득쫀득하며, 고소한 참기름 양념에 찍어 먹는다. 함께 나오는 밑반찬도 한 상 가득 차려진다. 고소한 오드레기도 술안주로 인기."},{"id":"blueribbon-4544","name":"동봉숯불구이","address":"대구광역시 수성구 범어천로 128","jibunAddress":"대구광역시 수성구 범어동 792-2","phone":"053-756-3668  ","foodType":"한식(육류)","mainFood":"","designatedDate":"","lat":35.858136,"lng":128.622747,"region":"대구광역시","source":"blueribbon","ribbonType":"RIBBON_ONE","review":"소막창과 소막구이 등이 유명한 곳. 주방에서 초벌구이한 막창을 자리에서 참숯불에 한 번 더 구워 먹는다. 쫄깃하면서도 고소한 맛이 일품. 함께 나오는 반찬도 맛깔스럽다."},{"id":"blueribbon-4554","name":"단골식당","address":"대구광역시 북구 칠성시장로7길 9-1","jibunAddress":"대구광역시 북구 칠성동1가 92-6","phone":"053-424-8349  ","foodType":"한식(육류)","mainFood":"","designatedDate":"","lat":35.875983,"lng":128.603725,"region":"대구광역시","source":"blueribbon","ribbonType":"RIBBON_ONE","review":"60년 전통의 노포로, 연탄불에 구운 돼지불고기 하나만을 선보인다. 주문 즉시 구워서 바로 접시에 담아 내오며 불맛 살린 고기의 맛이 일품이다. 식당 밖 골목길 한편에서 연탄불에 고기를 굽는 모습이 보인다."},{"id":"blueribbon-27895","name":"삐에뜨라","address":"대구광역시 중구 약령길 45","jibunAddress":"대구광역시 중구 남성로 48-1","phone":"053-742-4819  ","foodType":"이탈리아식","mainFood":"","designatedDate":"","lat":35.868402,"lng":128.58911,"region":"대구광역시","source":"blueribbon","ribbonType":"RIBBON_ONE","review":"아늑한 분위기에서 소박한 이탈리안 요리를 맛볼 수 있는 곳이다. 파스타를 비롯해 피자, 리조토, 스테이크 등의 메뉴를 선보이며 가격 대비 만족도가 높다. 버섯 크림소스와 트러플오일을 곁들인 뇨키도 인기 메뉴다."},{"id":"blueribbon-2156","name":"8번식당","address":"대구광역시 중구 서성로13길 8","jibunAddress":"대구광역시 중구 서성로1가 59-1 8번식당","phone":"053-255-0167  ","foodType":"한식(탕/국/찌개/전골)","mainFood":"","designatedDate":"","lat":35.872395,"lng":128.586973,"region":"대구광역시","source":"blueribbon","ribbonType":"RIBBON_ONE","review":"커다란 무쇠솥에 돼지사골과 족을 넣고 밤새 끓안 국물에 채 썬 대파를 얹고 깍두기 등 밑반찬을 곁들여 따로국밥을 차려 낸다. 암퇘지 사골과 삼겹살로 만든 국밥과 직접 빚는 순대를 부담 없는 가격으로 푸짐하게 맛볼 수 있다. 수육과 순댓국이 함께 나오는 8번 정식이 인기 메뉴."},{"id":"blueribbon-35269","name":"1LL커피(호산점로스터리)","address":"대구광역시 달서구 달구벌대로203길 26-10","jibunAddress":"대구광역시 달서구 호산동 110","phone":"0507-1400-6747  ","foodType":"카페/커피/티","mainFood":"","designatedDate":"","lat":35.8543713204355,"lng":128.478642739054,"region":"대구광역시","source":"blueribbon","ribbonType":"RIBBON_ONE","review":"조용한 분위기에서 커피를 즐길 수 있는 커피 전문점. 싱글 오리진 원두를 사용한 커피를 선보이며, 생두를 약하게 볶는 라이트 로스팅 기법을 사용해 커피 향이 풍부하고 가벼운 맛이 특징이다. "},{"id":"blueribbon-27900","name":"큰나무집","address":"대구광역시 달성군 가창면 우록길 24","jibunAddress":"대구광역시 달성군 가창면 삼산리 930-1 ","phone":"0507-1433-2005","foodType":"한식(가금류)","mainFood":"","designatedDate":"","lat":35.733597,"lng":128.659536,"region":"대구광역시","source":"blueribbon","ribbonType":"RIBBON_ONE","review":"토종닭과 한약재를 사용한 궁중한방백숙을 선보이는 대형 식당. 압력밥솥에 삶은 백숙을 직접 들고 와서 서빙한다. 함께 나오는 배추물김치 맛이 일품이다. 백숙은 삶는 데 시간이 오래 걸리므로 예약하는 것이 좋다."},{"id":"blueribbon-28392","name":"형제수산","address":"대구광역시 수성구 수성로 314","jibunAddress":"대구광역시 수성구 수성동2가 267-14","phone":"053-766-1313  ","foodType":"한식(어패류)","mainFood":"","designatedDate":"","lat":35.853532,"lng":128.613735,"region":"대구광역시","source":"blueribbon","ribbonType":"RIBBON_ONE","review":"자연산 회와 더불어 신선한 해물이 곁들이 음식으로 깔리는 횟집. 특히 신선한 참가자미와 줄가자미를 맛볼 수 있으며 가격도 합리적인 편이다. 해물을 비롯해 다양한 반찬이 나오는 것이 특징. 겨울철에는 대방어회도 맛볼 수 있다."},{"id":"blueribbon-4878","name":"올가닉신라","address":"대구광역시 중구 대봉로 200-25","jibunAddress":"대구광역시 중구 대봉동 130-5","phone":"053-421-1628  ","foodType":"이탈리아식","mainFood":"","designatedDate":"","lat":35.8564395477729,"lng":128.603726467771,"region":"대구광역시","source":"blueribbon","ribbonType":"RIBBON_ONE","review":"유기농 재료만을 사용해 건강하면서도 정갈한 이탈리아 요리를 선보이는 곳. 여러 요리가 조화롭게 나오는 코스메뉴를 추천할 만하다. 유기농 레스토랑답게 실내를 깔끔하고 편안하게 꾸며놓은 것이 특징이다."},{"id":"blueribbon-4982","name":"대동면옥","address":"대구광역시 중구 국채보상로102길 28","jibunAddress":"대구광역시 중구 동산동 180-20","phone":"053-255-4450  ","foodType":"한식(면류)","mainFood":"","designatedDate":"","lat":35.8692604253307,"lng":128.585621469476,"region":"대구광역시","source":"blueribbon","ribbonType":"RIBBON_ONE","review":"70년이 넘는 전통의 냉면 명가. 부산안면옥과 함께 대구에서 양대산맥을 이루던 곳이다. 평양식 냉면을 주로 하고 있으며 육수 맛이 진한 스타일이다. 10월부터 이듬해 2월 말까지인 동절기에는 영업을 하지 않는다."},{"id":"blueribbon-31883","name":"새밭골농장","address":"대구광역시 동구 매여로 463-6","jibunAddress":"대구광역시 동구 상매동 23","phone":"053-963-3560  ","foodType":"한식(가금류)","mainFood":"","designatedDate":"","lat":35.9190060911906,"lng":128.717778541051,"region":"대구광역시","source":"blueribbon","ribbonType":"RIBBON_ONE","review":"산 속에서 숯불 닭구이를 먹을 수 있는 곳. 메뉴판이 따로 없으며, 닭한마리를 주문하면 양념된 닭을 숯불에 구워먹는 닭구이와 칼칼한 국물의 닭매운탕이 준비된다. 직접 기른 닭을 잡아 요리하기 때문에 예약은 필수며, 찾기가 어려워 아는 사람만 간다고 하는 곳이다. 식사는 실내 공간 또는 야외 평상에서 먹을 수 있으며, 계산은 현금만 가능하다."},{"id":"blueribbon-5515","name":"대동강","address":"대구광역시 남구 대봉로 57-1","jibunAddress":"대구광역시 남구 봉덕동 948-13","phone":"053-471-3379  ","foodType":"한식(면류)","mainFood":"","designatedDate":"","lat":35.843902,"lng":128.603895,"region":"대구광역시","source":"blueribbon","ribbonType":"RIBBON_ONE","review":"2대에 걸쳐 60년 가까이 이북의 손맛을 지키는 곳. 평양냉면이 유명하다. 조미료를 사용하지 않아 깔끔한 육수를 맛볼 수 있으며 따끈한 국물에 닭고기와 채소를 넣은 평양온반도 별미다. 냉면은 오전 10시 30분부터 오후 9시까지 판매한다."},{"id":"blueribbon-5520","name":"국일불갈비","address":"대구광역시 중구 태평로 172","jibunAddress":"대구광역시 중구 태평로1가 4-1","phone":"053-424-5820  ","foodType":"한식(육류)","mainFood":"","designatedDate":"","lat":35.874611,"lng":128.59646,"region":"대구광역시","source":"blueribbon","ribbonType":"RIBBON_ONE","review":"60여 년의 역사를 가진 고깃집. 연탄불에 구운 돼지갈비를 맛볼 수 있다. 불 맛이 느껴지는 돼지갈비와 돼지불고기 외에도 매콤한 양념이 밴 고추장불고기도 별미로 통한다. 된장찌개에 면을 말아 내는 된장국수도 인기."},{"id":"blueribbon-4167","name":"부산안면옥","address":"대구광역시 중구 국채보상로125길 4-1","jibunAddress":"대구광역시 중구 공평동 8-4","phone":"053-424-9389  ","foodType":"한식(육류)","mainFood":"","designatedDate":"","lat":35.870625,"lng":128.598955,"region":"대구광역시","source":"blueribbon","ribbonType":"RIBBON_ONE","review":"대구에서 손꼽을 만한 평양냉면집이다. 진한 육수 맛이 좋으며 고명으로 올라간 고기도 부드럽다. 만둣국과 돼지고기제육도 인기. 4월부터 추석 전까지만 영업하고 초봄과 겨울에는 영업을 하지 않는다. 1905년에 평양에서 개업하여, 부산을 거쳐 1969년에 대구에 터전을 잡은 역사깊은 곳이다."},{"id":"blueribbon-6121","name":"성주숯불갈비식당","address":"대구광역시 중구 서성로 72","jibunAddress":"대구광역시 중구 서성로1가 36-1","phone":"053-255-6851  ","foodType":"한식(육류)","mainFood":"","designatedDate":"","lat":35.8728408205024,"lng":128.587765583825,"region":"대구광역시","source":"blueribbon","ribbonType":"RIBBON_ONE","review":"대구의 원조 갈빗집인 진갈비와 함께 오랜 전통을 지키고 있다. 양념하지 않은 생갈비를 숯불에 구워 먹으며 고기의 질이 좋은 편이다. 갈빗대를 넣고 끓인 된장찌개의 맛도 일품이다."},{"id":"blueribbon-3682","name":"라벨라쿠치나","address":"대구광역시 수성구 무학로 151","jibunAddress":"대구광역시 수성구 지산동 1063-1","phone":"053-765-4774  ","foodType":"이탈리아식","mainFood":"","designatedDate":"","lat":35.830615,"lng":128.625386,"region":"대구광역시","source":"blueribbon","ribbonType":"RIBBON_ONE","review":"모던한 분위기에서 정통 이탈리아 요리를 즐길 수 있는 곳. 파스타, 피자, 스테이크 등의 요리를 선보이며, 코스도 가격대비 만족도가 높다. 자연광과 인공광이 적절하게 조화된 인테리어가 소문난 곳이기도 하다. 늦은 저녁 시간에는 와인을 즐기기에 좋다."},{"id":"blueribbon-6097","name":"삼수장어","address":"대구광역시 수성구 신천동로 442","jibunAddress":"대구광역시 수성구 수성동4가 1190-3","phone":"053-745-7800  ","foodType":"한식(민물어패류)","mainFood":"","designatedDate":"","lat":35.863182,"lng":128.612237,"region":"대구광역시","source":"blueribbon","ribbonType":"RIBBON_ONE","review":"30여 년 역사의 장어 전문점. 산삼장어, 황금장어 등 다양한 양념의 장어를 선보이고 있다. 세련된 외관에 실내 분위기도 깔끔하고 모던한 편이다."},{"id":"blueribbon-29856","name":"아티코","address":"대구광역시 수성구 지범로 43-12","jibunAddress":"대구광역시 수성구 두산동 729-12","phone":"0507-1326-9279","foodType":"이탈리아식","mainFood":"","designatedDate":"","lat":35.8270461694833,"lng":128.6268601457501,"region":"대구광역시","source":"blueribbon","ribbonType":"RIBBON_ONE","review":"1인 셰프가 운영하는 이탈리안 레스토랑. 감베리버터&레몬라비올리와 하몽&루꼴라피자가 시그니처 메뉴다. 아낌없이 들어간 재료와 진한 소스가 특징. 모노레일이 보이는 2층의 아담한 테라스는 포토스팟로 인기 있다. "},{"id":"blueribbon-6130","name":"종로숯불갈비","address":"대구광역시 중구 종로 26","jibunAddress":"대구광역시 중구 종로2가 66-6","phone":"053-252-7197  ","foodType":"한식(육류)","mainFood":"","designatedDate":"","lat":35.868188,"lng":128.592225,"region":"대구광역시","source":"blueribbon","ribbonType":"RIBBON_ONE","review":"진골목에서 오래되고 유명한 돼지갈빗집으로, 본래는 당대 부호의 저택이었다고 한다. 숯불에 구워 먹는 양념돼지갈비의 맛이 일품이며 한우갈빗살도 추천할 만하다."},{"id":"blueribbon-6796","name":"삼송빵집","address":"대구광역시 중구 중앙대로 397","jibunAddress":"대구광역시 중구 동성로3가 1-3","phone":"053-254-4064  ","foodType":"베이커리","mainFood":"","designatedDate":"","lat":35.868612024897,"lng":128.593447218741,"region":"대구광역시","source":"blueribbon","ribbonType":"RIBBON_ONE","review":"60년 넘는 역사를 자랑하는 대구의 오래된 유명 빵집이다. 구운고로케와 통옥수수빵이 인기 있다. 구운고로케는 기름에 튀기지 않고 구워 느끼하지 않고 담백한 맛이다. 영업시간과 상관 없이 빵이 소진되면 문을 닫는다."},{"id":"blueribbon-36559","name":"잽엔헨리","address":"대구광역시 중구 달구벌대로415길 39","jibunAddress":"대구광역시 중구 장관동 52","phone":"0507-1343-0548","foodType":"카페/커피/티","mainFood":"","designatedDate":"","lat":35.8680791397631,"lng":128.590206864098,"region":"대구광역시","source":"blueribbon","ribbonType":"RIBBON_ONE","review":"젊은 층이 좋아하는 분위기로 인테리어한 스페셜티커피 전문점. 에스프레소와 농후라테를 전문으로 한다. 농후라테는 우유의 수분을 30퍼센트 증발시켜 농축시킨 우유를 사용하는데, 고소함과 단맛을 극대화된다. "},{"id":"blueribbon-6944","name":"민수사","address":"대구광역시 수성구 들안로 19","jibunAddress":"대구광역시 수성구 상동 403-1","phone":"053-768-2727  ","foodType":"일식","mainFood":"","designatedDate":"","lat":35.831535,"lng":128.616235,"region":"대구광역시","source":"blueribbon","ribbonType":"RIBBON_ONE","review":"푸짐하게 나오는 일식 코스를 즐길 수 있는 대형 일식집으로 스시도 수준급이다. 두툼하게 썰어져 나오는 잘 숙성된 회 맛이 일품이다. 점심에 맛볼 수 있는 스시도 인기가 좋다."},{"id":"blueribbon-3360","name":"가야성","address":"대구광역시 달서구 월배로83길 7","jibunAddress":"대구광역시 달서구 송현동 186-10","phone":"053-654-0545  ","foodType":"중식","mainFood":"","designatedDate":"","lat":35.831454,"lng":128.551366,"region":"대구광역시","source":"blueribbon","ribbonType":"RIBBON_ONE","review":"대구에서 짬뽕으로 손꼽히는 집. 얼큰해 보이는 색에 비해 담백하면서도 맑은 맛의 국물이 인상적이다. 돼지고기와 오징어가 많이 들어 있는 것이 특징. 점심때면 줄을 서서 먹어야 할 정도로 인기가 많다. "},{"id":"blueribbon-7161","name":"루시드","address":"대구광역시 중구 동성로4길 94","jibunAddress":"대구광역시 중구 공평동 70-2","phone":"053-422-7020  ","foodType":"디저트/스위트","mainFood":"","designatedDate":"","lat":35.868847,"lng":128.599669,"region":"대구광역시","source":"blueribbon","ribbonType":"RIBBON_ONE","review":"대구에 카페 문화가 번지기 시작한 초기부터 인기를 끌었던 곳이다. 커피를 비롯해 다양한 음료가 있으며 케이크와 마카롱 등의 디저트도 좋다. 여름에는 빙수가 유명하다."},{"id":"blueribbon-7793","name":"원조제주도백록담통도야지","address":"대구광역시 수성구 용학로42길 9","jibunAddress":"대구광역시 수성구 지산동 1199-10","phone":"053-782-1743  ","foodType":"한식(탕/국/찌개/전골)","mainFood":"","designatedDate":"","lat":35.820875,"lng":128.631877,"region":"대구광역시","source":"blueribbon","ribbonType":"RIBBON_ONE","review":"목련시장 내에서 돼지국밥으로 유명한 집. 제주도산 돼지를 사용하며 진한 국물 맛이 좋다. 쫀득한 족발과 갈비수육도 별미로 통한다. 갈비수육은 적어도 방문 한 시간 전에 예약해야 한다."},{"id":"blueribbon-3294","name":"에스파냐","address":"대구광역시 수성구 달구벌대로 2421","jibunAddress":"대구광역시 수성구 범어동 177-7","phone":"053-622-2295  ","foodType":"스페인식","mainFood":"","designatedDate":"","lat":35.859466,"lng":128.627661,"region":"대구광역시","source":"blueribbon","ribbonType":"RIBBON_ONE","review":"스페인 요리 전문점. 스페인식 해물볶음밥이라 할 수 있는 파에야가 우리 입맛에도 잘 맞는다. 냄비에 새우와 조개 종류를 넣고 만든 파에야의 누룽지까지 박박 긁어 먹는다. 상그리아 한 잔을 곁들이면 스페인의 정취를 즐기기에 좋다."},{"id":"blueribbon-3293","name":"교동따로식당","address":"대구광역시 중구 경상감영1길 11","jibunAddress":"대구광역시 중구 포정동 52-2","phone":"053-254-8923  ","foodType":"한식(탕/국/찌개/전골)","mainFood":"","designatedDate":"","lat":35.871506300401215,"lng":128.5928709969318,"region":"대구광역시","source":"blueribbon","ribbonType":"RIBBON_ONE","review":"국일따로식당과 더불어 시내 한복판에 따로국밥거리를 형성하고 있는 집이다. 따로국밥 전문식당 네 군데 중 가장 사람들의 발길이 잦은 곳이다. 따로국밥은 소뼈를 한데 넣어 푹 끓인 국물에 밥 한 그릇을 따로 낸다고 해서 붙인 이름. 선지를 같이 넣고 끓여 선지 씹히는 감촉이 부드럽다. 국물은 해장이나 식사용으로 두루 좋다. 50여 년의 역사를 자랑하는 곳."},{"id":"blueribbon-30086","name":"뜨라또리아델리카르도","address":"대구광역시 북구 칠곡중앙대로54길 27","jibunAddress":"대구광역시 북구 태전동 422-39","phone":"0507-1403-1993","foodType":"이탈리아식","mainFood":"","designatedDate":"","lat":35.92232433799451,"lng":128.54760696353944,"region":"대구광역시","source":"blueribbon","ribbonType":"RIBBON_ONE","review":"파올로데마리아 셰프의 제자인 리카르도 셰프가 운영하는 이탈리안 레스토랑. 이탈리아 음식 본연의 맛을 잘 살린다는 평을 받는다. 부드러운 트러플크림감자뇨키와 봉골레, 모차렐라치즈와 루콜라 등이 올라간 루꼴라플랫브레드 등이 인기다."},{"id":"blueribbon-37361","name":"수오미엔","address":"대구광역시 중구 동덕로 64","jibunAddress":"대구광역시 중구 대봉동 24-18","phone":"0507-1433-0453","foodType":"중식","mainFood":"","designatedDate":"","lat":35.86061117355,"lng":128.604221880763,"region":"대구광역시","source":"blueribbon","ribbonType":"RIBBON_ONE","review":""},{"id":"blueribbon-30643","name":"커피명가라핀카","address":"대구광역시 수성구 국채보상로 953-1","jibunAddress":"대구광역시 수성구 만촌동 421-12","phone":"053-743-0892","foodType":"카페/커피/티","mainFood":"","designatedDate":"","lat":35.86764313934061,"lng":128.63491690267355,"region":"대구광역시","source":"blueribbon","ribbonType":"RIBBON_ONE","review":""},{"id":"blueribbon-30518","name":"용지봉","address":"대구광역시 수성구 들안로 9","jibunAddress":"대구광역시 수성구 상동 405-1","phone":"0507-1322-8558","foodType":"한식(일반한식)","mainFood":"","designatedDate":"","lat":35.83055372265005,"lng":128.61615356287723,"region":"대구광역시","source":"blueribbon","ribbonType":"RIBBON_ONE","review":"경북의 향토음식을 즐길 수 있는 한정식 전문점. 전체적으로 상차림이 정갈하고 깔끔하다. 특히 시원한 열무김치가 별미며 열무김치는 따로 판매도 한다. 단체모임으로 좋은 곳."},{"id":"blueribbon-30640","name":"소나무","address":"대구광역시 중구 동덕로 56-5","jibunAddress":"대구광역시 중구 대봉동 48-11","phone":"0507-1345-1341","foodType":"바","mainFood":"","designatedDate":"","lat":35.859978753110774,"lng":128.60479518200793,"region":"대구광역시","source":"blueribbon","ribbonType":"RIBBON_ONE","review":"고풍스러운 한옥을 개조해 만든 싱글몰트위스키 전문 바. 싱글몰트위스키 이 외에도 위스키, 진, 보드카, 브랜디, 럼, 버번위스키 등 다양한 주류도 갖추고 있다. "},{"id":"blueribbon-30848","name":"커피맛을조금아는남자","address":"대구광역시 수성구 범어천로 153","jibunAddress":"대구광역시 수성구 수성동4가 985-5","phone":"0507-1320-4601","foodType":"카페/커피/티","mainFood":"","designatedDate":"","lat":35.8605972845882,"lng":128.622138112787,"region":"대구광역시","source":"blueribbon","ribbonType":"RIBBON_ONE","review":"스페셜티커피 전문점으로, 로스팅도 직접 하고 있다. 여덟 종류의 산지별 원두를 핸드드립 커피로 만날 수 있으며, 1인 1메뉴 주문 시 1회 커피 리필이 가능하다. 베이커리와 디저트도 함께 즐길 수 있으며 커피 아카데미도 운영 중이다."},{"id":"blueribbon-10368","name":"고향차밭골","address":"대구광역시 동구 팔공산로 339","jibunAddress":"대구광역시 동구 송정동 781-1","phone":"053-981-5883  ","foodType":"한식(일반한식)","mainFood":"","designatedDate":"","lat":35.9878582410264,"lng":128.620579134271,"region":"대구광역시","source":"blueribbon","ribbonType":"RIBBON_ONE","review":"토속 음식으로 이루어진 한정식을 내는 곳. 시래기된장국을 비롯해 20여 가지 반찬이 나온다. 어린 시절 먹었던 시골 밥상처럼 그릇마다 가득 담겨 나오는 반찬이 정겹다. 기본 2인 이상 주문해야 하며 간장게장, 수육 등의 메뉴는 추가로 주문할 수 있다."},{"id":"blueribbon-17906","name":"양포수산","address":"대구광역시 수성구 들안로 143","jibunAddress":"대구광역시 수성구 중동 138-2","phone":"053-567-6602  ","foodType":"한식(어패류)","mainFood":"","designatedDate":"","lat":35.842761,"lng":128.616258,"region":"대구광역시","source":"blueribbon","ribbonType":"RIBBON_ONE","review":"통통하게 오른 싱싱한 대게와 새우회를 맛볼 수 있는 곳이다. 독도새우는 머리만 따로 잘라서 굽고, 몸통은 생으로 먹으면 된다. 그 자리에서 바로 손질을 해주기 때문에 싱싱한 새우회를 즐길 수 있다. 식사로는 대게의 내장과 소스를 버무린 게장밥과 해물라면 등을 추천한다."},{"id":"blueribbon-19827","name":"후포회수산","address":"대구광역시 수성구 들안로 172","jibunAddress":"대구광역시 수성구 황금동 813-5","phone":"053-474-9494  ","foodType":"한식(어패류)","mainFood":"","designatedDate":"","lat":35.8452553556477,"lng":128.617305191539,"region":"대구광역시","source":"blueribbon","ribbonType":"RIBBON_ONE","review":"자연산 활어만을 취급하는 곳. 모둠생선회를 추천할 만하며 조그만 생선 사진을 보여주기 때문에 어떤 생선회인지 알고 맛볼 수 있다. 기본 곁들이 음식으로 나오는 해산물도 신선하다. 겨울에는 제철을 맞은 대방어를 선보이며, 자연산 활어가 없는 날은 문을 열지 않는다. "},{"id":"blueribbon-20307","name":"산꼼파","address":"대구광역시 수성구 상화로 81","jibunAddress":"대구광역시 수성구 상동 69-12","phone":"053-765-0592  ","foodType":"한식(어패류)","mainFood":"","designatedDate":"","lat":35.835201,"lng":128.616044,"region":"대구광역시","source":"blueribbon","ribbonType":"RIBBON_ONE","review":"농어, 돔, 가자미회 등 여러 가지 잡어를 한 번에 즐길 수 있는 곳. 생선회 외에도 낙지, 새우, 조개 등 다양한 먹거리도 신선하고 푸짐하게 맛볼 수 있다. 어떤 종류의 생선인지 알아볼 수 있도록 회에 이름표가 달려 나오는 것이 특징."},{"id":"blueribbon-2774","name":"복해반점","address":"대구광역시 중구 종로 22","jibunAddress":"대구광역시 중구 종로2가 75-2","phone":"053-254-8903  ","foodType":"중식","mainFood":"","designatedDate":"","lat":35.8678145743535,"lng":128.592124302127,"region":"대구광역시","source":"blueribbon","ribbonType":"RIBBON_ONE","review":"대구 종로의 화상 중국집 중 유명한 집이다. 얼큰한 국물 맛이 일품인 짬뽕을 추천할 만하며 겨울에는 굴을 넣어 끓인 굴짬뽕이 인기다. 난자완스, 탕수육 등의 요리는 공력이 높다. 가게 내부는 예스러운 분위기를 그대로 간직하고 있다."},{"id":"blueribbon-2775","name":"연경반점","address":"대구광역시 수성구 수성로 222","jibunAddress":"대구광역시 수성구 중동 98-4 연경빌딩","phone":"053-763-5988  ","foodType":"중식","mainFood":"","designatedDate":"","lat":35.845276,"lng":128.613156,"region":"대구광역시","source":"blueribbon","ribbonType":"RIBBON_ONE","review":"산동 출신 화교가 하는 곳으로, 대구에서 유명한 중식당이다. 고추짬뽕이 맛있으며 전가복도 유명하다. 신선한 재료와 풍성한 해물의 맛을 느낄 수 있으며 저녁때는 예약을 하고 찾는 것이 좋다."},{"id":"blueribbon-36842","name":"강짚탄(본점)","address":"대구광역시 북구 학정로 115-1","jibunAddress":"대구광역시 북구 태전동 584-4","phone":"0507-1472-1268","foodType":"한식(육류)","mainFood":"","designatedDate":"","lat":35.9182940424853,"lng":128.550451206094,"region":"대구광역시","source":"blueribbon","ribbonType":"RIBBON_ONE","review":"볏짚에 구운 삼겹살을 맛볼 수 있는 곳. 바지락 탕과 겉절이를 기본으로 내어준다. 모둠구이를 주문하면 이미 익혀진 상태로 나오기 때문에 바로 먹을 수 있다. 양념이 잘 밴 돼지껍데기 구이도 추천할 만하다."},{"id":"blueribbon-8879","name":"동명오코노미야끼","address":"대구광역시 중구 동성로4길 10","jibunAddress":"대구광역시 중구 삼덕동1가 40-32","phone":"053-424-7792  ","foodType":"일식","mainFood":"","designatedDate":"","lat":35.86509125837802,"lng":128.5984860953748,"region":"대구광역시","source":"blueribbon","ribbonType":"RIBBON_ONE","review":""},{"id":"blueribbon-36210","name":"사카바신카와","address":"대구광역시 수성구 들안로77길 2-24","jibunAddress":"대구광역시 수성구 범어동 1320","phone":"053-215-0030","foodType":"일식주점","mainFood":"","designatedDate":"","lat":35.8655807245917,"lng":128.617838719703,"region":"대구광역시","source":"blueribbon","ribbonType":"RIBBON_ONE","review":"다양한 안주를 추천해 주는 페어링 전문 일식 주점. 상시 준비 중인 안주 메뉴는 없고, 주문한 주류에 맞춰서 안주를 내어주는 독특한 방식이다. 오마카세를 주문하면 하이볼, 사케, 일본소주, 위스키, 칵테일과 그에 어울리는 안주도 내어준다. 하이볼, 칵테일, 일본 위스키, 맥주 등 다양한 주류를 즐길 수 있는 곳."},{"id":"blueribbon-35270","name":"롤러커피","address":"대구광역시 중구 달구벌대로414길 36","jibunAddress":"대구광역시 중구 남산동 444","phone":"053-253-7584  ","foodType":"카페/커피/티","mainFood":"","designatedDate":"","lat":35.864511777147,"lng":128.589267527921,"region":"대구광역시","source":"blueribbon","ribbonType":"RIBBON_ONE","review":"라테가 맛있기로 유명한 커피 전문점. 우유의 양은 5온즈와 7온즈 중 고를 수 있으며, 우유는 오트 밀크로 변경도 가능하다. 셀프바에 구비된 사탕수수 설탕을 커피에 넣어 먹으면 커피의 풍미가 더 좋아진다. "},{"id":"blueribbon-35268","name":"노다웃","address":"대구광역시 달서구 서당로7길 64","jibunAddress":"대구광역시 달서구 신당동 1793-6","phone":"070-4158-7777  ","foodType":"카페/커피/티","mainFood":"","designatedDate":"","lat":35.8543722060853,"lng":128.492489743631,"region":"대구광역시","source":"blueribbon","ribbonType":"RIBBON_ONE","review":"합리적인 가격에 핸드드립 커피를 맛 볼 수 있는 커피 전문점. 커피를 자리에 직접 갖다 주며 원두에 대한 설명을 곁들여준다. 디저트인 블루베리 크럼블도 인기 메뉴다. "},{"id":"blueribbon-12510","name":"T클래스커피","address":"대구광역시 중구 동성로2길 87","jibunAddress":"대구광역시 중구 동성로2가 68-8","phone":"053-252-3555  ","foodType":"카페/커피/티","mainFood":"","designatedDate":"","lat":35.869918,"lng":128.59707,"region":"대구광역시","source":"blueribbon","ribbonType":"RIBBON_ONE","review":"커피와 디저트가 맛있기로 유명한 곳으로, 융드립 커피를 맛볼 수 있다. 원두를 직접 볶아 사용하는 것이 특징. 조각 케이크 중 크레이프케이크가 인기다. 2층과 3층으로 구성되어 있으며, 실내를 벽돌과 나무로 꾸며 아늑한 분위기다."},{"id":"blueribbon-34061","name":"수평적관계","address":"대구광역시 중구 동덕로26길 115","jibunAddress":"대구광역시 중구 삼덕동3가 218-1","phone":"053-218-4602  ","foodType":"카페/커피/티","mainFood":"","designatedDate":"","lat":35.8644566351085,"lng":128.609642971812,"region":"대구광역시","source":"blueribbon","ribbonType":"RIBBON_ONE","review":"대구 스페셜티 커피업계에서 오랫동안 활동해온 김태환 로스터의 매장. 오래된 한옥을 개조하면서 천장을 오픈해 개방감이 좋고, 깔끔하다. 머신을 이용하지 않고 핸드드립 방식으로 추출한다. 레몬크림이 올라가는 시트릭이 시그니처 메뉴."},{"id":"blueribbon-2159","name":"국일생갈비","address":"대구광역시 중구 국채보상로 492","jibunAddress":"대구광역시 중구 동산동 106-1","phone":"053-254-5115  ","foodType":"한식(육류)","mainFood":"","designatedDate":"","lat":35.870349,"lng":128.584484,"region":"대구광역시","source":"blueribbon","ribbonType":"RIBBON_ONE","review":"오랜 전통의 생갈비 전문점으로, 1등급 한우를 사용하고 있다. 신선한 생갈비를 참숯에 구워 먹는 맛이 좋으며, 함께 나오는 명이나물에 싸 먹으면 맛있다. 한우 갈비와 재래식 된장을 넣고 끓인 된장찌개도 일품. "},{"id":"blueribbon-2160","name":"국일따로국밥","address":"대구광역시 중구 국채보상로 571","jibunAddress":"대구광역시 중구 전동 7-1","phone":"053-253-7623  ","foodType":"한식(탕/국/찌개/전골)","mainFood":"","designatedDate":"","lat":35.871099,"lng":128.593168,"region":"대구광역시","source":"blueribbon","ribbonType":"RIBBON_ONE","review":"80여 년의 역사를 지닌, 따로국밥의 원조 격이다. 처음에는 국에 밥을 말아 팔다가 연세 있는 어르신이 올 경우 예의에 어긋날 것을 우려해서 국과 밥을 따로 내놓았다고. 이러한 상차림을 좋아하는 손님이 차츰 많아지면서 따로국밥이라는 이름으로 팔게 되었다. 소고기, 파, 선지 등이 들어간 국물 맛이 시원하고 개운하다. "},{"id":"blueribbon-2164","name":"대덕식당","address":"대구광역시 남구 앞산순환로 443","jibunAddress":"대구광역시 남구 대명동 552-7","phone":"053-656-8111  ","foodType":"한식(탕/국/찌개/전골)","mainFood":"","designatedDate":"","lat":35.83107,"lng":128.573593,"region":"대구광역시","source":"blueribbon","ribbonType":"RIBBON_ONE","review":"선지국밥과 육개장 전문점으로, 밥은 따로 내는 것이 특징이다. 수십 개의 가마솥에서 하루도 쉬지 않고 끓여내는 국물에 선지를 따로 넣어 낸다. 신선한 선지와 푹 끓인 국물이 잘 어울린다."},{"id":"blueribbon-2167","name":"마루막창","address":"대구광역시 수성구 수성못2길 5","jibunAddress":"대구광역시 수성구 두산동 684 두산동 마루","phone":"053-763-3003  ","foodType":"한식(육류)","mainFood":"","designatedDate":"","lat":35.825617,"lng":128.622434,"region":"대구광역시","source":"blueribbon","ribbonType":"RIBBON_ONE","review":"대구는 서울과는 달리 양곱창보다 막창을 더 즐기는 지역이다. 살짝 데쳐 초벌구이해 내는 다른 집들과는 달리 이곳은 신선한 막창을 잘 손질해 양념 없이 생으로 낸다. 구워 먹을 때 씹는 맛이 좋고 고소하다. "},{"id":"blueribbon-2172","name":"벙글벙글찜갈비","address":"대구광역시 중구 동덕로36길 9-12","jibunAddress":"대구광역시 중구 동인동1가 322-2","phone":"053-424-6881  ","foodType":"한식(육류)","mainFood":"","designatedDate":"","lat":35.870992,"lng":128.6051,"region":"대구광역시","source":"blueribbon","ribbonType":"RIBBON_ONE","review":"시뻘건 고춧가루와 마늘, 생강을 버무려 양은냄비에 볶아서 요리한 이곳의 찜갈비는 대구의 대표 음식으로 자리 잡았다. 화끈하게 매운맛에 짠맛, 단맛이 조화를 이룬다. 함께 나오는 시원한 백김치로 싸 먹으면 색다른 맛을 느낄 수 있다."},{"id":"blueribbon-2173","name":"봉산찜갈비","address":"대구광역시 중구 동덕로36길 9-18","jibunAddress":"대구광역시 중구 동인동1가 332-3","phone":"053-425-4203  ","foodType":"한식(육류)","mainFood":"","designatedDate":"","lat":35.871234,"lng":128.605089,"region":"대구광역시","source":"blueribbon","ribbonType":"RIBBON_ONE","review":"50여 년 역사의 갈비찜 전문점. 갖은 양념으로 버무린 갈비를 양재기에 듬뿍 담아 낸다. 남은 양념에 밥을 볶아 먹으면 더욱 맛이 좋다. 칼칼하고 자극적이지 않은 맛의 갈빗살찌개도 별미로, 된장을 푼 국물에 갈빗살을 넣어 만든다."},{"id":"blueribbon-2179","name":"동성로생고기","address":"대구광역시 중구 명륜로23길 101","jibunAddress":"대구광역시 중구 남산동 911-5","phone":"053-421-1007  ","foodType":"한식(육류)","mainFood":"","designatedDate":"","lat":35.864457591592796,"lng":128.5946340613605,"region":"대구광역시","source":"blueribbon","ribbonType":"RIBBON_ONE","review":"대구의 독보적인 뭉티기집. 쫀득한 뭉티기 식감이 인상적이며, 독특한 양념장에 찍어 먹는 맛이 일품이다. 뭉티기 외에도 대창, 양지머리구이 등의 다른 부위도 맛볼 수 있다."},{"id":"blueribbon-2182","name":"신짜오","address":"대구광역시 수성구 수성못6길 20-6","jibunAddress":"대구광역시 수성구 두산동 716-1","phone":"0507-1415-6544","foodType":"아시아식","mainFood":"","designatedDate":"","lat":35.827009,"lng":128.624359,"region":"대구광역시","source":"blueribbon","ribbonType":"RIBBON_ONE","review":"월남쌈을 시키면 큰 접시에 각종 채소와 돼지고기볶음, 버미셀리, 게맛살, 햄 등이 먹음직스럽게 담겨 나온다. 진한 고깃국물의 쌀국수도 풍미가 진하며 양도 푸짐하다. 향신료 향이 강한 편으로 베트남 요리 마니아에게는 인기가 있다. 이국적인 인테리어가 돋보이는 곳."},{"id":"blueribbon-2186","name":"영생덕","address":"대구광역시 중구 종로 39","jibunAddress":"대구광역시 중구 종로2가 20","phone":"053-255-5777  ","foodType":"중식","mainFood":"","designatedDate":"","lat":35.869388,"lng":128.591401,"region":"대구광역시","source":"blueribbon","ribbonType":"RIBBON_ONE","review":"산동식 중국만두가 유명한 곳으로, 40년 넘는 역사를 자랑한다. 손으로 직접 빚어내는 물만두 하나만으로도 찾아가기에 아깝지 않다. 만두소에서 특유의 중식 향신료 향이 풍긴다. 만두 외에도 깐풍기, 전가복, 라조기 등의 요리도 많이 찾는다. 실내는 소박하지만 한결같은 맛을 지키고 있다."},{"id":"blueribbon-2197","name":"인투","address":"대구광역시 중구 동성로4길 95","jibunAddress":"대구광역시 중구 공평동 67-2","phone":"053-421-3965  ","foodType":"유럽식","mainFood":"","designatedDate":"","lat":35.869075,"lng":128.599468,"region":"대구광역시","source":"blueribbon","ribbonType":"RIBBON_ONE","review":"30년 역사의 지중해 음식 전문점. 파스타를 비롯해 그라탱, 파에야, 리조토 등 유럽 지중해식에 기반을 둔 다양한 요리를 선보인다. 젊은이들에게 인기 있는 곳으로 통한다. "},{"id":"blueribbon-2204","name":"청학식당","address":"대구광역시 남구 봉덕로1길 52-1","jibunAddress":"대구광역시 남구 봉덕동 599-12","phone":"053-474-2807  ","foodType":"한식(어패류)","mainFood":"","designatedDate":"","lat":35.847824,"lng":128.591446,"region":"대구광역시","source":"blueribbon","ribbonType":"RIBBON_ONE","review":"40년 가까운 역사의 대구탕집. 대구머리국밥, 뽈탕, 곤이와 알을 듬뿍 넣어 주는 순알곤탕, 몸통과 곤이를 알맞게 섞어 넣은 대구탕 등이 주메뉴다. 멸치와 다시마, 무를 삶아 우려낸 담백한 육수로 만든 국물이 고깃국물로 맛을 낸 국밥과는 다른 맛을 낸다. 7, 8월에는 휴업을 하니 방문 시 참고하는 것이 좋다."},{"id":"blueribbon-32560","name":"시칠리아파스타바","address":"대구광역시 수성구 동원로1길 35","jibunAddress":"대구광역시 수성구 범어동 222-1","phone":"070-8287-1780  ","foodType":"이탈리아식","mainFood":"","designatedDate":"","lat":35.8596023276928,"lng":128.638240415548,"region":"대구광역시","source":"blueribbon","ribbonType":"RIBBON_ONE","review":"직접 만든 생면 파스타로 코스 요리를 선보이는 곳이다. 와인 페어링을 추가하면 전채요리에 화이트 와인, 두 번째 파스타에 레드 와인이 제공된다. 사전 예약은 필수. 카운터 자리로 운영하였으나 최근 리뉴얼 이전하여 좌석 수도 많아졌다."}]