[{"id":"blueribbon-31683","name":"테이블레이","address":"세종특별자치시 다정중앙로 39","jibunAddress":"세종특별자치시 다정동 939 다정센터프라자2","phone":"044-866-7220  ","foodType":"이탈리아식","mainFood":"","designatedDate":"","lat":36.4940281450966,"lng":127.248659282177,"region":"세종특별자치시","source":"blueribbon","ribbonType":"RIBBON_ONE","review":""},{"id":"blueribbon-28061","name":"바이핸커피","address":"세종특별자치시 절재로 172","jibunAddress":"세종특별자치시 어진동 528 태한프레스센터","phone":"044-863-7927  ","foodType":"카페/커피/티","mainFood":"","designatedDate":"","lat":36.508121,"lng":127.260135,"region":"세종특별자치시","source":"blueribbon","ribbonType":"RIBBON_ONE","review":"수준급의 로스터리 카페. 핸드드립으로 내린 스페셜티 커피를 맛볼 수 있으며 20여 가지 이상의 갓 볶은 원두도 구매할 수 있다. "},{"id":"blueribbon-29497","name":"이한빵집","address":"세종특별자치시 마음로 272-3","jibunAddress":"세종특별자치시 고운동 1373 고운에듀프라자","phone":"044-866-1391  ","foodType":"베이커리","mainFood":"","designatedDate":"","lat":36.51971773084169,"lng":127.23587768890583,"region":"세종특별자치시","source":"blueribbon","ribbonType":"RIBBON_ONE","review":""},{"id":"blueribbon-36512","name":"뜨라또리아일페노메논","address":"세종특별자치시 법원2로 12","jibunAddress":"세종특별자치시 소담동 557 거북선1","phone":"044-865-6631","foodType":"이탈리아식","mainFood":"","designatedDate":"","lat":36.4863361688308,"lng":127.303415930056,"region":"세종특별자치시","source":"blueribbon","ribbonType":"RIBBON_ONE","review":"클래식한 이탈리안 요리를 맛볼 수 있는 레스토랑. 자가제면한 생면 파스타, 웻에이징 한 채끝스테이크 등 다양하게 준비되어 있다. 한우와 한돈을 사용해 푹 끓여 풍미를 낸 라구 소스를 활용한 라자냐가 인기 메뉴."},{"id":"blueribbon-35578","name":"르비엣","address":"세종특별자치시 호려울로 29","jibunAddress":"세종특별자치시 보람동 747 세종시드니","phone":"044-862-2820","foodType":"아시아식","mainFood":"","designatedDate":"","lat":36.4779099639115,"lng":127.290238012216,"region":"세종특별자치시","source":"blueribbon","ribbonType":"RIBBON_ONE","review":"호주산 청정우를 15시간 이상 끓인 육수로 맛을 낸 쌀국수 전문점. 스페셜 쌀국수에는 한우 생고기, 힘줄, 양지 토핑이 잔뜩 들어있어서 웬만한 곰탕보다 든든하게 고기를 맛볼 수 있다는 평."},{"id":"blueribbon-39914","name":"라쎄종","address":"세종특별자치시 나성로 96","jibunAddress":"세종특별자치시 나성동 811 더센트럴","phone":"0507-1397-0655","foodType":"프랑스식","mainFood":"","designatedDate":"","lat":36.4878789621189,"lng":127.261002509068,"region":"세종특별자치시","source":"blueribbon","ribbonType":"RIBBON_ONE","review":""},{"id":"blueribbon-40111","name":"호원","address":"세종특별자치시 달빛로 226","jibunAddress":"세종특별자치시 아름동 1177","phone":"0507-1363-6091","foodType":"일식","mainFood":"","designatedDate":"","lat":36.5188500539806,"lng":127.252666462979,"region":"세종특별자치시","source":"blueribbon","ribbonType":"RIBBON_ONE","review":""},{"id":"blueribbon-32814","name":"피제리아지알로","address":"세종특별자치시 시청대로 137","jibunAddress":"세종특별자치시 보람동 706 리버피크닉","phone":"044-865-6641  ","foodType":"이탈리아식","mainFood":"","designatedDate":"","lat":36.4799951290492,"lng":127.286781727618,"region":"세종특별자치시","source":"blueribbon","ribbonType":"RIBBON_ONE","review":"금강 주변에 위치한 전망 좋은 피자 전문점. 나폴리 방식으로 참나무 장작 화덕에 구운 피자를 맛볼 수 있다. 버팔로 모차렐라가 올라간 마르게리타 피자가 추천 메뉴. 파스타 종류도 여러 가지 갖추고 있다."}]