[{"id":"3250000-101-1979-02040","name":"물꽁식당","address":"부산광역시 중구 흑교로59번길 3 (보수동2가)","jibunAddress":"부산광역시 중구 보수동2가 89-6","phone":"051 2573230","foodType":"한식","mainFood":"아구탕","designatedDate":"20121101","lat":35.104492139,"lng":129.024393992,"region":"부산광역시","source":"model"},{"id":"3250000-101-1981-01605","name":"신정식당","address":"부산광역시 중구 해관로 64-1 (중앙동4가)","jibunAddress":"부산광역시 중구 중앙동4가 30-5번지","phone":"051 4653212","foodType":"","mainFood":"","designatedDate":"20090701","lat":35.104617638,"lng":129.035709478,"region":"부산광역시","source":"model"},{"id":"3250000-101-1981-01921","name":"화국반점","address":"부산광역시 중구 백산길 3, 1~2층 (동광동3가)","jibunAddress":"부산광역시 중구 동광동3가 2-6 (1~2층)","phone":"051 2455305","foodType":"중식","mainFood":"유니짜장","designatedDate":"20121101","lat":35.102563995,"lng":129.034233876,"region":"부산광역시","source":"model"},{"id":"3250000-101-1981-02027","name":"새진주식당","address":"부산광역시 중구 흑교로 60, 1,2층 (보수동1가)","jibunAddress":"부산광역시 중구 보수동1가 77-6 (1,2층)","phone":"051 2569110","foodType":"한식","mainFood":"비빔밥","designatedDate":"20121101","lat":35.104778176,"lng":129.02490256,"region":"부산광역시","source":"model"},{"id":"3250000-101-1981-02511","name":"부산명물횟집","address":"부산광역시 중구 자갈치해안로 55 (남포동4가)","jibunAddress":"부산광역시 중구 남포동4가 38","phone":"051245 4995","foodType":"횟집","mainFood":"생선회","designatedDate":"20121101","lat":35.097113092,"lng":129.031120266,"region":"부산광역시","source":"model"},{"id":"3250000-101-1981-02938","name":"남포삼계탕","address":"부산광역시 중구 남포길 16, 1,2층 (남포동3가, 12-0,2,3,6)","jibunAddress":"부산광역시 중구 남포동3가 12-0 2,3,6 (1,2층)","phone":"051 2455075","foodType":"한식","mainFood":"삼계탕","designatedDate":"20121101","lat":35.09876233,"lng":129.030418288,"region":"부산광역시","source":"model"},{"id":"3250000-101-1982-01582","name":"중앙모밀우동","address":"부산광역시 중구 중앙대로49번길 9-1 (중앙동2가)","jibunAddress":"부산광역시 중구 중앙동2가 27","phone":"051 2468686","foodType":"분식","mainFood":"메밀","designatedDate":"20121101","lat":35.101844216,"lng":129.035289281,"region":"부산광역시","source":"model"},{"id":"3250000-101-1983-01509","name":"황태를 벗삼아","address":"부산광역시 중구 대청로137번길 10-1, 1층 (중앙동3가)","jibunAddress":"부산광역시 중구 중앙동3가 12-7 (1층)","phone":"051 4685958","foodType":"한식","mainFood":"황태찜","designatedDate":"20121101","lat":35.10371221,"lng":129.035078874,"region":"부산광역시","source":"model"},{"id":"3250000-101-1987-02756","name":"서울깍두기","address":"부산광역시 중구 중앙대로 111 (대창동1가, 2)","jibunAddress":"부산광역시 중구 대창동1가 27-1 2","phone":"051 4690717","foodType":"","mainFood":"설렁탕","designatedDate":"20090701","lat":35.107617093,"lng":129.036002842,"region":"부산광역시","source":"model"},{"id":"3250000-101-1990-02068","name":"동화반점","address":"부산광역시 중구 흑교로75번길 3 (보수동2가)","jibunAddress":"부산광역시 중구 보수동2가 73-8","phone":"051 2536661","foodType":"중식","mainFood":"자장면","designatedDate":"20121101","lat":35.105790651,"lng":129.023452228,"region":"부산광역시","source":"model"},{"id":"3250000-101-1990-02439","name":"원산면옥","address":"부산광역시 중구 광복로 56-8 (창선동1가)","jibunAddress":"부산광역시 중구 창선동1가 37-1","phone":"051 245 2310","foodType":"분식","mainFood":"냉면","designatedDate":"20121101","lat":35.09897974,"lng":129.031055095,"region":"부산광역시","source":"model"},{"id":"3250000-101-1994-01121","name":"장터소머리곰탕","address":"부산광역시 중구 광복로 19-1, 2층 (부평동1가, 외 2필지)","jibunAddress":"부산광역시 중구 부평동1가 35-20 외 2필지 (2층)","phone":"051 2469789","foodType":"한식","mainFood":"영양탕","designatedDate":"20121101","lat":35.099560578,"lng":129.027279742,"region":"부산광역시","source":"model"},{"id":"3250000-101-1995-01338","name":"가미가 식당","address":"부산광역시 중구 광복로67번길 12, 1층 (광복동2가)","jibunAddress":"부산광역시 중구 광복동2가 2-81번지 (1층)","phone":"051 2467998","foodType":"한식","mainFood":"생선구이","designatedDate":"20121101","lat":35.099309817,"lng":129.032531596,"region":"부산광역시","source":"model"},{"id":"3250000-101-1995-01339","name":"이재모피자","address":"부산광역시 중구 광복중앙로 31 (신창동1가, 2, 4-3)","jibunAddress":"부산광역시 중구 신창동1가 2-1 2, 4-3","phone":"051 255 9494","foodType":"경양식","mainFood":"피자,파스타","designatedDate":"20151103","lat":35.102102719,"lng":129.030582355,"region":"부산광역시","source":"model"},{"id":"3250000-101-1999-02873","name":"무궁화","address":"부산광역시 중구 충장대로5번길 46, 1층 (중앙동4가)","jibunAddress":"부산광역시 중구 중앙동4가 78-23 (1층)","phone":"051 4632223","foodType":"한식","mainFood":"한정식","designatedDate":"20121101","lat":35.109165799,"lng":129.037906898,"region":"부산광역시","source":"model"},{"id":"3250000-101-2004-00054","name":"기와집","address":"부산광역시 중구 대청로137번길 7-2, 1층 (중앙동3가, 1층일부)","jibunAddress":"부산광역시 중구 중앙동3가 19-2 (1층일부)","phone":"051 466 5550","foodType":"한식","mainFood":"송이버섯","designatedDate":"20161104","lat":35.103545772,"lng":129.034884191,"region":"부산광역시","source":"model"},{"id":"3250000-101-2007-00023","name":"홍익돈까스 부산남포직영점","address":"부산광역시 중구 광복로 45-8, 1층 (창선동1가)","jibunAddress":"부산광역시 중구 창선동1가 21 (1층)","phone":"051 2474503","foodType":"경양식","mainFood":"돈까스","designatedDate":"20141103","lat":35.099590717,"lng":129.030253712,"region":"부산광역시","source":"model"},{"id":"3250000-101-2008-00001","name":"한우뭉치","address":"부산광역시 중구 보수대로 106, 2~3층 (보수동3가)","jibunAddress":"부산광역시 중구 보수동3가 5-16","phone":"051 2543250","foodType":"한식","mainFood":"쇠고기","designatedDate":"20161104","lat":35.105272132,"lng":129.021558002,"region":"부산광역시","source":"model"},{"id":"3250000-101-2014-00084","name":"부산에 뜬 고등어 부산역점","address":"부산광역시 중구 해관로 73, 1층 (중앙동4가, 일광빌딩)","jibunAddress":"부산광역시 중구 중앙동4가 51 일광빌딩","phone":"051 523 8659","foodType":"일식","mainFood":"참치회","designatedDate":"20161104","lat":35.105471714,"lng":129.035252269,"region":"부산광역시","source":"model"},{"id":"3250000-101-2015-00059","name":"명송","address":"부산광역시 중구 해관로 32, 1~2층 (중앙동2가)","jibunAddress":"부산광역시 중구 중앙동2가 13","phone":"051 246 1225","foodType":"일실","mainFood":"생선회, 초밥","designatedDate":"20161104","lat":35.101747905,"lng":129.035881473,"region":"부산광역시","source":"model"},{"id":"3260000-101-1988-00691","name":"굴마을","address":"부산광역시 서구 구덕로 167, 지상2층 (아미동1가)","jibunAddress":"부산광역시 서구 아미동1가 21 지상2층","phone":"051 2415186","foodType":"한식","mainFood":"굴국밥","designatedDate":"20090520","lat":35.09949103,"lng":129.019520933,"region":"부산광역시","source":"model"},{"id":"3260000-101-1993-00560","name":"동경초밥","address":"부산광역시 서구 구덕로321번길 21, 남영빌딩 (서대신동2가)","jibunAddress":"부산광역시 서구 서대신동2가 10-1 남영빌딩","phone":"051 2425788","foodType":"일식","mainFood":"생선초밥","designatedDate":"20080630","lat":35.111947351,"lng":129.01564278,"region":"부산광역시","source":"model"},{"id":"3260000-101-1998-01289","name":"태성식당","address":"부산광역시 서구 송도해변로 149 (암남동)","jibunAddress":"부산광역시 서구 암남동 127-3","phone":"051 2421886","foodType":"일식(횟집)","mainFood":"생선회","designatedDate":"20080630","lat":35.076713307,"lng":129.022490484,"region":"부산광역시","source":"model"},{"id":"3260000-101-2000-02285","name":"이조숯불갈비이조정식","address":"부산광역시 서구 구덕로339번길 31-1 (서대신동3가)","jibunAddress":"부산광역시 서구 서대신동3가 300-2 301-2","phone":"051 2485104","foodType":"한식","mainFood":"숯불갈비","designatedDate":"20080630","lat":35.113312979,"lng":129.014153251,"region":"부산광역시","source":"model"},{"id":"3260000-101-2002-02667","name":"미송하모샤브샤브","address":"부산광역시 서구 충무대로 124 (암남동)","jibunAddress":"부산광역시 서구 암남동 95-21","phone":"051 244 6143","foodType":"일식(횟집)","mainFood":"생선회","designatedDate":"20080630","lat":35.081348534,"lng":129.025221997,"region":"부산광역시","source":"model"},{"id":"3260000-101-2003-00076","name":"고주몽","address":"부산광역시 서구 구덕로148번길 43-1 (토성동1가)","jibunAddress":"부산광역시 서구 토성동1가 41-4","phone":"051 246 2452","foodType":"한식","mainFood":"참숯불갈비","designatedDate":"20080630","lat":35.098253295,"lng":129.023209708,"region":"부산광역시","source":"model"},{"id":"3260000-101-2006-00063","name":"옛날오막집","address":"부산광역시 서구 구덕로274번길 14 (동대신동1가)","jibunAddress":"부산광역시 서구 동대신동1가 232-2","phone":"051 2436973","foodType":"한식","mainFood":"양곱창","designatedDate":"20080630","lat":35.108936117,"lng":129.019850021,"region":"부산광역시","source":"model"},{"id":"3260000-101-2010-00047","name":"물마","address":"부산광역시 서구 대영로45번길 62 (서대신동3가)","jibunAddress":"부산광역시 서구 서대신동3가 411","phone":"051 256 6664","foodType":"한식","mainFood":"전복삼계탕","designatedDate":"20121031","lat":35.112110759,"lng":129.015190355,"region":"부산광역시","source":"model"},{"id":"3260000-101-2013-00031","name":"와와샤브(대신점)","address":"부산광역시 서구 대영로 54 (서대신동1가)","jibunAddress":"부산광역시 서구 서대신동1가 54","phone":"051 245 3330","foodType":"한식","mainFood":"샤브샤브","designatedDate":"20151030","lat":35.109687367,"lng":129.017304541,"region":"부산광역시","source":"model"},{"id":"3270000-101-1981-00892","name":"남원추어탕","address":"부산광역시 동구 중앙대로180번길 9 (초량동)","jibunAddress":"부산광역시 동구 초량동 1204-13","phone":"051 4635433","foodType":"","mainFood":"설렁탕","designatedDate":"20030701","lat":35.11318732,"lng":129.039972532,"region":"부산광역시","source":"model"},{"id":"3270000-101-1983-01429","name":"남경해물낙지","address":"부산광역시 동구 중앙대로196번길 12-8 (초량동)","jibunAddress":"부산광역시 동구 초량동 1204-6","phone":"051 4696153","foodType":"","mainFood":"낙지볶음","designatedDate":"20070702","lat":35.113728268,"lng":129.040211273,"region":"부산광역시","source":"model"},{"id":"3270000-101-1983-01605","name":"밀양돼지국밥","address":"부산광역시 동구 중앙대로196번길 6-11 (초량동)","jibunAddress":"부산광역시 동구 초량동 1204-17","phone":"051 4639926","foodType":"","mainFood":"대구탕,알탕","designatedDate":"20040701","lat":35.113473909,"lng":129.039852079,"region":"부산광역시","source":"model"},{"id":"3270000-101-1988-01410","name":"역전할머니맥주 범일점","address":"부산광역시 동구 조방로49번길 28 (범일동)","jibunAddress":"부산광역시 동구 범일동 830-36","phone":"051638 9233","foodType":"","mainFood":"생선초밥","designatedDate":"20010730","lat":35.138367044,"lng":129.059958377,"region":"부산광역시","source":"model"},{"id":"3270000-101-1989-00977","name":"부영회관","address":"부산광역시 동구 중앙대로196번길 12-9 (초량동)","jibunAddress":"부산광역시 동구 초량동 1203-17","phone":"051 4625501","foodType":"","mainFood":"김치찌게","designatedDate":"20030701","lat":35.113562112,"lng":129.040466869,"region":"부산광역시","source":"model"},{"id":"3270000-101-1989-01272","name":"부엌우동집","address":"부산광역시 동구 중앙대로214번길 7-9 (초량동)","jibunAddress":"부산광역시 동구 초량동 1200-13","phone":"051 462 8610","foodType":"","mainFood":"고등어찜","designatedDate":"20060701","lat":35.11664226,"lng":129.041592733,"region":"부산광역시","source":"model"},{"id":"3270000-101-1990-00973","name":"고궁삼계탕","address":"부산광역시 동구 중앙대로180번길 12-10 (초량동)","jibunAddress":"부산광역시 동구 초량동 1212-3","phone":"051 4636360","foodType":"","mainFood":"삼계탕","designatedDate":"20031009","lat":35.112489695,"lng":129.039663,"region":"부산광역시","source":"model"},{"id":"3270000-101-1991-01231","name":"고관해물탕","address":"부산광역시 동구 중앙대로349번길 38 (수정동)","jibunAddress":"부산광역시 동구 수정동 96-7","phone":"051 4637585","foodType":"한식","mainFood":"해물탕","designatedDate":"20161101","lat":35.126418899,"lng":129.045195629,"region":"부산광역시","source":"model"},{"id":"3270000-101-1991-01354","name":"별미청돼지국밥","address":"부산광역시 동구 중앙대로226번길 3-2 (초량동)","jibunAddress":"부산광역시 동구 초량동 1197-6","phone":"051 4657188","foodType":"","mainFood":"설렁탕","designatedDate":"20010730","lat":35.117091458,"lng":129.041663155,"region":"부산광역시","source":"model"},{"id":"3270000-101-1991-01357","name":"골목 갈비집","address":"부산광역시 동구 중앙대로221번길 30 (초량동)","jibunAddress":"부산광역시 동구 초량동 411-12","phone":"051 4637538","foodType":"","mainFood":"돼지갈비","designatedDate":"20030701","lat":35.117499545,"lng":129.039027528,"region":"부산광역시","source":"model"},{"id":"3270000-101-1991-01674","name":"감포참가자미","address":"부산광역시 동구 범일로102번길 16-20 (범일동)","jibunAddress":"부산광역시 동구 범일동 830-282","phone":"051 643 3187","foodType":"","mainFood":"생선초밥","designatedDate":"20010730","lat":35.138309513,"lng":129.061030505,"region":"부산광역시","source":"model"},{"id":"3270000-101-1993-02054","name":"동촌황정순수육전골","address":"부산광역시 동구 조방로 39-12 (범일동)","jibunAddress":"부산광역시 동구 범일동 830-274","phone":"051 6334566","foodType":"","mainFood":"수육전골","designatedDate":"20060701","lat":35.139380062,"lng":129.060707648,"region":"부산광역시","source":"model"},{"id":"3270000-101-1993-02064","name":"남원 추어탕","address":"부산광역시 동구 진시장로 13 (범일동)","jibunAddress":"부산광역시 동구 범일동 644-10","phone":"051 6332333","foodType":"","mainFood":"생선회","designatedDate":"20010730","lat":35.138072828,"lng":129.058284101,"region":"부산광역시","source":"model"},{"id":"3270000-101-1993-02146","name":"조방낙지","address":"부산광역시 동구 중앙대로260번길 3-11 (초량동)","jibunAddress":"부산광역시 동구 초량동 1169-4","phone":"051 4653577","foodType":"","mainFood":"낙지볶음","designatedDate":"20010730","lat":35.120688771,"lng":129.043263871,"region":"부산광역시","source":"model"},{"id":"3270000-101-1995-02296","name":"이어도식당","address":"부산광역시 동구 중앙대로236번길 10 (초량동)","jibunAddress":"부산광역시 동구 초량동 1196-2","phone":"051 4659959","foodType":"","mainFood":"생선회","designatedDate":"20010730","lat":35.117458139,"lng":129.042385872,"region":"부산광역시","source":"model"},{"id":"3270000-101-1995-02350","name":"양지탕","address":"부산광역시 동구 중앙대로349번길 42 (수정동)","jibunAddress":"부산광역시 동구 수정동 96-5","phone":"051 4654650","foodType":"","mainFood":"복국","designatedDate":"20010730","lat":35.126286862,"lng":129.045030064,"region":"부산광역시","source":"model"},{"id":"3270000-101-1999-02868","name":"범일물갈비","address":"부산광역시 동구 범일로102번길 16-10 (범일동)","jibunAddress":"부산광역시 동구 범일동 830-260","phone":"050713835451","foodType":"","mainFood":"생선회","designatedDate":"20010730","lat":35.138554422,"lng":129.061030819,"region":"부산광역시","source":"model"},{"id":"3270000-101-1999-02912","name":"동해낙지","address":"부산광역시 동구 중앙대로221번길 43 (초량동)","jibunAddress":"부산광역시 동구 초량동 423-2","phone":"051 4669956","foodType":"","mainFood":"낙지볶음","designatedDate":"20010730","lat":35.117551178,"lng":129.038040335,"region":"부산광역시","source":"model"},{"id":"3270000-101-2000-03040","name":"홍보석(부산점)","address":"부산광역시 동구 범일로 125 (범일동,,9층일부)","jibunAddress":"부산광역시 동구 범일동 62-5 ,9층일부","phone":"051 6670892","foodType":"","mainFood":"자장면","designatedDate":"20040701","lat":35.141444649,"lng":129.058511017,"region":"부산광역시","source":"model"},{"id":"3270000-101-2000-03047","name":"고기백화점 식육식당","address":"부산광역시 동구 중앙대로180번길 12-3 (초량동)","jibunAddress":"부산광역시 동구 초량동 1213-3","phone":"051 441 9291","foodType":"한식","mainFood":"메밀국수","designatedDate":"20151103","lat":35.112715702,"lng":129.040122158,"region":"부산광역시","source":"model"},{"id":"3270000-101-2001-02965","name":"참숯골","address":"부산광역시 동구 조방로49번길 25 (범일동)","jibunAddress":"부산광역시 동구 범일동 830-264","phone":"051 6438000","foodType":"한식","mainFood":"갈비","designatedDate":"20070702","lat":35.13857516,"lng":129.060311596,"region":"부산광역시","source":"model"},{"id":"3270000-101-2001-02983","name":"홍성방","address":"부산광역시 동구 중앙대로179번길 16 (초량동)","jibunAddress":"부산광역시 동구 초량동 571","phone":"050713959495","foodType":"","mainFood":"자장면","designatedDate":"20040701","lat":35.113859417,"lng":129.037786984,"region":"부산광역시","source":"model"},{"id":"3270000-101-2001-02992","name":"조방낙지","address":"부산광역시 동구 조방로 21 (범일동)","jibunAddress":"부산광역시 동구 범일동 830-61","phone":"051 6371001","foodType":"","mainFood":"낙지볶음","designatedDate":"20010730","lat":35.138800379,"lng":129.061899097,"region":"부산광역시","source":"model"},{"id":"3270000-101-2001-02998","name":"신창돼지국밥","address":"부산광역시 동구 중앙대로214번길 3-4 (초량동)","jibunAddress":"부산광역시 동구 초량동 1200-8","phone":"051 4657180","foodType":"","mainFood":"설렁탕","designatedDate":"20030701","lat":35.116392822,"lng":129.041290179,"region":"부산광역시","source":"model"},{"id":"3270000-101-2003-00043","name":"맛나감자탕","address":"부산광역시 동구 초량상로 98 (초량동)","jibunAddress":"부산광역시 동구 초량동 132-8 132-11","phone":"051 4637733","foodType":"","mainFood":"해장국","designatedDate":"20040701","lat":35.120396258,"lng":129.03929054,"region":"부산광역시","source":"model"},{"id":"3270000-101-2003-00057","name":"고려홍삼삼계탕","address":"부산광역시 동구 범일로102번길 16-9 (범일동)","jibunAddress":"부산광역시 동구 범일동 830-268","phone":"051 6383317","foodType":"","mainFood":"삼계탕","designatedDate":"20131101","lat":35.138591517,"lng":129.061402145,"region":"부산광역시","source":"model"},{"id":"3270000-101-2005-00012","name":"건양정홍삼삼계탕 수정점","address":"부산광역시 동구 고관로 102 (수정동,동환빌딩 2층)","jibunAddress":"부산광역시 동구 수정동 159-1 동환빌딩 2층","phone":"051 4623335","foodType":"한식","mainFood":"삼계탕","designatedDate":"20161101","lat":35.127943275,"lng":129.045972094,"region":"부산광역시","source":"model"},{"id":"3270000-101-2005-00045","name":"더바른식당","address":"부산광역시 동구 진성로9번길 11 (수정동,(1층))","jibunAddress":"부산광역시 동구 수정동 1-161 (1층)","phone":"","foodType":"","mainFood":"삼겹살","designatedDate":"20060701","lat":35.129340302,"lng":129.048048544,"region":"부산광역시","source":"model"},{"id":"3270000-101-2008-00006","name":"조방왕돈까스전문점","address":"부산광역시 동구 자성로133번길 31, 신일빌딩 1층 107호 (범일동)","jibunAddress":"부산광역시 동구 범일동 830-130 신일빌딩","phone":"051 636 0802","foodType":"","mainFood":"돈까스","designatedDate":"20090701","lat":35.139528747,"lng":129.063429417,"region":"부산광역시","source":"model"},{"id":"3270000-101-2008-00023","name":"가야왕족&감자탕 범일점","address":"부산광역시 동구 범일로102번길 13 (범일동)","jibunAddress":"부산광역시 동구 범일동 830-222","phone":"051 631 8253","foodType":"","mainFood":"참치","designatedDate":"20100701","lat":35.139219714,"lng":129.061041745,"region":"부산광역시","source":"model"},{"id":"3270000-101-2012-00026","name":"텐이몽","address":"부산광역시 동구 자성로133번길 10 (범일동)","jibunAddress":"부산광역시 동구 범일동 830-9","phone":"051 636 8009","foodType":"중식","mainFood":"자장면","designatedDate":"20131101","lat":35.138206545,"lng":129.064915572,"region":"부산광역시","source":"model"},{"id":"3270000-101-2014-00012","name":"대수정","address":"부산광역시 동구 자성로133번길 46 (범일동)","jibunAddress":"부산광역시 동구 범일동 830-77","phone":"051 647 0147","foodType":"","mainFood":"돌솥밥","designatedDate":"20141101","lat":35.14086778,"lng":129.062973367,"region":"부산광역시","source":"model"},{"id":"3270000-101-2015-00003","name":"오륙도낙지범일본점","address":"부산광역시 동구 정공단로 46-1 (범일동)","jibunAddress":"부산광역시 동구 범일동 181-1","phone":"051 638 1589","foodType":"한식","mainFood":"낙지전골","designatedDate":"20151103","lat":35.136377824,"lng":129.055556409,"region":"부산광역시","source":"model"},{"id":"3280000-101-1996-00804","name":"포항물회","address":"부산광역시 영도구 절영로 478 (동삼동)","jibunAddress":"부산광역시 영도구 동삼동 570-1","phone":"051 4059077","foodType":"한식","mainFood":"물회","designatedDate":"20010721","lat":35.070535204,"lng":129.068679552,"region":"부산광역시","source":"model"},{"id":"3280000-101-1997-00897","name":"장원쌈밥","address":"부산광역시 영도구 중리로 46-9 (동삼동)","jibunAddress":"부산광역시 영도구 동삼동 510-20","phone":"051 4044700","foodType":"한식","mainFood":"쌈밥","designatedDate":"20090622","lat":35.075155633,"lng":129.068728635,"region":"부산광역시","source":"model"},{"id":"3280000-101-1998-01054","name":"제주복국","address":"부산광역시 영도구 절영로 481 (동삼동)","jibunAddress":"부산광역시 영도구 동삼동 487","phone":"051 4055050","foodType":"한식","mainFood":"복국","designatedDate":"20070702","lat":35.071009664,"lng":129.068863651,"region":"부산광역시","source":"model"},{"id":"3280000-101-2002-00047","name":"남촌","address":"부산광역시 영도구 남항로9번길 3 (남항동1가)","jibunAddress":"부산광역시 영도구 남항동1가 59-3","phone":"051 4153230","foodType":"한식","mainFood":"샤브샤브","designatedDate":"20090622","lat":35.090046431,"lng":129.03766511,"region":"부산광역시","source":"model"},{"id":"3280000-101-2004-00077","name":"도원참치물회","address":"부산광역시 영도구 절영로 468 (동삼동)","jibunAddress":"부산광역시 영도구 동삼동 576","phone":"051 403 5777","foodType":"한식","mainFood":"물회","designatedDate":"20151027","lat":35.06998857,"lng":129.067760258,"region":"부산광역시","source":"model"},{"id":"3290000-101-1974-02119","name":"1974 골목","address":"부산광역시 부산진구 가야대로784번길 46 (부전동)","jibunAddress":"부산광역시 부산진구 부전동 516-3","phone":"051803 3850","foodType":"","mainFood":"숯불갈비","designatedDate":"20040712","lat":35.155465643,"lng":129.05709764,"region":"부산광역시","source":"model"},{"id":"3290000-101-1976-02128","name":"우정분식","address":"부산광역시 부산진구 동천로85번길 3 (부전동)","jibunAddress":"부산광역시 부산진구 부전동 168-365","phone":"051803 0303","foodType":"","mainFood":"돌솥비빔밥","designatedDate":"20070628","lat":35.156229294,"lng":129.062005852,"region":"부산광역시","source":"model"},{"id":"3290000-101-1980-00299","name":"대서양식당","address":"부산광역시 부산진구 부전로96번길 26 (부전동)","jibunAddress":"부산광역시 부산진구 부전동 477-16","phone":"051 809 0190","foodType":"","mainFood":"참치회","designatedDate":"20090514","lat":35.158553963,"lng":129.056109131,"region":"부산광역시","source":"model"},{"id":"3290000-101-1980-00359","name":"동해물회","address":"부산광역시 부산진구 서전로 15 (부전동)","jibunAddress":"부산광역시 부산진구 부전동 142-5","phone":"051 8093305","foodType":"한식","mainFood":"물회","designatedDate":"20060606","lat":35.157898652,"lng":129.061375349,"region":"부산광역시","source":"model"},{"id":"3290000-101-1981-00391","name":"제일횟집","address":"부산광역시 부산진구 서면문화로 24 (부전동,,25 (1,2,3층))","jibunAddress":"부산광역시 부산진구 부전동 398-12 ,25 (1,2,3층)","phone":"051 8056290","foodType":"","mainFood":"일식","designatedDate":"20060626","lat":35.159479222,"lng":129.056613757,"region":"부산광역시","source":"model"},{"id":"3290000-101-1982-00410","name":"급행장","address":"부산광역시 부산진구 서면문화로 4 (부전동)","jibunAddress":"부산광역시 부산진구 부전동 259-27","phone":"051 8092100","foodType":"한식","mainFood":"소갈비, 갈비탕","designatedDate":"20040712","lat":35.158064829,"lng":129.058009384,"region":"부산광역시","source":"model"},{"id":"3290000-101-1983-00457","name":"태화육개장","address":"부산광역시 부산진구 서면문화로 18-1 (부전동)","jibunAddress":"부산광역시 부산진구 부전동 397-21","phone":"051 8025995","foodType":"한식","mainFood":"육개장,수육","designatedDate":"20100601","lat":35.159324905,"lng":129.056973053,"region":"부산광역시","source":"model"},{"id":"3290000-101-1983-00471","name":"장수국밥","address":"부산광역시 부산진구 새싹로29번길 8 (부전동,,30)","jibunAddress":"부산광역시 부산진구 부전동 401-23 ,30","phone":"051 8042277","foodType":"한식","mainFood":"돼지국밥,수육","designatedDate":"20070628","lat":35.160359715,"lng":129.056563213,"region":"부산광역시","source":"model"},{"id":"3290000-101-1985-00548","name":"용궁해물탕","address":"부산광역시 부산진구 서면문화로5번길 10 (부전동)","jibunAddress":"부산광역시 부산진구 부전동 475-17","phone":"051 808 4711","foodType":"한식","mainFood":"해물탕","designatedDate":"20130215","lat":35.15839625,"lng":129.057173582,"region":"부산광역시","source":"model"},{"id":"3290000-101-1985-00551","name":"일품 장원 돼지국밥","address":"부산광역시 부산진구 서면문화로 17, 1층 (부전동)","jibunAddress":"부산광역시 부산진구 부전동 474-129","phone":"051 8043700","foodType":"한식","mainFood":"돼지갈비, 삼겹살","designatedDate":"20040712","lat":35.158916379,"lng":129.056810558,"region":"부산광역시","source":"model"},{"id":"3290000-101-1985-02524","name":"제임스백","address":"부산광역시 부산진구 중앙대로691번가길 24-7, 지상1-2층 (부전동)","jibunAddress":"부산광역시 부산진구 부전동 516-9","phone":"051 8055464","foodType":"","mainFood":"된장뚝배기,청국장","designatedDate":"20100601","lat":35.155537261,"lng":129.055931974,"region":"부산광역시","source":"model"},{"id":"3290000-101-1988-00657","name":"남해수산횟집","address":"부산광역시 부산진구 서면문화로 11-1 (부전동)","jibunAddress":"부산광역시 부산진구 부전동 475-4","phone":"051818 9898","foodType":"한식","mainFood":"생선회","designatedDate":"20111027","lat":35.158546181,"lng":129.057208704,"region":"부산광역시","source":"model"},{"id":"3290000-101-1988-03740","name":"중앙숯불갈비","address":"부산광역시 부산진구 골드테마길 65 (범천동)","jibunAddress":"부산광역시 부산진구 범천동 847-32","phone":"051 6322008","foodType":"","mainFood":"돼지갈비,삼겹살","designatedDate":"20100601","lat":35.144606507,"lng":129.059883945,"region":"부산광역시","source":"model"},{"id":"3290000-101-1990-02854","name":"홍이집","address":"부산광역시 부산진구 가야대로784번길 42, 지상1층 (부전동)","jibunAddress":"부산광역시 부산진구 부전동 516-2 지상1층","phone":"051 807 5555","foodType":"","mainFood":"오리,삼겹바베큐","designatedDate":"20060626","lat":35.155554328,"lng":129.057108577,"region":"부산광역시","source":"model"},{"id":"3290000-101-1991-00996","name":"춘하추동밀면","address":"부산광역시 부산진구 서면문화로 48-1 (부전동)","jibunAddress":"부산광역시 부산진구 부전동 404-3","phone":"051 8098659","foodType":"분식","mainFood":"밀면","designatedDate":"20040712","lat":35.161472714,"lng":129.055520146,"region":"부산광역시","source":"model"},{"id":"3290000-101-1991-02123","name":"전통음식점 원양","address":"부산광역시 부산진구 동평로420번길 23 (양정동)","jibunAddress":"부산광역시 부산진구 양정동 393-2","phone":"051 864 0773","foodType":"","mainFood":"생갈비,쌈밥","designatedDate":"20100601","lat":35.1722019,"lng":129.069932796,"region":"부산광역시","source":"model"},{"id":"3290000-101-1992-03141","name":"금룡만두","address":"부산광역시 부산진구 중앙대로702번길 17-1, 1,2층 (부전동)","jibunAddress":"부산광역시 부산진구 부전동 168-184","phone":"051 802 9168","foodType":"","mainFood":"중화요리","designatedDate":"20100601","lat":35.155570186,"lng":129.060157315,"region":"부산광역시","source":"model"},{"id":"3290000-101-1992-04156","name":"본가낙지","address":"부산광역시 부산진구 골드테마길 2-13 (범천동)","jibunAddress":"부산광역시 부산진구 범천동 837-4","phone":"051 6421041","foodType":"","mainFood":"낙지볶음","designatedDate":"20100601","lat":35.142025942,"lng":129.06025978,"region":"부산광역시","source":"model"},{"id":"3290000-101-1992-06335","name":"가야돼지국밥","address":"부산광역시 부산진구 가야대로454번길 11 (개금동)","jibunAddress":"부산광역시 부산진구 개금동 177-282","phone":"051 8925859","foodType":"한식","mainFood":"갈비찜","designatedDate":"20100601","lat":35.152490069,"lng":129.021902491,"region":"부산광역시","source":"model"},{"id":"3290000-101-1993-00783","name":"대동반점","address":"부산광역시 부산진구 복지로13번길 14 (개금동)","jibunAddress":"부산광역시 부산진구 개금동 177-326","phone":"051 8938887","foodType":"","mainFood":"중화요리","designatedDate":"20100601","lat":35.151860262,"lng":129.021103493,"region":"부산광역시","source":"model"},{"id":"3290000-101-1994-03461","name":"오감 일식점","address":"부산광역시 부산진구 중앙대로691번길 52 (부전동)","jibunAddress":"부산광역시 부산진구 부전동 520-38","phone":"051 806 1585","foodType":"일식","mainFood":"생선회,초밥","designatedDate":"20111027","lat":35.15462443,"lng":129.056253068,"region":"부산광역시","source":"model"},{"id":"3290000-101-1994-04216","name":"일광횟집","address":"부산광역시 부산진구 가야대로588번길 13 (가야동)","jibunAddress":"부산광역시 부산진구 가야동 275-4","phone":"051 8986858","foodType":"","mainFood":"생갈비","designatedDate":"20100601","lat":35.153990872,"lng":129.035967876,"region":"부산광역시","source":"model"},{"id":"3290000-101-1995-01781","name":"동보성","address":"부산광역시 부산진구 서면문화로 27 (부전동,유원O/T 지하102호, 101호)","jibunAddress":"부산광역시 부산진구 부전동 474-80 유원O/T 지하102호, 101호","phone":"051 8161649","foodType":"","mainFood":"짜장면,탕수육","designatedDate":"20040712","lat":35.159435212,"lng":129.055596684,"region":"부산광역시","source":"model"},{"id":"3290000-101-1995-03745","name":"마당집","address":"부산광역시 부산진구 부전로 69 (부전동)","jibunAddress":"부산광역시 부산진구 부전동 512-23","phone":"051806 8602","foodType":"","mainFood":"생등심, 생갈비","designatedDate":"20100601","lat":35.156238397,"lng":129.054534301,"region":"부산광역시","source":"model"},{"id":"3290000-101-1998-02034","name":"대서양식당","address":"부산광역시 부산진구 부전로96번길 20 (부전동)","jibunAddress":"부산광역시 부산진구 부전동 477-30","phone":"051 8020909","foodType":"","mainFood":"참치회","designatedDate":"20040712","lat":35.158608454,"lng":129.0557591,"region":"부산광역시","source":"model"},{"id":"3290000-101-1998-04573","name":"함경면옥","address":"부산광역시 부산진구 부전로66번길 32 (부전동)","jibunAddress":"부산광역시 부산진구 부전동 516-42","phone":"051 8913000","foodType":"","mainFood":"냉면","designatedDate":"20100601","lat":35.155705236,"lng":129.056402016,"region":"부산광역시","source":"model"},{"id":"3290000-101-1998-04628","name":"부산초밥","address":"부산광역시 부산진구 부전로66번길 16 (부전동)","jibunAddress":"부산광역시 부산진구 부전동 516-67","phone":"051 8191688","foodType":"","mainFood":"일식요리","designatedDate":"20100601","lat":35.155769076,"lng":129.055649253,"region":"부산광역시","source":"model"},{"id":"3290000-101-1998-05210","name":"공감식당","address":"부산광역시 부산진구 동평로 81, 1층 (당감동)","jibunAddress":"부산광역시 부산진구 당감동 416-3 (1층)","phone":"051 891 2041","foodType":"한식","mainFood":"삼겹살","designatedDate":"20100601","lat":35.165509606,"lng":129.038371297,"region":"부산광역시","source":"model"},{"id":"3290000-101-1999-06774","name":"진수밥상","address":"부산광역시 부산진구 백양관문로 111 (당감동,(1층))","jibunAddress":"부산광역시 부산진구 당감동 808 (1층)","phone":"051 8951511","foodType":"분식","mainFood":"막국수","designatedDate":"20151030","lat":35.168335942,"lng":129.026967701,"region":"부산광역시","source":"model"},{"id":"3290000-101-2000-07306","name":"(주)사미헌","address":"부산광역시 부산진구 서면문화로 19, 지하1~4층 (부전동)","jibunAddress":"부산광역시 부산진구 부전동 474-26","phone":"051 8196677","foodType":"한식","mainFood":"등심구이,갈비탕","designatedDate":"20040712","lat":35.159023036,"lng":129.05663841,"region":"부산광역시","source":"model"},{"id":"3290000-101-2000-07353","name":"사랑채","address":"부산광역시 부산진구 월드컵대로472번길 24 (초읍동)","jibunAddress":"부산광역시 부산진구 초읍동 308-10","phone":"051 8053832","foodType":"","mainFood":"","designatedDate":"20100601","lat":35.183334081,"lng":129.049366794,"region":"부산광역시","source":"model"},{"id":"3290000-101-2000-07673","name":"미락","address":"부산광역시 부산진구 당감서로 90 (부암동)","jibunAddress":"부산광역시 부산진구 부암동 505-1","phone":"051 8098077","foodType":"일식","mainFood":"생선회,초밥","designatedDate":"20111027","lat":35.168505051,"lng":129.036686031,"region":"부산광역시","source":"model"},{"id":"3290000-101-2000-07686","name":"삼성횟집","address":"부산광역시 부산진구 신천대로65번길 29 (범천동)","jibunAddress":"부산광역시 부산진구 범천동 869-3","phone":"051 644 8693","foodType":"","mainFood":"생선회","designatedDate":"20100601","lat":35.148999559,"lng":129.058132225,"region":"부산광역시","source":"model"},{"id":"3290000-101-2001-07814","name":"백양돼지국밥","address":"부산광역시 부산진구 백양관문로 84 (당감동)","jibunAddress":"부산광역시 부산진구 당감동 792-12","phone":"051 898 0505","foodType":"한식","mainFood":"돼지국밥","designatedDate":"20100601","lat":35.166402014,"lng":129.02877726,"region":"부산광역시","source":"model"},{"id":"3290000-101-2001-08272","name":"정가네합천돼지국밥","address":"부산광역시 부산진구 연수로11번길 57 (양정동,전원타워빌상가1층2호)","jibunAddress":"부산광역시 부산진구 양정동 145-12 전원타워빌상가1층2호","phone":"051 868 0071","foodType":"한식","mainFood":"돼지국밥","designatedDate":"20100601","lat":35.175875966,"lng":129.074200583,"region":"부산광역시","source":"model"},{"id":"3290000-101-2001-08393","name":"백향만두","address":"부산광역시 부산진구 당감로 118 (부암동)","jibunAddress":"부산광역시 부산진구 부암동 560-14","phone":"051 8166960","foodType":"","mainFood":"우동,자장면","designatedDate":"20100601","lat":35.172323908,"lng":129.038149046,"region":"부산광역시","source":"model"},{"id":"3290000-101-2002-08610","name":"그집갈비탕","address":"부산광역시 부산진구 동평로406번길 39 (양정동)","jibunAddress":"부산광역시 부산진구 양정동 389-9","phone":"051 866 0009","foodType":"","mainFood":"생선회","designatedDate":"20100601","lat":35.172128,"lng":129.069169129,"region":"부산광역시","source":"model"},{"id":"3290000-101-2002-08881","name":"다원","address":"부산광역시 부산진구 서면문화로 23-1 (부전동)","jibunAddress":"부산광역시 부산진구 부전동 474-31","phone":"051808 3800","foodType":"","mainFood":"등심구이","designatedDate":"20040712","lat":35.159125491,"lng":129.05613537,"region":"부산광역시","source":"model"},{"id":"3290000-101-2002-08981","name":"일품정가","address":"부산광역시 부산진구 가야대로703번길 25 (당감동)","jibunAddress":"부산광역시 부산진구 당감동 69-7","phone":"051 891 9136","foodType":"","mainFood":"삼겹살","designatedDate":"20100601","lat":35.15828408,"lng":129.048337745,"region":"부산광역시","source":"model"},{"id":"3290000-101-2002-08996","name":"거북이 동네 부산양정현대점","address":"부산광역시 부산진구 범양로125번길 12 (양정동)","jibunAddress":"부산광역시 부산진구 양정동 507-22","phone":"051 8528866","foodType":"","mainFood":"생갈비,삼겹살","designatedDate":"20100601","lat":35.174451393,"lng":129.065099024,"region":"부산광역시","source":"model"},{"id":"3290000-101-2003-00037","name":"백두산","address":"부산광역시 부산진구 전포대로 214 (전포동,,49)","jibunAddress":"부산광역시 부산진구 전포동 309-8 ,49","phone":"051 8082423","foodType":"","mainFood":"순두부","designatedDate":"20100601","lat":35.155510451,"lng":129.065822859,"region":"부산광역시","source":"model"},{"id":"3290000-101-2003-00086","name":"이바돔감자탕","address":"부산광역시 부산진구 중앙대로 808 (전포동)","jibunAddress":"부산광역시 부산진구 전포동 874-1","phone":"051 8053330","foodType":"","mainFood":"감자탕","designatedDate":"20100601","lat":35.163437609,"lng":129.064177829,"region":"부산광역시","source":"model"},{"id":"3290000-101-2003-00188","name":"태백관","address":"부산광역시 부산진구 서전로9번길 52 (부전동)","jibunAddress":"부산광역시 부산진구 부전동 98-10","phone":"051 8069197","foodType":"","mainFood":"자장면","designatedDate":"20040712","lat":35.159817641,"lng":129.061852368,"region":"부산광역시","source":"model"},{"id":"3290000-101-2003-00210","name":"삼부식당","address":"부산광역시 부산진구 시민공원로19번길 38-6, 2층 (부암동)","jibunAddress":"부산광역시 부산진구 부암동 80-66","phone":"051 809 8778","foodType":"","mainFood":"조개칼국수","designatedDate":"20100601","lat":35.164815474,"lng":129.051806139,"region":"부산광역시","source":"model"},{"id":"3290000-101-2004-00116","name":"자갈마당","address":"부산광역시 부산진구 새싹로29번길 14-12 (부전동)","jibunAddress":"부산광역시 부산진구 부전동 401-11","phone":"051 807 9289","foodType":"한식","mainFood":"숯불장어구이","designatedDate":"20060626","lat":35.160708777,"lng":129.056259455,"region":"부산광역시","source":"model"},{"id":"3290000-101-2004-00186","name":"북경","address":"부산광역시 부산진구 시민공원로19번길 32-5 (부암동)","jibunAddress":"부산광역시 부산진구 부암동 80-26","phone":"051 8076709","foodType":"","mainFood":"중화요리","designatedDate":"20060626","lat":35.164711092,"lng":129.051831658,"region":"부산광역시","source":"model"},{"id":"3290000-101-2004-00197","name":"(유)아웃백스테이크하우스코리아 서면점","address":"부산광역시 부산진구 중앙대로 672, 서면피에스타 6층 606호 (부전동)","jibunAddress":"부산광역시 부산진구 부전동 227-2 서면피에스타","phone":"0515203770","foodType":"양식","mainFood":"스테이크","designatedDate":"20111027","lat":35.152985855,"lng":129.059606935,"region":"부산광역시","source":"model"},{"id":"3290000-101-2004-00244","name":"월강","address":"부산광역시 부산진구 서면로 7, 월강빌딩 1,2,3,4층 (부전동)","jibunAddress":"부산광역시 부산진구 부전동 533-10 월강빌딩","phone":"051 806 2500","foodType":"","mainFood":"일식요리","designatedDate":"20060626","lat":35.151421437,"lng":129.057610709,"region":"부산광역시","source":"model"},{"id":"3290000-101-2004-00295","name":"도마위에 암소","address":"부산광역시 부산진구 서면문화로 48 (부전동)","jibunAddress":"부산광역시 부산진구 부전동 404-5","phone":"051 805 0073","foodType":"한식","mainFood":"한우","designatedDate":"20131028","lat":35.161412776,"lng":129.055661697,"region":"부산광역시","source":"model"},{"id":"3290000-101-2004-00337","name":"승승집(가야점)","address":"부산광역시 부산진구 가야대로 597 (가야동)","jibunAddress":"부산광역시 부산진구 가야동 56-2","phone":"051 8953392","foodType":"한식","mainFood":"설렁탕","designatedDate":"20151030","lat":35.155158546,"lng":129.037038703,"region":"부산광역시","source":"model"},{"id":"3290000-101-2005-00011","name":"돌쇠본가","address":"부산광역시 부산진구 성지곡로12번길 25 (초읍동)","jibunAddress":"부산광역시 부산진구 초읍동 102-4","phone":"051 804 7980","foodType":"","mainFood":"전복갈비찜,돌솥밥","designatedDate":"20100601","lat":35.183833015,"lng":129.048771332,"region":"부산광역시","source":"model"},{"id":"3290000-101-2006-00123","name":"진가네추어탕","address":"부산광역시 부산진구 백양순환로 9, 1층 (당감동, 동남주상복합아파트)","jibunAddress":"부산광역시 부산진구 당감동 623-2","phone":"051 8914458","foodType":"한식","mainFood":"추어탕","designatedDate":"20121102","lat":35.165494908,"lng":129.033022149,"region":"부산광역시","source":"model"},{"id":"3290000-101-2006-00139","name":"에스서울깍두기 전포점","address":"부산광역시 부산진구 서전로 49 (전포동)","jibunAddress":"부산광역시 부산진구 전포동 665-3","phone":"051 816 3950","foodType":"한식","mainFood":"설렁탕,곰탕","designatedDate":"20111027","lat":35.158192571,"lng":129.064931082,"region":"부산광역시","source":"model"},{"id":"3290000-101-2006-00203","name":"담양집","address":"부산광역시 부산진구 중앙대로 786, 101동 2층 203,204,205,206호 (전포동, 에메랄드홈)","jibunAddress":"부산광역시 부산진구 전포동 876-4 에메랄드홈","phone":"051 808 1238","foodType":"","mainFood":"샤브샤브","designatedDate":"20100601","lat":35.161932387,"lng":129.063156277,"region":"부산광역시","source":"model"},{"id":"3290000-101-2010-00039","name":"세연정","address":"부산광역시 부산진구 가야대로 554, 1층 (가야동)","jibunAddress":"부산광역시 부산진구 가야동 221-2","phone":"051 867 2000","foodType":"한식","mainFood":"소고기","designatedDate":"20111027","lat":35.154052103,"lng":129.032611779,"region":"부산광역시","source":"model"},{"id":"3290000-101-2010-00118","name":"장승포바다장어구이","address":"부산광역시 부산진구 냉정로 202 (개금동,번지(1층))","jibunAddress":"부산광역시 부산진구 개금동 554-157 번지(1층)","phone":"051 894 9996","foodType":"한식","mainFood":"바다장어구이","designatedDate":"20121102","lat":35.150429086,"lng":129.021947568,"region":"부산광역시","source":"model"},{"id":"3290000-101-2011-00009","name":"초원가든","address":"부산광역시 부산진구 부전로 57, 지상1층 (부전동)","jibunAddress":"부산광역시 부산진구 부전동 514-1 지상1층","phone":"051 806 8878","foodType":"한식","mainFood":"소양념갈비,소진갈비살,한우","designatedDate":"20111027","lat":35.154600286,"lng":129.054809977,"region":"부산광역시","source":"model"},{"id":"3290000-101-2011-00029","name":"강원삼계탕","address":"부산광역시 부산진구 개금온정로 10 (개금동,796-1개금롯데캐슬상가2동제지1층 B117,B118,B119)","jibunAddress":"부산광역시 부산진구 개금동 796 796-1개금롯데캐슬상가2동제지1층 B117,B118,B119","phone":"051 502 9116","foodType":"한식","mainFood":"삼계탕,곰탕류","designatedDate":"20111027","lat":35.154438265,"lng":129.027657217,"region":"부산광역시","source":"model"},{"id":"3290000-101-2011-00041","name":"외식일번가 부산진구점","address":"부산광역시 부산진구 신천대로 222, 2,3층 (부암동)","jibunAddress":"부산광역시 부산진구 부암동 123-6 (2,3층)","phone":"051 816 0007","foodType":"한식","mainFood":"쇠고기구이","designatedDate":"20111027","lat":35.161700023,"lng":129.051088717,"region":"부산광역시","source":"model"},{"id":"3290000-101-2011-00152","name":"건양정홍삼삼계탕서면점","address":"부산광역시 부산진구 동성로 147 (전포동,외1필지(1.2층))","jibunAddress":"부산광역시 부산진구 전포동 878-20 외1필지(1.2층)","phone":"051 817 3317","foodType":"한식","mainFood":"삼계탕","designatedDate":"20141117","lat":35.161054161,"lng":129.062940095,"region":"부산광역시","source":"model"},{"id":"3290000-101-2011-00177","name":"갤러리움웨딩홀부페","address":"부산광역시 부산진구 중앙대로969번길 11, c201호 (양정동,양정롯데갤러리움아파트(2층))","jibunAddress":"부산광역시 부산진구 양정동 273-1 양정롯데갤러리움아파트(2층) c201호","phone":"051 852 6776","foodType":"뷔페","mainFood":"뷔페","designatedDate":"20121102","lat":35.176030192,"lng":129.072489598,"region":"부산광역시","source":"model"},{"id":"3290000-101-2011-00190","name":"더스타","address":"부산광역시 부산진구 중앙대로666번길 50 (부전동,센트럴스타 상가동204,205,206호(지하2층))","jibunAddress":"부산광역시 부산진구 부전동 537-9 센트럴스타 상가동204,205,206호(지하2층)","phone":"051 918 8000","foodType":"뷔페","mainFood":"뷔페","designatedDate":"20121102","lat":35.15113859,"lng":129.061878534,"region":"부산광역시","source":"model"},{"id":"3290000-101-2013-00036","name":"대공원 조방낙지","address":"부산광역시 부산진구 성지곡로 17 (초읍동, 지상1층전체)","jibunAddress":"부산광역시 부산진구 초읍동 351-13 지상1층전체","phone":"051 804 8600","foodType":"한식","mainFood":"낙지볶음","designatedDate":"20131028","lat":35.184053737,"lng":129.047349153,"region":"부산광역시","source":"model"},{"id":"3290000-101-2013-00169","name":"바다호호복국","address":"부산광역시 부산진구 서면문화로 26, 1층 (부전동)","jibunAddress":"부산광역시 부산진구 부전동 398-8","phone":"051 8070009","foodType":"한식","mainFood":"복국","designatedDate":"20161108","lat":35.159697988,"lng":129.056344336,"region":"부산광역시","source":"model"},{"id":"3290000-101-2014-00306","name":"정동진 해물탕 해물찜 서면본점","address":"부산광역시 부산진구 서면문화로 37 (부전동, 정동진해물탕2~3층)","jibunAddress":"부산광역시 부산진구 부전동 406-14 외1필지, 지상2~3층","phone":"051 8098208","foodType":"한식","mainFood":"해물탕,해물찜","designatedDate":"20141117","lat":35.160459115,"lng":129.055377409,"region":"부산광역시","source":"model"},{"id":"3300000-101-1985-01738","name":"대궐집","address":"부산광역시 동래구 동래로136번길 26 (복천동)","jibunAddress":"부산광역시 동래구 복천동 319-3","phone":"051 552 0127","foodType":"한식","mainFood":"소갈비","designatedDate":"20020530","lat":35.205092998,"lng":129.08465273,"region":"부산광역시","source":"model"},{"id":"3300000-101-1991-05294","name":"구기영 조방낙지","address":"부산광역시 동래구 명장로20번길 60, 1,2층 (명장동)","jibunAddress":"부산광역시 동래구 명장동 63-4","phone":"051 5287055","foodType":"한식","mainFood":"낙지전골,낙지볶음","designatedDate":"20030531","lat":35.203451765,"lng":129.1012721,"region":"부산광역시","source":"model"},{"id":"3300000-101-1997-02461","name":"미조리식당","address":"부산광역시 동래구 충렬대로256번길 6 (수안동)","jibunAddress":"부산광역시 동래구 수안동 268-10","phone":"051 5561771","foodType":"일식","mainFood":"생선회","designatedDate":"20020530","lat":35.200844106,"lng":129.086861026,"region":"부산광역시","source":"model"},{"id":"3300000-101-1998-04949","name":"오륙도낙지","address":"부산광역시 동래구 사직북로5번길 30 (사직동)","jibunAddress":"부산광역시 동래구 사직동 90-39","phone":"051 5061854","foodType":"","mainFood":"낙지볶음","designatedDate":"20070613","lat":35.196213009,"lng":129.059186021,"region":"부산광역시","source":"model"},{"id":"3300000-101-1999-02504","name":"수목원","address":"부산광역시 동래구 금정마을로 81 (온천동)","jibunAddress":"부산광역시 동래구 온천동 1119-41","phone":"051 5583399","foodType":"식육취급","mainFood":"오리","designatedDate":"20121106","lat":35.21269897,"lng":129.064162102,"region":"부산광역시","source":"model"},{"id":"3300000-101-1999-03988","name":"금수복국 온천점","address":"부산광역시 동래구 온천장로107번길 18 (온천동)","jibunAddress":"부산광역시 동래구 온천동 137-12","phone":"051 5559912","foodType":"","mainFood":"복국","designatedDate":"20070613","lat":35.220561492,"lng":129.083357933,"region":"부산광역시","source":"model"},{"id":"3300000-101-2001-06280","name":"영남식육식당 안락점","address":"부산광역시 동래구 충렬대로 406 (안락동)","jibunAddress":"부산광역시 동래구 안락동 606-21","phone":"051528 7222","foodType":"한식","mainFood":"한우숯불구이","designatedDate":"20161031","lat":35.196286614,"lng":129.102636246,"region":"부산광역시","source":"model"},{"id":"3300000-101-2002-00404","name":"주식회사세연정","address":"부산광역시 동래구 충렬대로 149 (온천동)","jibunAddress":"부산광역시 동래구 온천동 1438-5","phone":"051506 6666","foodType":"","mainFood":"생갈비, 양념갈비","designatedDate":"20030531","lat":35.205166372,"lng":129.076934852,"region":"부산광역시","source":"model"},{"id":"3300000-101-2003-00307","name":"맛나감자탕사직점","address":"부산광역시 동래구 사직북로13번길 26 (사직동)","jibunAddress":"부산광역시 동래구 사직동 78-17","phone":"051 5033630","foodType":"한식","mainFood":"감자탕","designatedDate":"20131101","lat":35.196899567,"lng":129.059192434,"region":"부산광역시","source":"model"},{"id":"3300000-101-2003-00404","name":"금문","address":"부산광역시 동래구 온천장로119번길 57 (온천동)","jibunAddress":"부산광역시 동래구 온천동 144-30","phone":"051 5554987","foodType":"중식","mainFood":"중식","designatedDate":"20121106","lat":35.22186822,"lng":129.081783533,"region":"부산광역시","source":"model"},{"id":"3300000-101-2004-00066","name":"정림","address":"부산광역시 동래구 충렬대로237번길 31-3 (수안동)","jibunAddress":"부산광역시 동래구 수안동 460-3","phone":"051 554 1994","foodType":"한식","mainFood":"약선요리","designatedDate":"20121106","lat":35.202993884,"lng":129.085151047,"region":"부산광역시","source":"model"},{"id":"3300000-101-2004-00072","name":"큰집 돼지국밥보쌈","address":"부산광역시 동래구 안연로 58-1 (안락동)","jibunAddress":"부산광역시 동래구 안락동 633-9","phone":"051 5250555","foodType":"","mainFood":"돼지국밥","designatedDate":"20070613","lat":35.192715345,"lng":129.099301211,"region":"부산광역시","source":"model"},{"id":"3300000-101-2005-00024","name":"봉식당","address":"부산광역시 동래구 온천장로119번길 26 (온천동)","jibunAddress":"부산광역시 동래구 온천동 150-15","phone":"051 556 9911","foodType":"","mainFood":"보쌈,회","designatedDate":"20100610","lat":35.221751394,"lng":129.083558319,"region":"부산광역시","source":"model"},{"id":"3300000-101-2005-00065","name":"대하찹쌀아구찜","address":"부산광역시 동래구 사직북로28번길 145 (온천동)","jibunAddress":"부산광역시 동래구 온천동 1256-17","phone":"","foodType":"","mainFood":"아구찜","designatedDate":"20070613","lat":35.203222906,"lng":129.065305643,"region":"부산광역시","source":"model"},{"id":"3300000-101-2005-00080","name":"금수복국 동래점","address":"부산광역시 동래구 충렬대로 210 (수안동)","jibunAddress":"부산광역시 동래구 수안동 1-5","phone":"051 5537700","foodType":"","mainFood":"복국","designatedDate":"20070613","lat":35.202105728,"lng":129.08212226,"region":"부산광역시","source":"model"},{"id":"3300000-101-2007-00161","name":"논두렁추어탕","address":"부산광역시 동래구 명륜로139번길 42-5 (명륜동)","jibunAddress":"부산광역시 동래구 명륜동 551-13","phone":"051 5535769","foodType":"한식","mainFood":"추어탕","designatedDate":"20121106","lat":35.206490822,"lng":129.079658382,"region":"부산광역시","source":"model"},{"id":"3300000-101-2010-00107","name":"마루한","address":"부산광역시 동래구 중앙대로1367번길 48-5 (온천동)","jibunAddress":"부산광역시 동래구 온천동 751-12","phone":"051 5533070","foodType":"분식","mainFood":"만두국","designatedDate":"20121106","lat":35.210261665,"lng":129.075384918,"region":"부산광역시","source":"model"},{"id":"3310000-101-1990-00731","name":"골목집","address":"부산광역시 남구 용호로 203-4 (용호동)","jibunAddress":"부산광역시 남구 용호동 532-47","phone":"051 6234592","foodType":"한식","mainFood":"돼지갈비","designatedDate":"20040715","lat":35.113990479,"lng":129.111314511,"region":"부산광역시","source":"model"},{"id":"3310000-101-1991-00127","name":"초원복국","address":"부산광역시 남구 황령대로492번길 30 (대연동)","jibunAddress":"부산광역시 남구 대연동 18-8","phone":"051 6283935","foodType":"한식","mainFood":"복국","designatedDate":"20030719","lat":35.137767005,"lng":129.105900608,"region":"부산광역시","source":"model"},{"id":"3310000-101-1994-01171","name":"청호집","address":"부산광역시 남구 신선로 431 (용당동)","jibunAddress":"부산광역시 남구 용당동 554-2","phone":"051 627 6513","foodType":"한식","mainFood":"선지국","designatedDate":"20080717","lat":35.123763193,"lng":129.099157722,"region":"부산광역시","source":"model"},{"id":"3310000-101-2014-00065","name":"더맛","address":"부산광역시 남구 조각공원로 45, 2층 (대연동)","jibunAddress":"부산광역시 남구 대연동 561-8 2층","phone":"051 621 0022","foodType":"한식","mainFood":"꼬리곰탕, 막국수","designatedDate":"20141031","lat":35.131106662,"lng":129.100951151,"region":"부산광역시","source":"model"},{"id":"3310000-101-2014-00130","name":"다이닝센 부산본점","address":"부산광역시 남구 용호로 88, 3,4층 (용호동)","jibunAddress":"부산광역시 남구 용호동 135-9","phone":"051 621 8833","foodType":"양식","mainFood":"파스타","designatedDate":"20161108","lat":35.124397628,"lng":129.112281399,"region":"부산광역시","source":"model"},{"id":"3310000-101-2015-00046","name":"쌍둥이돼지국밥 본점","address":"부산광역시 남구 유엔평화로 35-1 (대연동)","jibunAddress":"부산광역시 남구 대연동 889-5","phone":"051 628 7021","foodType":"한식","mainFood":"돼지국밥","designatedDate":"20161108","lat":35.131770536,"lng":129.09230644,"region":"부산광역시","source":"model"},{"id":"3330000-101-1985-01390","name":"선창횟집","address":"부산광역시 해운대구 달맞이길62번길 67 (중동)","jibunAddress":"부산광역시 해운대구 중동 996-6","phone":"051 7477470","foodType":"","mainFood":"생선회","designatedDate":"20100524","lat":35.156885378,"lng":129.173805438,"region":"부산광역시","source":"model"},{"id":"3330000-101-1991-00111","name":"금수복국 본점","address":"부산광역시 해운대구 중동1로43번길 23 (중동, 1~2층)","jibunAddress":"부산광역시 해운대구 중동 1394-65 1~2층","phone":"051 7423600","foodType":"","mainFood":"복국","designatedDate":"20080701","lat":35.16241755,"lng":129.164490538,"region":"부산광역시","source":"model"},{"id":"3330000-101-1992-02236","name":"(주)오발탄에프에스 오발탄 해운대점","address":"부산광역시 해운대구 해운대로570번길 10 (우동, 지상1,2층일부)","jibunAddress":"부산광역시 해운대구 우동 646-1","phone":"051 7466080","foodType":"","mainFood":"양곱창","designatedDate":"20070702","lat":35.160354566,"lng":129.155132772,"region":"부산광역시","source":"model"},{"id":"3330000-101-1994-02479","name":"3 3 숯불갈비","address":"부산광역시 해운대구 윗반송로51번길 55 (반송동, 1층)","jibunAddress":"부산광역시 해운대구 반송동 40-1034 (1층)","phone":"051 5325647","foodType":"한식","mainFood":"돼지갈비","designatedDate":"20121106","lat":35.230446136,"lng":129.155555462,"region":"부산광역시","source":"model"},{"id":"3330000-101-1996-00134","name":"해운대소문난삼계탕","address":"부산광역시 해운대구 중동2로 6 (중동, 외1필지 1층)","jibunAddress":"부산광역시 해운대구 중동 1394-39 ,40 1층","phone":"051 741 4545","foodType":"","mainFood":"","designatedDate":"20141230","lat":35.162644025,"lng":129.164966483,"region":"부산광역시","source":"model"},{"id":"3330000-101-1996-02260","name":"수비가든","address":"부산광역시 해운대구 해운대로469번길 142 (우동)","jibunAddress":"부산광역시 해운대구 우동 1072-38","phone":"051 7468998","foodType":"","mainFood":"오리구이","designatedDate":"20020702","lat":35.168692786,"lng":129.141360244,"region":"부산광역시","source":"model"},{"id":"3330000-101-1996-03404","name":"거북선횟집","address":"부산광역시 해운대구 달맞이길62번길 69 (중동)","jibunAddress":"부산광역시 해운대구 중동 996-7","phone":"051 7418851","foodType":"","mainFood":"생선회","designatedDate":"20010530","lat":35.156823481,"lng":129.173979875,"region":"부산광역시","source":"model"},{"id":"3330000-101-1997-00150","name":"해운대이름난암소갈비","address":"부산광역시 해운대구 달맞이길 22 (중동, 외2필지 지상3층)","jibunAddress":"부산광역시 해운대구 중동 1139-4 1147-4,5 지상3층","phone":"051 7440054","foodType":"육류취급","mainFood":"소갈비","designatedDate":"20110907","lat":35.161592461,"lng":129.166946153,"region":"부산광역시","source":"model"},{"id":"3330000-101-1997-02840","name":"원조지구촌암소숯불생","address":"부산광역시 해운대구 청사포로 103 (중동, 외3필지(1층,2층))","jibunAddress":"부산광역시 해운대구 중동 503-1 외3필지(1층,2층)","phone":"051 7046885","foodType":"","mainFood":"갈비류","designatedDate":"20010530","lat":35.162660065,"lng":129.191100645,"region":"부산광역시","source":"model"},{"id":"3330000-101-1997-03974","name":"신토불이보쌈","address":"부산광역시 해운대구 구남로29번길 35 (중동, 2층)","jibunAddress":"부산광역시 해운대구 중동 1380-4 (2층)","phone":"051 7311441","foodType":"","mainFood":"보쌈","designatedDate":"20020320","lat":35.162800751,"lng":129.16214732,"region":"부산광역시","source":"model"},{"id":"3330000-101-1998-00247","name":"가야밀면","address":"부산광역시 해운대구 재반로 142 (재송동, 1층)","jibunAddress":"부산광역시 해운대구 재송동 1144-5 (1층)","phone":"051 7840052","foodType":"분식","mainFood":"밀면","designatedDate":"20090630","lat":35.190588495,"lng":129.127740937,"region":"부산광역시","source":"model"},{"id":"3330000-101-2000-00788","name":"맛나감자탕","address":"부산광역시 해운대구 좌동로91번길 17 (좌동, 지상2층 )","jibunAddress":"부산광역시 해운대구 좌동 985-4","phone":"051 7037471","foodType":"","mainFood":"감자탕","designatedDate":"20080701","lat":35.172773723,"lng":129.174360144,"region":"부산광역시","source":"model"},{"id":"3330000-101-2000-03220","name":"초원복국","address":"부산광역시 해운대구 해운대해변로 329-2 (중동, 2,3층)","jibunAddress":"부산광역시 해운대구 중동 1225-5 2,3층","phone":"051 7435291","foodType":"","mainFood":"복요리","designatedDate":"20090630","lat":35.162899303,"lng":129.165939063,"region":"부산광역시","source":"model"},{"id":"3330000-101-2001-00766","name":"남해돼지국밥","address":"부산광역시 해운대구 선수촌로 184 (반여동, 지상1층)","jibunAddress":"부산광역시 해운대구 반여동 870-1","phone":"051 5230468","foodType":"","mainFood":"돼지국밥","designatedDate":"20020320","lat":35.208974446,"lng":129.124156439,"region":"부산광역시","source":"model"},{"id":"3330000-101-2001-02075","name":"예이제","address":"부산광역시 해운대구 해운대해변로298번길 29 (중동, 해운대푸르지오씨디 210~216호)","jibunAddress":"부산광역시 해운대구 중동 1123 해운대푸르지오씨디 210~216호","phone":"051 7311100","foodType":"","mainFood":"한정식","designatedDate":"20020320","lat":35.161258051,"lng":129.166662119,"region":"부산광역시","source":"model"},{"id":"3330000-101-2001-03793","name":"솔내음한정식","address":"부산광역시 해운대구 달맞이길117번길 17-11 (중동, 지상3층)","jibunAddress":"부산광역시 해운대구 중동 1509-5 지상3층","phone":"051 7468818","foodType":"","mainFood":"돌솥밥","designatedDate":"20070702","lat":35.158587251,"lng":129.174989819,"region":"부산광역시","source":"model"},{"id":"3330000-101-2002-04528","name":"덴포라","address":"부산광역시 해운대구 좌동로10번길 21 (중동, 지상2층)","jibunAddress":"부산광역시 해운대구 중동 1318-5 지상2층","phone":"051 7420633","foodType":"","mainFood":"바다가재","designatedDate":"20030620","lat":35.167361469,"lng":129.170110139,"region":"부산광역시","source":"model"},{"id":"3330000-101-2002-04662","name":"동백섬 횟집","address":"부산광역시 해운대구 해운대해변로209번나길 17 (우동, 지상1,2,3층)","jibunAddress":"부산광역시 해운대구 우동 655-7","phone":"051 7413888","foodType":"","mainFood":"생선회","designatedDate":"20030620","lat":35.160393052,"lng":129.154661567,"region":"부산광역시","source":"model"},{"id":"3330000-101-2005-00194","name":"배비장보쌈","address":"부산광역시 해운대구 해운대로483번길 1-1 (우동, 외1필지 지상2층)","jibunAddress":"부산광역시 해운대구 우동 959-1","phone":"051 7427755","foodType":"","mainFood":"보쌈","designatedDate":"20080701","lat":35.16330282,"lng":129.145566621,"region":"부산광역시","source":"model"},{"id":"3330000-101-2005-00310","name":"언양봉계숯불갈비","address":"부산광역시 해운대구 재반로 186 (반여동, 지상2층 일부)","jibunAddress":"부산광역시 해운대구 반여동 1291-1021","phone":"051 7523662","foodType":"","mainFood":"생갈비","designatedDate":"20070702","lat":35.19389094,"lng":129.130609017,"region":"부산광역시","source":"model"},{"id":"3330000-101-2007-00240","name":"외식일번가","address":"부산광역시 해운대구 해운대로 425 (우동, 지상1,2층)","jibunAddress":"부산광역시 해운대구 우동 1060-1","phone":"051 743 3338","foodType":"","mainFood":"갈비살","designatedDate":"20090630","lat":35.166286218,"lng":129.141624759,"region":"부산광역시","source":"model"},{"id":"3330000-101-2007-00391","name":"해운마루","address":"부산광역시 해운대구 달맞이길62번길 65 (중동, 지상1층)","jibunAddress":"부산광역시 해운대구 중동 996-1 지상1층","phone":"051 7432772","foodType":"","mainFood":"생선회","designatedDate":"20080701","lat":35.15700743,"lng":129.173616307,"region":"부산광역시","source":"model"},{"id":"3330000-101-2008-00369","name":"서울깍두기","address":"부산광역시 해운대구 세실로69번길 19 (좌동, 블루스퀘어B동101호)","jibunAddress":"부산광역시 해운대구 좌동 1461-8","phone":"051 703 0085","foodType":"","mainFood":"설렁탕","designatedDate":"20100524","lat":35.172081856,"lng":129.175748363,"region":"부산광역시","source":"model"},{"id":"3330000-101-2008-00421","name":"수백한상","address":"부산광역시 해운대구 구남로8번길 86, 수백한상 1~2층 (우동)","jibunAddress":"부산광역시 해운대구 우동 641-18 수백한상","phone":"051 746 5953","foodType":"","mainFood":"돼지국밥","designatedDate":"20091126","lat":35.16099411,"lng":129.155124763,"region":"부산광역시","source":"model"},{"id":"3330000-101-2009-00337","name":"할매복국","address":"부산광역시 해운대구 달맞이길62번길 1 (중동, 2,3층)","jibunAddress":"부산광역시 해운대구 중동 940-14 2,3층","phone":"051 742 2789","foodType":"","mainFood":"복국","designatedDate":"20100524","lat":35.160910331,"lng":129.171504339,"region":"부산광역시","source":"model"},{"id":"3330000-101-2010-00357","name":"수림횟집","address":"부산광역시 해운대구 해운대해변로221번길 15 (우동, A동 지상1층 )","jibunAddress":"부산광역시 해운대구 우동 647-1","phone":"051 744 5570","foodType":"한식","mainFood":"생선회","designatedDate":"20110907","lat":35.159916316,"lng":129.1560081,"region":"부산광역시","source":"model"},{"id":"3330000-101-2011-00179","name":"동백삼계탕","address":"부산광역시 해운대구 마린시티3로 23 (우동, 벽산e오렌지상가 320호 - 325호 )","jibunAddress":"부산광역시 해운대구 우동 1435","phone":"051 900 9933","foodType":"한식","mainFood":"삼계탕","designatedDate":"20120911","lat":35.15662688,"lng":129.146921799,"region":"부산광역시","source":"model"},{"id":"3340000-101-1994-03383","name":"고흥녹동세발낙지","address":"부산광역시 사하구 원양로 376 (감천동)","jibunAddress":"부산광역시 사하구 감천동 135-1","phone":"051 2021985","foodType":"한식","mainFood":"낙지전골","designatedDate":"19950811","lat":35.08430351,"lng":129.006539304,"region":"부산광역시","source":"model"},{"id":"3340000-101-2007-00045","name":"신송집","address":"부산광역시 사하구 낙동대로 384 (당리동)","jibunAddress":"부산광역시 사하구 당리동 321-5","phone":"051 2064228","foodType":"일식","mainFood":"생선회","designatedDate":"20081125","lat":35.102930676,"lng":128.976433728,"region":"부산광역시","source":"model"},{"id":"3340000-101-2007-00104","name":"봉수대 숯불갈비","address":"부산광역시 사하구 다대동로 72-2 (다대동)","jibunAddress":"부산광역시 사하구 다대동 341-1","phone":"051 208 0637","foodType":"한식","mainFood":"바베큐","designatedDate":"20080702","lat":35.05775832,"lng":128.975522626,"region":"부산광역시","source":"model"},{"id":"3340000-101-2012-00111","name":"화화 돼지 왕갈비","address":"부산광역시 사하구 장림번영로 71 (장림동, 9호동)","jibunAddress":"부산광역시 사하구 장림동 316-20","phone":"055 2634992","foodType":"한식","mainFood":"삼겹살","designatedDate":"20131031","lat":35.081124268,"lng":128.973258678,"region":"부산광역시","source":"model"},{"id":"3340000-101-2016-00042","name":"해강횟집","address":"부산광역시 사하구 사리로 21 (괴정동)","jibunAddress":"부산광역시 사하구 괴정동 296-4","phone":"051 208 0012","foodType":"한식","mainFood":"생선회","designatedDate":"20171107","lat":35.101917007,"lng":128.999076879,"region":"부산광역시","source":"model"},{"id":"3340000-101-2016-00097","name":"주왕산삼계탕","address":"부산광역시 사하구 장림로 188 (장림동)","jibunAddress":"부산광역시 사하구 장림동 673-7","phone":"051 263 6211","foodType":"한식","mainFood":"삼계탕","designatedDate":"20171107","lat":35.082300496,"lng":128.969487167,"region":"부산광역시","source":"model"},{"id":"3350000-101-1974-00674","name":"산성집","address":"부산광역시 금정구 산성로 524 (금성동)","jibunAddress":"부산광역시 금정구 금성동 864","phone":"051 5177900","foodType":"","mainFood":"염소불고기","designatedDate":"20020705","lat":35.244174072,"lng":129.055547231,"region":"부산광역시","source":"model"},{"id":"3350000-101-1983-00785","name":"풍년오리박사","address":"부산광역시 금정구 청룡로 40 (청룡동)","jibunAddress":"부산광역시 금정구 청룡동 45-3","phone":"051 508 4642","foodType":"","mainFood":"오리고기","designatedDate":"20010705","lat":35.275712745,"lng":129.088262135,"region":"부산광역시","source":"model"},{"id":"3350000-101-1983-01298","name":"송해반점","address":"부산광역시 금정구 중앙대로 2089-5, 1,2층 101-1,101-2호 (남산동)","jibunAddress":"부산광역시 금정구 남산동 48-2","phone":"051 5174543","foodType":"","mainFood":"중화요리","designatedDate":"20090625","lat":35.270715327,"lng":129.092147116,"region":"부산광역시","source":"model"},{"id":"3350000-101-1985-00801","name":"성용장","address":"부산광역시 금정구 놀이마당로 25 (청룡동)","jibunAddress":"부산광역시 금정구 청룡동 631-6","phone":"051 5085353","foodType":"","mainFood":"오리고기","designatedDate":"20060705","lat":35.276655946,"lng":129.085441116,"region":"부산광역시","source":"model"},{"id":"3350000-101-1987-02452","name":"소문난 통 찌게마을","address":"부산광역시 금정구 서동로176번길 9 (서동)","jibunAddress":"부산광역시 금정구 서동 210-20","phone":"","foodType":"","mainFood":"","designatedDate":"20100610","lat":35.214105061,"lng":129.105499535,"region":"부산광역시","source":"model"},{"id":"3350000-101-1988-02163","name":"본중식","address":"부산광역시 금정구 금샘로 359 (구서동)","jibunAddress":"부산광역시 금정구 구서동 1032-4","phone":"051 512 5005","foodType":"","mainFood":"","designatedDate":"20100610","lat":35.255179203,"lng":129.084464901,"region":"부산광역시","source":"model"},{"id":"3350000-101-1990-02575","name":"골목집","address":"부산광역시 금정구 서동로176번길 13-11 (서동)","jibunAddress":"부산광역시 금정구 서동 210-14","phone":"051 5246177","foodType":"","mainFood":"복요리","designatedDate":"20020705","lat":35.213645811,"lng":129.105892033,"region":"부산광역시","source":"model"},{"id":"3350000-101-1991-01354","name":"옥미아구찜 남산점","address":"부산광역시 금정구 금강로611번길 36 (남산동)","jibunAddress":"부산광역시 금정구 남산동 993-42","phone":"051 519 1122","foodType":"","mainFood":"아구찜","designatedDate":"20060705","lat":35.263623389,"lng":129.086524076,"region":"부산광역시","source":"model"},{"id":"3350000-101-1991-01864","name":"배비장보쌈","address":"부산광역시 금정구 금정로 239, 1,2,3층 (구서동)","jibunAddress":"부산광역시 금정구 구서동 84-15","phone":"051 5152106","foodType":"","mainFood":"보쌈","designatedDate":"20010702","lat":35.245142967,"lng":129.091414727,"region":"부산광역시","source":"model"},{"id":"3350000-101-1992-00711","name":"본토박이","address":"부산광역시 금정구 산성로 438 (금성동)","jibunAddress":"부산광역시 금정구 금성동 220-3","phone":"051 515 5038","foodType":"","mainFood":"염소불고시","designatedDate":"20060705","lat":35.250927604,"lng":129.054947321,"region":"부산광역시","source":"model"},{"id":"3350000-101-1992-01873","name":"행복한오리구서","address":"부산광역시 금정구 중앙대로1793번길 38 (구서동)","jibunAddress":"부산광역시 금정구 구서동 420-20","phone":"051 583 4406","foodType":"","mainFood":"생선회","designatedDate":"20070702","lat":35.243379641,"lng":129.091500406,"region":"부산광역시","source":"model"},{"id":"3350000-101-1992-01889","name":"우정갈비","address":"부산광역시 금정구 금샘로 353 (구서동)","jibunAddress":"부산광역시 금정구 구서동 1032-8","phone":"051 5132100","foodType":"","mainFood":"생갈비","designatedDate":"20010705","lat":35.254756785,"lng":129.084532232,"region":"부산광역시","source":"model"},{"id":"3350000-101-1993-01429","name":"부산압구정한우갈비","address":"부산광역시 금정구 청룡로 61 (남산동)","jibunAddress":"부산광역시 금정구 남산동 953-11","phone":"051 5120025","foodType":"","mainFood":"생갈비","designatedDate":"20010705","lat":35.275030495,"lng":129.085668443,"region":"부산광역시","source":"model"},{"id":"3350000-101-1993-01911","name":"금정어(魚)가","address":"부산광역시 금정구 두실로 17 (구서동)","jibunAddress":"부산광역시 금정구 구서동 159-45","phone":"051 5148216","foodType":"","mainFood":"장어구이","designatedDate":"20010702","lat":35.260472616,"lng":129.089355421,"region":"부산광역시","source":"model"},{"id":"3350000-101-1993-01923","name":"별미청 돼지국밥","address":"부산광역시 금정구 금정로 249 (구서동)","jibunAddress":"부산광역시 금정구 구서동 84-4","phone":"051 583 1688","foodType":"","mainFood":"해물탕","designatedDate":"20060705","lat":35.246016058,"lng":129.09213812,"region":"부산광역시","source":"model"},{"id":"3350000-101-1993-01953","name":"종하뷔페식당","address":"부산광역시 금정구 식물원로44번길 12 (장전동)","jibunAddress":"부산광역시 금정구 장전동 621-18","phone":"051 515 5789","foodType":"한식","mainFood":"쌈밥","designatedDate":"20100610","lat":35.225608233,"lng":129.083658308,"region":"부산광역시","source":"model"},{"id":"3350000-101-1994-01981","name":"오복미역","address":"부산광역시 금정구 금정로 251 (구서동)","jibunAddress":"부산광역시 금정구 구서동 84-17","phone":"051 582 5926","foodType":"","mainFood":"회초밥","designatedDate":"20010702","lat":35.245991156,"lng":129.092272555,"region":"부산광역시","source":"model"},{"id":"3350000-101-1994-01982","name":"돈모리","address":"부산광역시 금정구 금강로 593 (구서동)","jibunAddress":"부산광역시 금정구 구서동 637-2","phone":"051 583 9289","foodType":"","mainFood":"","designatedDate":"20111027","lat":35.260443913,"lng":129.0874281,"region":"부산광역시","source":"model"},{"id":"3350000-101-1994-02194","name":"카페드팽(Cafe' De Pain)","address":"부산광역시 금정구 금강로 247-7, 1층 (장전동)","jibunAddress":"부산광역시 금정구 장전동 424-3","phone":"","foodType":"","mainFood":"비빔밥","designatedDate":"20010705","lat":35.2302497,"lng":129.084249043,"region":"부산광역시","source":"model"},{"id":"3350000-101-1994-02222","name":"참나무숯불구이","address":"부산광역시 금정구 금정로 25 (장전동)","jibunAddress":"부산광역시 금정구 장전동 342-13","phone":"051 5825392","foodType":"","mainFood":"생갈비","designatedDate":"20010705","lat":35.22705129,"lng":129.085661843,"region":"부산광역시","source":"model"},{"id":"3350000-101-1995-00717","name":"금정산성 창녕집","address":"부산광역시 금정구 산성로 520 (금성동)","jibunAddress":"부산광역시 금정구 금성동 876","phone":"051 517 5288","foodType":"한식","mainFood":"오리고기","designatedDate":"20161124","lat":35.244536327,"lng":129.055307774,"region":"부산광역시","source":"model"},{"id":"3350000-101-1995-00721","name":"현대가든","address":"부산광역시 금정구 산성로 510 (금성동)","jibunAddress":"부산광역시 금정구 금성동 713-2","phone":"051 5176767","foodType":"","mainFood":"염소불고기","designatedDate":"20020705","lat":35.245413463,"lng":129.055379822,"region":"부산광역시","source":"model"},{"id":"3350000-101-1996-00726","name":"청사초롱","address":"부산광역시 금정구 산성로 447 (금성동)","jibunAddress":"부산광역시 금정구 금성동 554-15","phone":"051 517 8849","foodType":"","mainFood":"염소불고기","designatedDate":"20020705","lat":35.250693825,"lng":129.056101976,"region":"부산광역시","source":"model"},{"id":"3350000-101-1996-00914","name":"미방","address":"부산광역시 금정구 하마1길 57 (청룡동)","jibunAddress":"부산광역시 금정구 청룡동 435-1","phone":"051 508 3222","foodType":"","mainFood":"오리고기","designatedDate":"20090625","lat":35.281480307,"lng":129.074347317,"region":"부산광역시","source":"model"},{"id":"3350000-101-1996-01581","name":"고기집","address":"부산광역시 금정구 범어천로 66 (남산동)","jibunAddress":"부산광역시 금정구 남산동 18-1","phone":"051 5824688","foodType":"","mainFood":"생갈비","designatedDate":"20060705","lat":35.272009076,"lng":129.08941955,"region":"부산광역시","source":"model"},{"id":"3350000-101-1996-01626","name":"선비촌숯불한우","address":"부산광역시 금정구 남산로 39 (남산동)","jibunAddress":"부산광역시 금정구 남산동 987-3","phone":"051 5157889","foodType":"","mainFood":"소갈비","designatedDate":"20070702","lat":35.266816931,"lng":129.087892744,"region":"부산광역시","source":"model"},{"id":"3350000-101-1996-02135","name":"경희궁","address":"부산광역시 금정구 금샘로 441 (구서동)","jibunAddress":"부산광역시 금정구 구서동 1005-8","phone":"051 5179292","foodType":"한식","mainFood":"샤브샤브","designatedDate":"20121029","lat":35.26239728,"lng":129.084141488,"region":"부산광역시","source":"model"},{"id":"3350000-101-1997-01194","name":"서울녹각삼계탕","address":"부산광역시 금정구 반송로 412 (금사동)","jibunAddress":"부산광역시 금정구 금사동 145-3","phone":"051 5279191","foodType":"","mainFood":"삼계탕","designatedDate":"20050722","lat":35.213984133,"lng":129.109133568,"region":"부산광역시","source":"model"},{"id":"3350000-101-1997-02204","name":"명수정","address":"부산광역시 금정구 구서로 23, 4층 (구서동)","jibunAddress":"부산광역시 금정구 구서동 413-3","phone":"051 5174114","foodType":"","mainFood":"생갈비","designatedDate":"20010702","lat":35.246607308,"lng":129.088523022,"region":"부산광역시","source":"model"},{"id":"3350000-101-1997-02227","name":"다루","address":"부산광역시 금정구 금샘로 375 (구서동)","jibunAddress":"부산광역시 금정구 구서동 1026-9","phone":"051 513 3395","foodType":"","mainFood":"","designatedDate":"20100610","lat":35.256623738,"lng":129.084277767,"region":"부산광역시","source":"model"},{"id":"3350000-101-1997-02274","name":"보배쭈꾸미 구서점","address":"부산광역시 금정구 금정로233번길 41 (구서동)","jibunAddress":"부산광역시 금정구 구서동 415-2","phone":"","foodType":"한식","mainFood":"고기뷔페","designatedDate":"20121029","lat":35.246475832,"lng":129.090800781,"region":"부산광역시","source":"model"},{"id":"3350000-101-1997-02950","name":"장인해장국","address":"부산광역시 금정구 부산대학로64번길 12-4 (장전동)","jibunAddress":"부산광역시 금정구 장전동 401-25","phone":"051 5181320","foodType":"","mainFood":"보쌈","designatedDate":"20060705","lat":35.231958226,"lng":129.084599724,"region":"부산광역시","source":"model"},{"id":"3350000-101-1998-01269","name":"마루돼지국밥","address":"부산광역시 금정구 개좌로 59-12 (금사동)","jibunAddress":"부산광역시 금정구 금사동 67-15","phone":"051 5297224","foodType":"","mainFood":"생선회","designatedDate":"20010702","lat":35.219071914,"lng":129.110880789,"region":"부산광역시","source":"model"},{"id":"3350000-101-1998-01733","name":"김가네국수","address":"부산광역시 금정구 금강로 686 (남산동)","jibunAddress":"부산광역시 금정구 남산동 96-14","phone":"051 513 8228","foodType":"","mainFood":"국수","designatedDate":"20090625","lat":35.268603075,"lng":129.089274901,"region":"부산광역시","source":"model"},{"id":"3350000-101-1998-03149","name":"대성관","address":"부산광역시 금정구 금강로 179 (장전동)","jibunAddress":"부산광역시 금정구 장전동 598-8","phone":"051 5184001","foodType":"","mainFood":"생선회","designatedDate":"20010705","lat":35.224750165,"lng":129.081813019,"region":"부산광역시","source":"model"},{"id":"3350000-101-1998-03712","name":"일송면옥","address":"부산광역시 금정구 부곡로141번길 6, 1,2층 (부곡동)","jibunAddress":"부산광역시 금정구 부곡동 273-25","phone":"051 5143381","foodType":"","mainFood":"밀면,갈비","designatedDate":"20060705","lat":35.228717109,"lng":129.091817513,"region":"부산광역시","source":"model"},{"id":"3350000-101-1999-03265","name":"서울식당","address":"부산광역시 금정구 서부로16번길 10 (서동)","jibunAddress":"부산광역시 금정구 서동 196-25","phone":"051 5279433","foodType":"","mainFood":"갈비","designatedDate":"20010705","lat":35.21589884,"lng":129.104366051,"region":"부산광역시","source":"model"},{"id":"3350000-101-1999-03826","name":"오륙도낙지","address":"부산광역시 금정구 수림로20번길 49 (부곡동)","jibunAddress":"부산광역시 금정구 부곡동 65-6","phone":"051 5150016","foodType":"","mainFood":"낙지볶음","designatedDate":"20070702","lat":35.241781009,"lng":129.090204368,"region":"부산광역시","source":"model"},{"id":"3350000-101-1999-04010","name":"천미식당","address":"부산광역시 금정구 식물원로44번길 8-4 (장전동)","jibunAddress":"부산광역시 금정구 장전동 621-10","phone":"051 5827991","foodType":"","mainFood":"회정식","designatedDate":"20020705","lat":35.225489048,"lng":129.083819544,"region":"부산광역시","source":"model"},{"id":"3350000-101-2000-04154","name":"서울깍두기","address":"부산광역시 금정구 장전온천천로 75 (장전동)","jibunAddress":"부산광역시 금정구 장전동 412-11","phone":"051 582 9005","foodType":"한식","mainFood":"설렁탕","designatedDate":"20131021","lat":35.231672403,"lng":129.088671066,"region":"부산광역시","source":"model"},{"id":"3350000-101-2000-04244","name":"BHC치킨 금정부곡점","address":"부산광역시 금정구 중앙대로1685번길 26 (부곡동)","jibunAddress":"부산광역시 금정구 부곡동 225-69","phone":"051 5189292","foodType":"","mainFood":"생선회","designatedDate":"20060705","lat":35.235113192,"lng":129.090251793,"region":"부산광역시","source":"model"},{"id":"3350000-101-2001-04954","name":"남산찹쌀아구찜","address":"부산광역시 금정구 금강로 694 (남산동)","jibunAddress":"부산광역시 금정구 남산동 96-1","phone":"051 516 1506","foodType":"","mainFood":"아구찜","designatedDate":"20090625","lat":35.269441192,"lng":129.089417891,"region":"부산광역시","source":"model"},{"id":"3350000-101-2002-00117","name":"한우고기집","address":"부산광역시 금정구 금샘로 341 (구서동)","jibunAddress":"부산광역시 금정구 구서동 1033-3","phone":"051 5833553","foodType":"","mainFood":"스테이크","designatedDate":"20090625","lat":35.253767937,"lng":129.084747732,"region":"부산광역시","source":"model"},{"id":"3350000-101-2002-00301","name":"거창맷돌(본점)","address":"부산광역시 금정구 부곡로 158 (부곡동)","jibunAddress":"부산광역시 금정구 부곡동 265-9","phone":"051 5133537","foodType":"","mainFood":"순두부","designatedDate":"20030705","lat":35.23001323,"lng":129.092524767,"region":"부산광역시","source":"model"},{"id":"3350000-101-2003-00128","name":"무심정","address":"부산광역시 금정구 북문로 23 (금성동)","jibunAddress":"부산광역시 금정구 금성동 528-4","phone":"051 517 3352","foodType":"","mainFood":"오리고기","designatedDate":"20070702","lat":35.251942559,"lng":129.055917245,"region":"부산광역시","source":"model"},{"id":"3350000-101-2003-00265","name":"늘아침","address":"부산광역시 금정구 부산대학로64번길 155 (장전동)","jibunAddress":"부산광역시 금정구 장전동 157-18","phone":"051 5189200","foodType":"","mainFood":"오리고기","designatedDate":"20060705","lat":35.238358886,"lng":129.085985968,"region":"부산광역시","source":"model"},{"id":"3350000-101-2004-00057","name":"서울깍두기","address":"부산광역시 금정구 금단로 203 (남산동)","jibunAddress":"부산광역시 금정구 남산동 251-4","phone":"051 5821411","foodType":"","mainFood":"설렁팅","designatedDate":"20090625","lat":35.266814413,"lng":129.093072171,"region":"부산광역시","source":"model"},{"id":"3350000-101-2004-00080","name":"원조조방낙지","address":"부산광역시 금정구 청룡로 33 (청룡동)","jibunAddress":"부산광역시 금정구 청룡동 50-31","phone":"051 5080666","foodType":"한식","mainFood":"낙지볶음","designatedDate":"20100610","lat":35.275419921,"lng":129.088775102,"region":"부산광역시","source":"model"},{"id":"3350000-101-2005-00008","name":"마루","address":"부산광역시 금정구 중앙대로1719번길 23 (부곡동)","jibunAddress":"부산광역시 금정구 부곡동 225-71","phone":"051 5832491","foodType":"","mainFood":"감자탕","designatedDate":"20060705","lat":35.237645047,"lng":129.09090313,"region":"부산광역시","source":"model"},{"id":"3350000-101-2005-00066","name":"바보낙지 범어사점","address":"부산광역시 금정구 청룡로 59 (남산동)","jibunAddress":"부산광역시 금정구 남산동 954-1","phone":"051 5831411","foodType":"","mainFood":"샤브샤브","designatedDate":"20070702","lat":35.275204818,"lng":129.086147949,"region":"부산광역시","source":"model"},{"id":"3350000-101-2006-00049","name":"황금오리","address":"부산광역시 금정구 금강로446번길 41 (구서동)","jibunAddress":"부산광역시 금정구 구서동 252-18","phone":"051 512 5294","foodType":"한식","mainFood":"오리고기","designatedDate":"20141126","lat":35.248678463,"lng":129.089955415,"region":"부산광역시","source":"model"},{"id":"3350000-101-2006-00134","name":"금정산성 금성","address":"부산광역시 금정구 산성로 443 (금성동)","jibunAddress":"부산광역시 금정구 금성동 225","phone":"051 517 4847","foodType":"","mainFood":"염소불고기","designatedDate":"20070702","lat":35.251279471,"lng":129.055464269,"region":"부산광역시","source":"model"},{"id":"3350000-101-2007-00008","name":"초심한우정","address":"부산광역시 금정구 범어천로 11 (남산동)","jibunAddress":"부산광역시 금정구 남산동 103-18","phone":"051 517 7892","foodType":"","mainFood":"생갈비","designatedDate":"20080707","lat":35.267769897,"lng":129.091357731,"region":"부산광역시","source":"model"},{"id":"3350000-101-2007-00013","name":"백향목","address":"부산광역시 금정구 땅곡길 37 (금성동)","jibunAddress":"부산광역시 금정구 금성동 295","phone":"051 517 9252","foodType":"","mainFood":"","designatedDate":"20100610","lat":35.252353252,"lng":129.052930864,"region":"부산광역시","source":"model"},{"id":"3350000-101-2007-00056","name":"주식회사 이랴이랴 푸드웰","address":"부산광역시 금정구 중앙대로 1975 (남산동)","jibunAddress":"부산광역시 금정구 남산동 129-8","phone":"051 5171003","foodType":"","mainFood":"갈비","designatedDate":"20090625","lat":35.260752484,"lng":129.091019825,"region":"부산광역시","source":"model"},{"id":"3350000-101-2007-00066","name":"달궈진 불판집 온천직영점","address":"부산광역시 금정구 온천장로 133 (장전동)","jibunAddress":"부산광역시 금정구 장전동 652-76","phone":"","foodType":"","mainFood":"삼겹살","designatedDate":"20080707","lat":35.22253505,"lng":129.085096759,"region":"부산광역시","source":"model"},{"id":"3350000-101-2008-00002","name":"장어만(鰻)","address":"부산광역시 금정구 중앙대로 1617-12 (부곡동)","jibunAddress":"부산광역시 금정구 부곡동 268-2 101동 103,104호","phone":"","foodType":"","mainFood":"","designatedDate":"20100610","lat":35.229744973,"lng":129.0905857,"region":"부산광역시","source":"model"},{"id":"3350000-101-2008-00138","name":"푸주옥 설렁탕 도가니탕","address":"부산광역시 금정구 금정로 248 (구서동)","jibunAddress":"부산광역시 금정구 구서동 420-56","phone":"051 518 9520","foodType":"","mainFood":"","designatedDate":"20111027","lat":35.245357925,"lng":129.092508836,"region":"부산광역시","source":"model"},{"id":"3350000-101-2014-00184","name":"하마정원","address":"부산광역시 금정구 범어사로 344 (청룡동)","jibunAddress":"부산광역시 금정구 청룡동 208-1","phone":"051 508 9233","foodType":"한식","mainFood":"생갈비","designatedDate":"20151130","lat":35.279014537,"lng":129.077827117,"region":"부산광역시","source":"model"},{"id":"3350000-101-2018-00058","name":"박기모조방낙지","address":"부산광역시 금정구 부곡로141번길 4, 1층 (부곡동)","jibunAddress":"부산광역시 금정구 부곡동 273-26","phone":"","foodType":"한식","mainFood":"낙지볶음","designatedDate":"20201228","lat":35.228632957,"lng":129.091996333,"region":"부산광역시","source":"model"},{"id":"3360000-101-2016-00036","name":"부산축산농협 축산물종합프라자","address":"부산광역시 강서구 낙동남로 446-1, 1층,2층 (녹산동)","jibunAddress":"부산광역시 강서구 녹산동 1215-17 1층 2층","phone":"051 831 3200","foodType":"한식","mainFood":"불고기","designatedDate":"20161026","lat":35.11133827,"lng":128.868688532,"region":"부산광역시","source":"model"},{"id":"3370000-101-1984-00184","name":"동원숯불갈비","address":"부산광역시 연제구 과정로276번길 9 (연산동)","jibunAddress":"부산광역시 연제구 연산동 366-47","phone":"051 8642379","foodType":"한식","mainFood":"돼지갈비","designatedDate":"20100630","lat":35.188570661,"lng":129.097147546,"region":"부산광역시","source":"model"},{"id":"3370000-101-1991-00218","name":"해암뷔페&웨딩홀","address":"부산광역시 연제구 중앙대로 1099, 해암빌딩 (연산동)","jibunAddress":"부산광역시 연제구 연산동 1242-8 해암빌딩","phone":"051 867 7600","foodType":"뷔페식","mainFood":"뷔페","designatedDate":"20100630","lat":35.185876263,"lng":129.080726329,"region":"부산광역시","source":"model"},{"id":"3370000-101-1993-03351","name":"팔미초밥","address":"부산광역시 연제구 월드컵대로119번길 8, 팔미빌딩 2층 (연산동)","jibunAddress":"부산광역시 연제구 연산동 701-8 팔미빌딩","phone":"051 8650160","foodType":"일식","mainFood":"회초밥","designatedDate":"20100630","lat":35.184956015,"lng":129.08179079,"region":"부산광역시","source":"model"},{"id":"3370000-101-1994-01776","name":"국제밀면","address":"부산광역시 연제구 중앙대로1235번길 23-6 (거제동)","jibunAddress":"부산광역시 연제구 거제동 242-23","phone":"051 5015507","foodType":"분식","mainFood":"밀면","designatedDate":"20100630","lat":35.196877101,"lng":129.077850103,"region":"부산광역시","source":"model"},{"id":"3370000-101-1995-01976","name":"가야할매밀면","address":"부산광역시 연제구 월드컵대로145번길 32 (연산동,1층)","jibunAddress":"부산광역시 연제구 연산동 1279-1 1층","phone":"051 8658017","foodType":"분식","mainFood":"밀면","designatedDate":"20100630","lat":35.185176165,"lng":129.079867803,"region":"부산광역시","source":"model"},{"id":"3370000-101-1996-02405","name":"대명가꼬리곰탕","address":"부산광역시 연제구 월드컵대로145번길 37 (연산동)","jibunAddress":"부산광역시 연제구 연산동 1287-8","phone":"051 8535564","foodType":"한식","mainFood":"꼬리곰탕","designatedDate":"20151103","lat":35.184740128,"lng":129.079868155,"region":"부산광역시","source":"model"},{"id":"3370000-101-2001-03347","name":"청담","address":"부산광역시 연제구 연안로 1 (연산동)","jibunAddress":"부산광역시 연제구 연산동 419-5","phone":"051 7610002","foodType":"한식","mainFood":"정식","designatedDate":"20100630","lat":35.188211601,"lng":129.106837833,"region":"부산광역시","source":"model"},{"id":"3370000-101-2001-03467","name":"만수아구찜","address":"부산광역시 연제구 교대로54번길 9-4 (거제동)","jibunAddress":"부산광역시 연제구 거제동 347-0","phone":"051 5024354","foodType":"한식","mainFood":"아구찜, 수육","designatedDate":"20100630","lat":35.193550787,"lng":129.074449114,"region":"부산광역시","source":"model"},{"id":"3370000-101-2001-03544","name":"가야골갈비","address":"부산광역시 연제구 법원북로 63-2 (거제동)","jibunAddress":"부산광역시 연제구 거제동 380-7","phone":"051 5031567","foodType":"한식","mainFood":"돼지갈비","designatedDate":"20100630","lat":35.193850582,"lng":129.073876375,"region":"부산광역시","source":"model"},{"id":"3370000-101-2002-03807","name":"옛고을","address":"부산광역시 연제구 법원북로 77-4 (거제동)","jibunAddress":"부산광역시 연제구 거제동 386-30","phone":"","foodType":"","mainFood":"","designatedDate":"20100630","lat":35.193073493,"lng":129.075090081,"region":"부산광역시","source":"model"},{"id":"3370000-101-2002-03887","name":"놀부부대찌개","address":"부산광역시 연제구 법원남로15번길 10 (거제동,101호)","jibunAddress":"부산광역시 연제구 거제동 1492-2 101호","phone":"051 5011388","foodType":"한식","mainFood":"부대찌개","designatedDate":"20100630","lat":35.190561264,"lng":129.073779604,"region":"부산광역시","source":"model"},{"id":"3370000-101-2002-03934","name":"일품향","address":"부산광역시 연제구 법원북로3번길 7 (거제동)","jibunAddress":"부산광역시 연제구 거제동 1476-9","phone":"051 5077762","foodType":"중식","mainFood":"중식","designatedDate":"20100630","lat":35.193536619,"lng":129.06738277,"region":"부산광역시","source":"model"},{"id":"3370000-101-2002-03999","name":"청산민물장어","address":"부산광역시 연제구 월드컵대로145번길 42 (연산동)","jibunAddress":"부산광역시 연제구 연산동 1288-22","phone":"051 853 8892","foodType":"한식","mainFood":"장어구이","designatedDate":"20100630","lat":35.184786101,"lng":129.079559247,"region":"부산광역시","source":"model"},{"id":"3370000-101-2003-00004","name":"돌집","address":"부산광역시 연제구 법원남로10번길 23-1 (거제동,301호)","jibunAddress":"부산광역시 연제구 거제동 1488-2 301호","phone":"051 5079233","foodType":"한식","mainFood":"정식","designatedDate":"20100630","lat":35.191434154,"lng":129.075422747,"region":"부산광역시","source":"model"},{"id":"3370000-101-2003-00007","name":"만포장 회 전문점","address":"부산광역시 연제구 법원북로3번길 15 (거제동)","jibunAddress":"부산광역시 연제구 거제동 1476-7","phone":"051 5036865","foodType":"일식","mainFood":"생선회","designatedDate":"20100630","lat":35.193884297,"lng":129.06727428,"region":"부산광역시","source":"model"},{"id":"3370000-101-2003-00094","name":"우미장꼬리곰탕","address":"부산광역시 연제구 법원로32번길 18 (거제동)","jibunAddress":"부산광역시 연제구 거제동 1489-1","phone":"051 5012208","foodType":"한식","mainFood":"생태탕","designatedDate":"20100630","lat":35.191084698,"lng":129.074910839,"region":"부산광역시","source":"model"},{"id":"3370000-101-2004-00109","name":"윤태금 복국","address":"부산광역시 연제구 월드컵대로145번길 29 (연산동,(덕산프라자 2층))","jibunAddress":"부산광역시 연제구 연산동 1287-13 (덕산프라자 2층)","phone":"051 8665295","foodType":"한식","mainFood":"복국","designatedDate":"20100630","lat":35.185044266,"lng":129.080118681,"region":"부산광역시","source":"model"},{"id":"3370000-101-2004-00138","name":"낙동강 오리알 연산점","address":"부산광역시 연제구 월드컵대로145번길 11 (연산동)","jibunAddress":"부산광역시 연제구 연산동 1242-6","phone":"051 8538005","foodType":"","mainFood":"보쌈","designatedDate":"20060329","lat":35.185908384,"lng":129.080330639,"region":"부산광역시","source":"model"},{"id":"3370000-101-2005-00013","name":"영덕대게시청점","address":"부산광역시 연제구 거제천로 101-1 (거제동)","jibunAddress":"부산광역시 연제구 거제동 457-30","phone":"051 8633572","foodType":"","mainFood":"","designatedDate":"20151103","lat":35.183241531,"lng":129.073827363,"region":"부산광역시","source":"model"},{"id":"3370000-101-2006-00136","name":"대륙 미가원","address":"부산광역시 연제구 월드컵대로120번길 12 (연산동,1층)","jibunAddress":"부산광역시 연제구 연산동 746-3 1층","phone":"051 8668008","foodType":"한식","mainFood":"아구찜","designatedDate":"20100630","lat":35.185221715,"lng":129.08293396,"region":"부산광역시","source":"model"},{"id":"3370000-101-2008-00032","name":"토곡정","address":"부산광역시 연제구 토곡로 7 (연산동)","jibunAddress":"부산광역시 연제구 연산동 490-30","phone":"051 751 9280","foodType":"한식","mainFood":"소고기 모듬구이","designatedDate":"20111109","lat":35.182729516,"lng":129.106447002,"region":"부산광역시","source":"model"},{"id":"3370000-101-2008-00108","name":"부자회관 부산시청점","address":"부산광역시 연제구 신촌로23번길 24 (연산동)","jibunAddress":"부산광역시 연제구 연산동 1502-16","phone":"055 3124418","foodType":"한식","mainFood":"소갈비","designatedDate":"20100630","lat":35.182069539,"lng":129.075186298,"region":"부산광역시","source":"model"},{"id":"3380000-101-1981-01707","name":"청송양곱창","address":"부산광역시 수영구 남천동로108번길 8, 1~2층 (남천동)","jibunAddress":"부산광역시 수영구 남천동 6-13","phone":"051 627 5291","foodType":"한식","mainFood":"양곱창","designatedDate":"20141103","lat":35.145773147,"lng":129.112018078,"region":"부산광역시","source":"model"},{"id":"3380000-101-1986-00356","name":"청산1954","address":"부산광역시 수영구 황령산로 29, 2층 (남천동)","jibunAddress":"부산광역시 수영구 남천동 45-9 2층","phone":"051 6250500","foodType":"한식","mainFood":"유황청둥오리,흑돼지생삼겹살","designatedDate":"20100630","lat":35.148282134,"lng":129.107884084,"region":"부산광역시","source":"model"},{"id":"3380000-101-1988-00899","name":"뉴부산횟집","address":"부산광역시 수영구 광안해변로 31-5, 1~3층 (남천동)","jibunAddress":"부산광역시 수영구 남천동 558-17 1~3층","phone":"051 6254200","foodType":"한식","mainFood":"생선회","designatedDate":"20020325","lat":35.138169322,"lng":129.113077598,"region":"부산광역시","source":"model"},{"id":"3380000-101-1989-00830","name":"서울부대찌게","address":"부산광역시 수영구 남천동로9번길 66, 1층 (남천동)","jibunAddress":"부산광역시 수영구 남천동 9-8 (1층)","phone":"051 621 8080","foodType":"한식","mainFood":"부대찌개, 전골","designatedDate":"20121127","lat":35.145280764,"lng":129.11166274,"region":"부산광역시","source":"model"},{"id":"3380000-101-1989-01517","name":"서울깍두기","address":"부산광역시 수영구 남천동로9번길 61, 1층 (남천동)","jibunAddress":"부산광역시 수영구 남천동 8-4 1층","phone":"051 6213989","foodType":"한식","mainFood":"설렁탕","designatedDate":"20101126","lat":35.145290005,"lng":129.111320218,"region":"부산광역시","source":"model"},{"id":"3380000-101-1993-01077","name":"개미집","address":"부산광역시 수영구 광남로130번길 9, 1층 (광안동)","jibunAddress":"부산광역시 수영구 광안동 194-7 1층","phone":"051 7587172","foodType":"한식","mainFood":"낙지볶음","designatedDate":"20121127","lat":35.153073597,"lng":129.117311192,"region":"부산광역시","source":"model"},{"id":"3380000-101-1997-02005","name":"남천삼계탕","address":"부산광역시 수영구 남천동로108번길 14, 1층 (남천동)","jibunAddress":"부산광역시 수영구 남천동 6-8 (1층)","phone":"051 759 1999","foodType":"한식","mainFood":"삼계탕","designatedDate":"20121127","lat":35.145957493,"lng":129.11233838,"region":"부산광역시","source":"model"},{"id":"3380000-101-1998-03062","name":"광안리 까치횟집","address":"부산광역시 수영구 광안해변로344번길 17-20, 5층 5호 (민락동, 풍경타워)","jibunAddress":"부산광역시 수영구 민락동 110-50 풍경타워 5층 5호","phone":"051 7535866","foodType":"한식","mainFood":"생선회","designatedDate":"20121127","lat":35.155024502,"lng":129.131737546,"region":"부산광역시","source":"model"},{"id":"3380000-101-1999-03654","name":"동화대반점","address":"부산광역시 수영구 수영로427번길 11, 1~2층 (남천동)","jibunAddress":"부산광역시 수영구 남천동 69-2 1~2층","phone":"051 6116686","foodType":"중식","mainFood":"탕수육","designatedDate":"20100630","lat":35.144212233,"lng":129.108678653,"region":"부산광역시","source":"model"},{"id":"3380000-101-1999-03659","name":"할매재첩국","address":"부산광역시 수영구 광남로120번길 8, 1층 (광안동)","jibunAddress":"부산광역시 수영구 광안동 198-1 8,9 (1층)","phone":"051 7517658","foodType":"","mainFood":"재첩국","designatedDate":"20100630","lat":35.151931424,"lng":129.116413876,"region":"부산광역시","source":"model"},{"id":"3380000-101-2002-04455","name":"광안밀면","address":"부산광역시 수영구 수영로 587, 1층 (광안동)","jibunAddress":"부산광역시 수영구 광안동 741-9 외 2필지","phone":"051 7515250","foodType":"한식","mainFood":"밀면","designatedDate":"20100630","lat":35.158221291,"lng":129.112944822,"region":"부산광역시","source":"model"},{"id":"3380000-101-2006-00056","name":"수정궁","address":"부산광역시 수영구 민락수변로 25, 1~5층 (민락동, 수정궁빌딩)","jibunAddress":"부산광역시 수영구 민락동 181-166 수정궁빌딩, 1~5층","phone":"051 753 2811","foodType":"한식","mainFood":"생선회","designatedDate":"20121127","lat":35.153555435,"lng":129.124521903,"region":"부산광역시","source":"model"},{"id":"3380000-101-2008-00060","name":"광안리 부산횟집","address":"부산광역시 수영구 민락수변로 29, 4층 (민락동, 바다마루)","jibunAddress":"부산광역시 수영구 민락동 181-223 바다마루 4층","phone":"051 753 8881","foodType":"한식","mainFood":"생선회","designatedDate":"20111026","lat":35.153208139,"lng":129.12469634,"region":"부산광역시","source":"model"},{"id":"3380000-101-2022-00093","name":"광안리 신라횟집","address":"부산광역시 수영구 민락수변로7번길 16, 비치프라자 2~4층 (민락동)","jibunAddress":"부산광역시 수영구 민락동 181-149 비치프라자","phone":"051 753 2800","foodType":"한식","mainFood":"생선회","designatedDate":"20220729","lat":35.155246849,"lng":129.124565516,"region":"부산광역시","source":"model"},{"id":"3390000-101-1985-00128","name":"여로초장집","address":"부산광역시 사상구 백양대로 977-1 (모라동)","jibunAddress":"부산광역시 사상구 모라동 1329-1","phone":"051 3122881","foodType":"한식","mainFood":"생선회","designatedDate":"20121031","lat":35.193387919,"lng":128.992745621,"region":"부산광역시","source":"model"},{"id":"3390000-101-1987-01315","name":"곰보식당","address":"부산광역시 사상구 낙동대로 1564 (삼락동)","jibunAddress":"부산광역시 사상구 삼락동 50-1","phone":"051 304 7733","foodType":"한식","mainFood":"안심","designatedDate":"20111031","lat":35.196552309,"lng":128.987812771,"region":"부산광역시","source":"model"},{"id":"3390000-101-1989-00007","name":"삼락하동재첩국","address":"부산광역시 사상구 낙동대로1518번길 33 (삼락동)","jibunAddress":"부산광역시 사상구 삼락동 70-20","phone":"051301 7200","foodType":"한식","mainFood":"재첩국","designatedDate":"20111031","lat":35.193260395,"lng":128.985762633,"region":"부산광역시","source":"model"},{"id":"3390000-101-1991-00016","name":"할매재첩국","address":"부산광역시 사상구 낙동대로1530번길 20-15 (삼락동)","jibunAddress":"부산광역시 사상구 삼락동 69-4","phone":"051 3017069","foodType":"한식","mainFood":"재첩국","designatedDate":"20111031","lat":35.193271111,"lng":128.986199351,"region":"부산광역시","source":"model"},{"id":"3390000-101-1991-00888","name":"남촌 안주마을","address":"부산광역시 사상구 광장로81번길 27 (괘법동)","jibunAddress":"부산광역시 사상구 괘법동 535-8","phone":"051 3272127","foodType":"한식","mainFood":"돼지갈비","designatedDate":"20111031","lat":35.16366214,"lng":128.984650636,"region":"부산광역시","source":"model"},{"id":"3390000-101-1995-02258","name":"만리장성","address":"부산광역시 사상구 새벽시장로56번길 37 (감전동)","jibunAddress":"부산광역시 사상구 감전동 151-7","phone":"051 327 6652","foodType":"중식","mainFood":"자장면","designatedDate":"20131122","lat":35.153520011,"lng":128.979373559,"region":"부산광역시","source":"model"},{"id":"3390000-101-1997-00020","name":"아지매제첩국","address":"부산광역시 사상구 낙동대로1530번길 20-9 (삼락동)","jibunAddress":"부산광역시 사상구 삼락동 69-3","phone":"051 3011423","foodType":"한식","mainFood":"재첩국","designatedDate":"20111031","lat":35.193648455,"lng":128.986126832,"region":"부산광역시","source":"model"},{"id":"3390000-101-1997-01777","name":"아낙촌","address":"부산광역시 사상구 낙동대로 722 (엄궁동)","jibunAddress":"부산광역시 사상구 엄궁동 159-1","phone":"","foodType":"한식","mainFood":"해장국","designatedDate":"20111031","lat":35.125921029,"lng":128.968470224,"region":"부산광역시","source":"model"},{"id":"3390000-101-1999-03438","name":"대궐안집","address":"부산광역시 사상구 광장로 68 (괘법동)","jibunAddress":"부산광역시 사상구 괘법동 559-11","phone":"051 3221223","foodType":"한식","mainFood":"소갈비","designatedDate":"20111031","lat":35.161742607,"lng":128.983958472,"region":"부산광역시","source":"model"},{"id":"3390000-101-1999-03632","name":"호돌이갈비","address":"부산광역시 사상구 사상로 285 (덕포동)","jibunAddress":"부산광역시 사상구 덕포동 422-15","phone":"051 302 0460","foodType":"한식","mainFood":"돼지갈비","designatedDate":"20111031","lat":35.170411431,"lng":128.982493885,"region":"부산광역시","source":"model"},{"id":"3390000-101-1999-04711","name":"대한복집","address":"부산광역시 사상구 새벽로202번길 10, 1층 (괘법동)","jibunAddress":"부산광역시 사상구 괘법동 581-30 1층","phone":"051 3224888","foodType":"한식","mainFood":"복국","designatedDate":"20111031","lat":35.158749666,"lng":128.98451931,"region":"부산광역시","source":"model"},{"id":"3390000-101-2000-04291","name":"오륙도낙지","address":"부산광역시 사상구 모라로 64 (모라동)","jibunAddress":"부산광역시 사상구 모라동 1039-0","phone":"051 3015253","foodType":"한식","mainFood":"낙지전골","designatedDate":"20111031","lat":35.188639894,"lng":128.987571673,"region":"부산광역시","source":"model"},{"id":"3390000-101-2000-04638","name":"삼락식당","address":"부산광역시 사상구 사상로233번길 10 (괘법동)","jibunAddress":"부산광역시 사상구 괘법동 524-45","phone":"051 328 4140","foodType":"한식","mainFood":"재첩국","designatedDate":"20111031","lat":35.165855845,"lng":128.982205849,"region":"부산광역시","source":"model"},{"id":"3390000-101-2000-04667","name":"엄궁복국","address":"부산광역시 사상구 낙동대로 765 (엄궁동)","jibunAddress":"부산광역시 사상구 엄궁동 475-1","phone":"051 314 1134","foodType":"한식","mainFood":"복국","designatedDate":"20111031","lat":35.129553925,"lng":128.970097834,"region":"부산광역시","source":"model"},{"id":"3390000-101-2001-04448","name":"곱테랑","address":"부산광역시 사상구 새벽로 218 (괘법동)","jibunAddress":"부산광역시 사상구 괘법동 558-7","phone":"051 317 2071","foodType":"한식","mainFood":"정식","designatedDate":"20151125","lat":35.160411946,"lng":128.984686745,"region":"부산광역시","source":"model"},{"id":"3390000-101-2001-04478","name":"구덕민속촌","address":"부산광역시 사상구 학감대로39번안길 15-17 (학장동)","jibunAddress":"부산광역시 사상구 학장동 153","phone":"051 3110127","foodType":"한식","mainFood":"생갈비","designatedDate":"20111031","lat":35.132818876,"lng":128.997611198,"region":"부산광역시","source":"model"},{"id":"3390000-101-2002-00099","name":"주왕산삼계탕","address":"부산광역시 사상구 광장로 34 (괘법동)","jibunAddress":"부산광역시 사상구 괘법동 565-6 2호동","phone":"051 313 3328","foodType":"한식","mainFood":"삼계탕","designatedDate":"20111031","lat":35.161935584,"lng":128.980307439,"region":"부산광역시","source":"model"},{"id":"3390000-101-2002-00165","name":"황토민물장어구이","address":"부산광역시 사상구 새벽로202번길 10 (괘법동)","jibunAddress":"부산광역시 사상구 괘법동 581-30","phone":"051 3248892","foodType":"한식","mainFood":"장어구이","designatedDate":"20111031","lat":35.158749666,"lng":128.98451931,"region":"부산광역시","source":"model"},{"id":"3390000-101-2002-00337","name":"누리마을 감자탕","address":"부산광역시 사상구 백양대로 463 (주례동)","jibunAddress":"부산광역시 사상구 주례동 367-1","phone":"051 3158227","foodType":"한식","mainFood":"삼겹살","designatedDate":"20111031","lat":35.152570837,"lng":129.001140269,"region":"부산광역시","source":"model"},{"id":"3390000-101-2003-00011","name":"기장대게도매","address":"부산광역시 사상구 엄궁로 7 (엄궁동)","jibunAddress":"부산광역시 사상구 엄궁동 687-3","phone":"051 3234900","foodType":"한식","mainFood":"대게","designatedDate":"20161124","lat":35.124475201,"lng":128.967237183,"region":"부산광역시","source":"model"},{"id":"3390000-101-2003-00033","name":"갈매기 마을","address":"부산광역시 사상구 학장로 330 (주례동)","jibunAddress":"부산광역시 사상구 주례동 1162-28","phone":"","foodType":"한식","mainFood":"대패삼겹살","designatedDate":"20111031","lat":35.149731549,"lng":129.000263348,"region":"부산광역시","source":"model"},{"id":"3390000-101-2003-00207","name":"조방낙지","address":"부산광역시 사상구 가야대로 337 (주례동)","jibunAddress":"부산광역시 사상구 주례동 190-3","phone":"051 317 0101","foodType":"한식","mainFood":"낙지전골","designatedDate":"20120427","lat":35.15142068,"lng":129.00986704,"region":"부산광역시","source":"model"},{"id":"3390000-101-2004-00148","name":"바다회센타","address":"부산광역시 사상구 사상로469번길 20 (모라동)","jibunAddress":"부산광역시 사상구 모라동 750-1","phone":"051 302 2342","foodType":"한식","mainFood":"생선회","designatedDate":"20111031","lat":35.186718884,"lng":128.985980147,"region":"부산광역시","source":"model"},{"id":"3390000-101-2004-00172","name":"돈짝 학장점","address":"부산광역시 사상구 학감대로123번길 43 (학장동)","jibunAddress":"부산광역시 사상구 학장동 451-6","phone":"051 312 5005","foodType":"한식","mainFood":"장어구이","designatedDate":"20111031","lat":35.141296566,"lng":128.985962857,"region":"부산광역시","source":"model"},{"id":"3390000-101-2004-00187","name":"르네상스(크로네) 뷔폐","address":"부산광역시 사상구 광장로 60, 4~5층 (괘법동, 르네상스호텔)","jibunAddress":"부산광역시 사상구 괘법동 559-6 르네상스호텔 4~5층","phone":"051 327 3877","foodType":"뷔페식","mainFood":"뷔폐","designatedDate":"20111031","lat":35.161708096,"lng":128.982992737,"region":"부산광역시","source":"model"},{"id":"3390000-101-2005-00081","name":"최기택송이아구찜","address":"부산광역시 사상구 엄궁로 206 (엄궁동)","jibunAddress":"부산광역시 사상구 엄궁동 567-6","phone":"051 322 8688","foodType":"한식","mainFood":"아구찜","designatedDate":"20111031","lat":35.130704313,"lng":128.972964032,"region":"부산광역시","source":"model"},{"id":"3390000-101-2005-00121","name":"창녕순대국밥","address":"부산광역시 사상구 새벽로168번길 37, 1층 (감전동)","jibunAddress":"부산광역시 사상구 감전동 121-22","phone":"051 3135128","foodType":"한식","mainFood":"국밥","designatedDate":"20111031","lat":35.155918923,"lng":128.985342055,"region":"부산광역시","source":"model"},{"id":"3390000-101-2005-00123","name":"부산양지탕","address":"부산광역시 사상구 새벽시장로 146 (감전동)","jibunAddress":"부산광역시 사상구 감전동 139-33","phone":"051 317 3677","foodType":"한식","mainFood":"양지창","designatedDate":"20111031","lat":35.15340603,"lng":128.989626727,"region":"부산광역시","source":"model"},{"id":"3390000-101-2005-00159","name":"샤브향 주례개금점","address":"부산광역시 사상구 가야대로 384 (주례동)","jibunAddress":"부산광역시 사상구 주례동 57-14","phone":"051 312 5454","foodType":"한식","mainFood":"샤브샤브","designatedDate":"20161124","lat":35.151020236,"lng":129.014563242,"region":"부산광역시","source":"model"},{"id":"3390000-101-2006-00007","name":"돈돈촌","address":"부산광역시 사상구 백양대로 887-26 (모라동)","jibunAddress":"부산광역시 사상구 모라동 521","phone":"051 3168383","foodType":"한식","mainFood":"돼지갈비","designatedDate":"20111031","lat":35.185727517,"lng":128.989495955,"region":"부산광역시","source":"model"},{"id":"3390000-101-2006-00048","name":"청기와샤브샤브","address":"부산광역시 사상구 학감대로39번안길 15-9 (학장동)","jibunAddress":"부산광역시 사상구 학장동 160-7 외2필지(C동)","phone":"051 3249015","foodType":"한식","mainFood":"샤브샤브","designatedDate":"20111031","lat":35.132860085,"lng":128.99731403,"region":"부산광역시","source":"model"},{"id":"3390000-101-2006-00150","name":"골목아구찜","address":"부산광역시 사상구 모라로 90-14 (모라동)","jibunAddress":"부산광역시 사상구 모라동 952-5","phone":"051 3150755","foodType":"한식","mainFood":"아구찜","designatedDate":"20111031","lat":35.186130005,"lng":128.989411905,"region":"부산광역시","source":"model"},{"id":"3390000-101-2007-00064","name":"33숯불갈비","address":"부산광역시 사상구 낙동대로776번길 27 (엄궁동)","jibunAddress":"부산광역시 사상구 엄궁동 514-27","phone":"051 3173177","foodType":"한식","mainFood":"돼지갈비","designatedDate":"20111031","lat":35.129435105,"lng":128.972654276,"region":"부산광역시","source":"model"},{"id":"3390000-101-2007-00082","name":"눈이 부시게","address":"부산광역시 사상구 가야대로282번길 38, 1층 (주례동)","jibunAddress":"부산광역시 사상구 주례동 1162-100","phone":"051  3163455","foodType":"한식","mainFood":"찜갈비","designatedDate":"20131122","lat":35.149205974,"lng":129.001799081,"region":"부산광역시","source":"model"},{"id":"3390000-101-2007-00143","name":"사상목촌돼지국밥, 국민삼겹","address":"부산광역시 사상구 광장로 85 (괘법동)","jibunAddress":"부산광역시 사상구 괘법동 545-22","phone":"051 361 7000","foodType":"한식","mainFood":"돼지국밥","designatedDate":"20131122","lat":35.162691272,"lng":128.985847459,"region":"부산광역시","source":"model"},{"id":"3390000-101-2008-00072","name":"청운횟집","address":"부산광역시 사상구 광장로81번길 28 (괘법동)","jibunAddress":"부산광역시 사상구 괘법동 536-9","phone":"051 317 1200","foodType":"한식","mainFood":"생선회","designatedDate":"20130425","lat":35.163774746,"lng":128.985086025,"region":"부산광역시","source":"model"},{"id":"3390000-101-2008-00143","name":"외식1번가서부산","address":"부산광역시 사상구 농산물시장로 36 (엄궁동)","jibunAddress":"부산광역시 사상구 엄궁동 652-7","phone":"051 324 5757","foodType":"한식","mainFood":"소갈비","designatedDate":"20111031","lat":35.12660297,"lng":128.967083979,"region":"부산광역시","source":"model"},{"id":"3390000-101-2010-00094","name":"24시 전주명가 콩나물국밥 사상덕포점","address":"부산광역시 사상구 사상로 332, 1층 (덕포동)","jibunAddress":"부산광역시 사상구 덕포동 404-9 1층","phone":"051 303 7314","foodType":"한식","mainFood":"생선회","designatedDate":"20131122","lat":35.174336612,"lng":128.984430354,"region":"부산광역시","source":"model"},{"id":"3390000-101-2010-00110","name":"샤브향","address":"부산광역시 사상구 백양대로 987, 5층 (모라동)","jibunAddress":"부산광역시 사상구 모라동 170 5층","phone":"051 3023535","foodType":"한식","mainFood":"쌈","designatedDate":"20131122","lat":35.194042826,"lng":128.992831549,"region":"부산광역시","source":"model"},{"id":"3390000-101-2012-00094","name":"신월 양꼬치","address":"부산광역시 사상구 주례로9번길 25 (주례동)","jibunAddress":"부산광역시 사상구 주례동 55-198","phone":"051 312 9233","foodType":"한식","mainFood":"닭갈비","designatedDate":"20131122","lat":35.150550563,"lng":129.012947411,"region":"부산광역시","source":"model"},{"id":"3390000-101-2014-00001","name":"한라돈이 익는 마을애","address":"부산광역시 사상구 광장로 103 (괘법동)","jibunAddress":"부산광역시 사상구 괘법동 543-10","phone":"051 312 7499","foodType":"한식","mainFood":"삽겹살","designatedDate":"20141126","lat":35.162932842,"lng":128.987668231,"region":"부산광역시","source":"model"},{"id":"3390000-101-2014-00030","name":"오이시","address":"부산광역시 사상구 가야대로284번길 11, 1층 (주례동)","jibunAddress":"부산광역시 사상구 주례동 507-18","phone":"051 313 8253","foodType":"일식","mainFood":"초밥","designatedDate":"20151125","lat":35.149512973,"lng":129.004175146,"region":"부산광역시","source":"model"},{"id":"3390000-101-2015-00044","name":"힘쎈민물장어","address":"부산광역시 사상구 주례로 261 (학장동)","jibunAddress":"부산광역시 사상구 학장동 535-11","phone":"051 316 8001","foodType":"한식","mainFood":"장어","designatedDate":"20151125","lat":35.142317458,"lng":128.988943934,"region":"부산광역시","source":"model"},{"id":"3390000-101-2016-00039","name":"정다옥 설렁탕","address":"부산광역시 사상구 농산물시장로 22, 1층 103호 (엄궁동)","jibunAddress":"부산광역시 사상구 엄궁동 651-103 103호","phone":"051 623 1233","foodType":"한식","mainFood":"설렁탕","designatedDate":"20161124","lat":35.126941469,"lng":128.965751898,"region":"부산광역시","source":"model"},{"id":"3390000-101-2016-00053","name":"이화수전통육개장 사상구청점","address":"부산광역시 사상구 학감대로 257, A동 1층 108호 (감전동, 보생빌딩)","jibunAddress":"부산광역시 사상구 감전동 134-8 108호","phone":"051 323 8006","foodType":"한식","mainFood":"육개장","designatedDate":"20161124","lat":35.153707054,"lng":128.989775399,"region":"부산광역시","source":"model"},{"id":"3400000-101-1972-01198","name":"죽도집","address":"부산광역시 기장군 기장읍 연화1길 215","jibunAddress":"부산광역시 기장군 기장읍 연화리 112","phone":"051 7212411","foodType":"한식","mainFood":"생선회","designatedDate":"20100618","lat":35.219529455,"lng":129.226858932,"region":"부산광역시","source":"model"},{"id":"3400000-101-1972-01215","name":"나루터연화","address":"부산광역시 기장군 기장읍 연화1길 183 (3층 중 1층)","jibunAddress":"부산광역시 기장군 기장읍 연화리 143 3층 중 1층","phone":"051 7212415","foodType":"","mainFood":"생선회","designatedDate":"20151105","lat":35.218185475,"lng":129.227781791,"region":"부산광역시","source":"model"},{"id":"3400000-101-1985-01117","name":"장안매운탕","address":"부산광역시 기장군 장안읍 장안로 75-4, 1층","jibunAddress":"부산광역시 기장군 장안읍 기룡리 306 1층","phone":"051 7270679","foodType":"한식","mainFood":"매운탕","designatedDate":"20131031","lat":35.346813388,"lng":129.254235836,"region":"부산광역시","source":"model"},{"id":"3400000-101-1989-00851","name":"장안집","address":"부산광역시 기장군 장안읍 장안로 365","jibunAddress":"부산광역시 기장군 장안읍 장안리 420 1층","phone":"051 7271819","foodType":"한식","mainFood":"오리불고기","designatedDate":"20161201","lat":35.369986677,"lng":129.24409666,"region":"부산광역시","source":"model"},{"id":"3400000-101-1993-01127","name":"가보자짬뽕","address":"부산광역시 기장군 장안읍 해맞이로 425","jibunAddress":"부산광역시 기장군 장안읍 길천리 205-4","phone":"051 7273911","foodType":"중식","mainFood":"중식","designatedDate":"20080616","lat":35.329571468,"lng":129.281929083,"region":"부산광역시","source":"model"},{"id":"3400000-101-1994-00644","name":"가마솥생복집","address":"부산광역시 기장군 기장읍 차성로 327-2","jibunAddress":"부산광역시 기장군 기장읍 동부리 117-10","phone":"051 7222995","foodType":"한식","mainFood":"복요리","designatedDate":"20080616","lat":35.246944789,"lng":129.213412217,"region":"부산광역시","source":"model"},{"id":"3400000-101-1996-00232","name":"기장밀면","address":"부산광역시 기장군 기장읍 청강로85번길 100","jibunAddress":"부산광역시 기장군 기장읍 청강리 158-4","phone":"051 7213087","foodType":"한식","mainFood":"밀면","designatedDate":"20141103","lat":35.235631007,"lng":129.219296528,"region":"부산광역시","source":"model"},{"id":"3400000-101-1997-00098","name":"동양가든","address":"부산광역시 기장군 기장읍 반송로 1550","jibunAddress":"부산광역시 기장군 기장읍 서부리 13-3","phone":"051 7228673","foodType":"한식","mainFood":"한우, 돼지고기","designatedDate":"20080616","lat":35.248916958,"lng":129.20909813,"region":"부산광역시","source":"model"},{"id":"3400000-101-2000-01788","name":"천지대게·기장본점","address":"부산광역시 기장군 기장읍 차성로288번길 11, 1층","jibunAddress":"부산광역시 기장군 기장읍 대라리 419-30 1층","phone":"051 724 0203","foodType":"","mainFood":"킹크랩, 대게","designatedDate":"20151105","lat":35.243253446,"lng":129.214316705,"region":"부산광역시","source":"model"},{"id":"3400000-101-2001-01848","name":"기장대변항 오양수산장어구이","address":"부산광역시 기장군 기장읍 기장해안로 548-3","jibunAddress":"부산광역시 기장군 기장읍 대변리 203-5","phone":"051 7210074","foodType":"한식","mainFood":"장어구이","designatedDate":"20141103","lat":35.222552854,"lng":129.226914885,"region":"부산광역시","source":"model"},{"id":"3400000-101-2007-00016","name":"기장해변짚불곰장어","address":"부산광역시 기장군 기장읍 공수2길 11","jibunAddress":"부산광역시 기장군 기장읍 시랑리 563-1","phone":"051 7214539","foodType":"한식","mainFood":"곰장어","designatedDate":"20080616","lat":35.185361874,"lng":129.211609552,"region":"부산광역시","source":"model"},{"id":"3400000-101-2007-00024","name":"일광대복집","address":"부산광역시 기장군 일광읍 이화로 3","jibunAddress":"부산광역시 기장군 일광읍 이천리 771-3","phone":"051 7211561","foodType":"한식","mainFood":"복요리","designatedDate":"20080616","lat":35.266987064,"lng":129.23351466,"region":"부산광역시","source":"model"},{"id":"3400000-101-2008-00043","name":"피터펫카페본점","address":"부산광역시 기장군 기장읍 내리1길 13","jibunAddress":"부산광역시 기장군 기장읍 내리 346-5번지","phone":"051 988 8000","foodType":"한식","mainFood":"한우","designatedDate":"20090626","lat":35.208738502,"lng":129.206704161,"region":"부산광역시","source":"model"},{"id":"3400000-101-2010-00112","name":"신라해장국(장안점)","address":"부산광역시 기장군 장안읍 장안로 8, B동 109호","jibunAddress":"부산광역시 기장군 장안읍 기룡리 448-1 B동 109호","phone":"051 727 7955","foodType":"한식","mainFood":"해장국","designatedDate":"20131031","lat":35.341814093,"lng":129.251996336,"region":"부산광역시","source":"model"},{"id":"3400000-101-2012-00029","name":"송하원","address":"부산광역시 기장군 철마면 안평로11번나길 11-4","jibunAddress":"부산광역시 기장군 철마면 안평리 518-5","phone":"051 721 8692","foodType":"한식","mainFood":"한우","designatedDate":"20121031","lat":35.236182335,"lng":129.175947419,"region":"부산광역시","source":"model"},{"id":"3400000-101-2013-00191","name":"속초이모네","address":"부산광역시 기장군 기장읍 대변로 105","jibunAddress":"부산광역시 기장군 기장읍 대변리 517","phone":"051 6126253","foodType":"","mainFood":"생선찜","designatedDate":"20151105","lat":35.228457462,"lng":129.224100916,"region":"부산광역시","source":"model"},{"id":"3400000-101-2015-00018","name":"장안민물장어","address":"부산광역시 기장군 장안읍 하근1길 5","jibunAddress":"부산광역시 기장군 장안읍 기룡리 313-9","phone":"051 727 8292","foodType":"","mainFood":"민물장어","designatedDate":"20151105","lat":35.346445196,"lng":129.254941215,"region":"부산광역시","source":"model"}]