[{"id":"goodprice-incheon-0","name":"뚱가네","address":"인천광역시강화군강화읍강화대로393번길10(신문리)","jibunAddress":"","phone":"032-933-9296","foodType":"한식","mainFood":"생삼겹살(200g)","designatedDate":"","lat":37.7482072,"lng":126.4835323,"region":"인천광역시","source":"goodprice","goodpriceMenus":[{"name":"생삼겹살(200g)","price":"15000"}]},{"id":"goodprice-incheon-1","name":"수정반점","address":"인천광역시강화군내가면강화서로217(고천리)","jibunAddress":"","phone":"032-932-5891","foodType":"중식","mainFood":"짜장면","designatedDate":"","lat":37.7131116,"lng":126.3909036,"region":"인천광역시","source":"goodprice","goodpriceMenus":[{"name":"짜장면","price":"4000"}]},{"id":"goodprice-incheon-2","name":"마니산손짜장","address":"인천광역시강화군양도면가능포로221(능내리)","jibunAddress":"","phone":"032-937-8249","foodType":"중식","mainFood":"짜장면","designatedDate":"","lat":37.6508994,"lng":126.4254436,"region":"인천광역시","source":"goodprice","goodpriceMenus":[{"name":"짜장면","price":"3000"}]},{"id":"goodprice-incheon-3","name":"중화요리금성","address":"인천광역시강화군양도면강화남로736(하일리)","jibunAddress":"","phone":"032-937-8559","foodType":"중식","mainFood":"짜장면","designatedDate":"","lat":37.6627775,"lng":126.4211252,"region":"인천광역시","source":"goodprice","goodpriceMenus":[{"name":"짜장면","price":"2000"},{"name":"탕수육(대)","price":"18000"}]},{"id":"goodprice-incheon-4","name":"송해식당","address":"인천광역시강화군강화읍청하동길9번길6-3(신문리)","jibunAddress":"","phone":"","foodType":"한식","mainFood":"삼겹살(200g)","designatedDate":"","lat":37.7482072,"lng":126.4835323,"region":"인천광역시","source":"goodprice","goodpriceMenus":[{"name":"삼겹살(200g)","price":"18000"}]},{"id":"goodprice-incheon-5","name":"일억조","address":"인천광역시강화군강화읍동문안길21번길17(관청리)","jibunAddress":"","phone":"032-933-4224","foodType":"한식","mainFood":"젓국갈비大","designatedDate":"","lat":37.7477593,"lng":126.4851906,"region":"인천광역시","source":"goodprice","goodpriceMenus":[{"name":"젓국갈비大","price":"35000"},{"name":"젓국갈비中","price":"25000"},{"name":"생삼겹살(200g)","price":"13000"},{"name":"설렁탕/비빔밥","price":"8000"}]},{"id":"goodprice-incheon-6","name":"서울돼지1986","address":"인천광역시강화군강화읍갑룡길1222동1층(용정리)","jibunAddress":"","phone":"032-933-8909","foodType":"한식","mainFood":"양념목살(200g)","designatedDate":"","lat":37.7457102,"lng":126.5087987,"region":"인천광역시","source":"goodprice","goodpriceMenus":[{"name":"양념목살(200g)","price":"13000"},{"name":"양념삼겹살(160g)","price":"13000"},{"name":"냉삼겹살(160g)","price":"13000"},{"name":"냉면","price":"8000"}]},{"id":"goodprice-incheon-7","name":"강화손칼국수","address":"인천광역시강화군양도면강화남로678(하일리)","jibunAddress":"","phone":"032-937-8707","foodType":"한식","mainFood":"부추전","designatedDate":"","lat":37.6732101,"lng":126.4144733,"region":"인천광역시","source":"goodprice","goodpriceMenus":[{"name":"부추전","price":"8000"}]},{"id":"goodprice-incheon-8","name":"남창식당","address":"인천광역시강화군강화읍남문안길3(신문리)","jibunAddress":"","phone":"032-934-2380","foodType":"한식","mainFood":"되비지백반","designatedDate":"","lat":37.7482072,"lng":126.4835323,"region":"인천광역시","source":"goodprice","goodpriceMenus":[{"name":"되비지백반","price":"8000"}]},{"id":"goodprice-incheon-9","name":"오가네국수","address":"인천광역시강화군강화읍갑룡길371층102호(갑곳리)","jibunAddress":"","phone":"032-933-7155","foodType":"한식","mainFood":"갈비탕","designatedDate":"","lat":37.7457102,"lng":126.5087987,"region":"인천광역시","source":"goodprice","goodpriceMenus":[{"name":"갈비탕","price":"13000"}]},{"id":"goodprice-incheon-10","name":"장흥리식당","address":"인천광역시강화군길상면길상로236-11층(장흥리)","jibunAddress":"","phone":"0507-1343-3897","foodType":"한식","mainFood":"쭈꾸미정식","designatedDate":"","lat":37.6742553,"lng":126.4106587,"region":"인천광역시","source":"goodprice","goodpriceMenus":[{"name":"쭈꾸미정식","price":"10000"},{"name":"어린이돈가스","price":"7000"}]},{"id":"goodprice-incheon-11","name":"잔잔한식탁","address":"인천광역시강화군길상면삼랑성길71층(온수리)","jibunAddress":"","phone":"0507-1324-5008","foodType":"한식","mainFood":"김치찜(1인분)","designatedDate":"","lat":37.6742553,"lng":126.4106587,"region":"인천광역시","source":"goodprice","goodpriceMenus":[{"name":"김치찜(1인분)","price":"10000"},{"name":"갈비찜(1인분)","price":"13000"}]},{"id":"goodprice-incheon-12","name":"커피향기","address":"인천광역시강화군강화읍강화대로368번길13(관청리)","jibunAddress":"","phone":"032-932-6003","foodType":"기타","mainFood":"아메리카노","designatedDate":"","lat":37.7482072,"lng":126.4835323,"region":"인천광역시","source":"goodprice","goodpriceMenus":[{"name":"아메리카노","price":"2800"},{"name":"대추차","price":"5000"},{"name":"블루베리주스","price":"4800"}]},{"id":"goodprice-incheon-13","name":"해안도시","address":"인천광역시강화군길상면해안남로152(초지리)","jibunAddress":"","phone":"032-937-9506","foodType":"한식","mainFood":"민물장어(1kg)","designatedDate":"","lat":37.6742553,"lng":126.4106587,"region":"인천광역시","source":"goodprice","goodpriceMenus":[{"name":"민물장어(1kg)","price":"80000"},{"name":"갯벌장어(1kg)","price":"100000"}]},{"id":"goodprice-incheon-14","name":"강화샌드&갤러리카페602","address":"인천광역시강화군화도면해안남로1184번길71층","jibunAddress":"","phone":"0507-1353-4842","foodType":"기타","mainFood":"강화샌드(10개)","designatedDate":"","lat":37.6107154,"lng":126.4554852,"region":"인천광역시","source":"goodprice","goodpriceMenus":[{"name":"강화샌드(10개)","price":"15000"}]},{"id":"goodprice-incheon-15","name":"소문난감자탕","address":"인천광역시강화군강화읍강화대로409번길81층","jibunAddress":"","phone":"032-932-6980","foodType":"한식","mainFood":"우거지뼈해장국","designatedDate":"","lat":37.7482072,"lng":126.4835323,"region":"인천광역시","source":"goodprice","goodpriceMenus":[{"name":"우거지뼈해장국","price":"9000"}]},{"id":"goodprice-incheon-16","name":"핫도그대마왕","address":"인천광역시강화군강화읍청하동길8","jibunAddress":"","phone":"070-4883-4955","foodType":"양식","mainFood":"뉴욕핫도그","designatedDate":"","lat":37.7450338,"lng":126.4824803,"region":"인천광역시","source":"goodprice","goodpriceMenus":[{"name":"뉴욕핫도그","price":"3500"},{"name":"오리진핫도그","price":"3500"},{"name":"통새우버거","price":"4900"},{"name":"매콤오징어버거","price":"4900"}]},{"id":"goodprice-incheon-17","name":"꿀꿀이만찬","address":"인천광역시옹진군영흥면선재로342(선재리)","jibunAddress":"","phone":"","foodType":"한식","mainFood":"순대국","designatedDate":"","lat":37.2541704,"lng":126.5137972,"region":"인천광역시","source":"goodprice","goodpriceMenus":[{"name":"순대국","price":"8000"},{"name":"바지락칼국수","price":"9000"}]},{"id":"goodprice-incheon-18","name":"청기와집","address":"인천광역시옹진군연평면연평중앙로13번길37-8청기와집","jibunAddress":"","phone":"032-831-4746","foodType":"한식","mainFood":"갈비살(600g)","designatedDate":"","lat":37.6687698,"lng":125.6946955,"region":"인천광역시","source":"goodprice","goodpriceMenus":[{"name":"갈비살(600g)","price":"59000"},{"name":"냉면","price":"9000"}]},{"id":"goodprice-incheon-19","name":"전복죽있는철판집","address":"인천광역시옹진군백령면백령로2761층","jibunAddress":"","phone":"032-836-2402","foodType":"한식","mainFood":"전복죽","designatedDate":"","lat":37.9486074,"lng":124.6798095,"region":"인천광역시","source":"goodprice","goodpriceMenus":[{"name":"전복죽","price":"14000"}]},{"id":"goodprice-incheon-20","name":"두선네한상","address":"인천광역시옹진군백령면백령로60","jibunAddress":"","phone":"","foodType":"한식","mainFood":"갈비살(160g)","designatedDate":"","lat":37.9704396,"lng":124.718374,"region":"인천광역시","source":"goodprice","goodpriceMenus":[{"name":"갈비살(160g)","price":"18000"}]},{"id":"goodprice-incheon-21","name":"신포화로구이","address":"인천광역시중구신포로27번길16(관동3가)","jibunAddress":"","phone":"032-777-0099","foodType":"한식","mainFood":"김치찌개","designatedDate":"","lat":37.4728051,"lng":126.6225699,"region":"인천광역시","source":"goodprice","goodpriceMenus":[{"name":"김치찌개","price":"7500"},{"name":"양푼비빔밥","price":"7000"}]},{"id":"goodprice-incheon-22","name":"신신분식","address":"인천광역시중구자유공원로27번길1(내동)","jibunAddress":"","phone":"032-762-0992","foodType":"한식","mainFood":"우동","designatedDate":"","lat":37.4747924,"lng":126.6276909,"region":"인천광역시","source":"goodprice","goodpriceMenus":[{"name":"우동","price":"5500"}]},{"id":"goodprice-incheon-23","name":"신흥숯불갈비","address":"인천광역시중구서해대로454번길14-2(선화동)","jibunAddress":"","phone":"032-883-7717","foodType":"한식","mainFood":"냉면","designatedDate":"","lat":37.4660513,"lng":126.6358367,"region":"인천광역시","source":"goodprice","goodpriceMenus":[{"name":"냉면","price":"10000"},{"name":"생삼겹살(180g)","price":"17000"}]},{"id":"goodprice-incheon-24","name":"일미정","address":"인천광역시중구신포로23번길5(중앙동4가)","jibunAddress":"","phone":"032-772-9595","foodType":"한식","mainFood":"불고기백반","designatedDate":"","lat":37.4725088,"lng":126.6223296,"region":"인천광역시","source":"goodprice","goodpriceMenus":[{"name":"불고기백반","price":"12000"},{"name":"육개장","price":"9000"},{"name":"삼계탕","price":"14000"}]},{"id":"goodprice-incheon-25","name":"장터삼겹살(연안)","address":"인천광역시중구연안부두로53번길31(항동7가)","jibunAddress":"","phone":"032-882-6880","foodType":"한식","mainFood":"삼겹살(180g)","designatedDate":"","lat":37.4533525,"lng":126.6025559,"region":"인천광역시","source":"goodprice","goodpriceMenus":[{"name":"삼겹살(180g)","price":"9000"},{"name":"냉면","price":"7000"}]},{"id":"goodprice-incheon-26","name":"부산식당","address":"인천광역시중구연안부두로162층(항동7가)","jibunAddress":"","phone":"032-882-8991","foodType":"한식","mainFood":"모듬회(중)","designatedDate":"","lat":37.4532726,"lng":126.5984554,"region":"인천광역시","source":"goodprice","goodpriceMenus":[{"name":"모듬회(중)","price":"30000"},{"name":"장어탕(2인분)","price":"26000"}]},{"id":"goodprice-incheon-27","name":"장터삼겹살(신흥)","address":"인천광역시중구서해대로454번길11-3(선화동)","jibunAddress":"","phone":"032-887-5355","foodType":"한식","mainFood":"삼겹살(200g)","designatedDate":"","lat":37.4660513,"lng":126.6358367,"region":"인천광역시","source":"goodprice","goodpriceMenus":[{"name":"삼겹살(200g)","price":"10000"},{"name":"냉면","price":"8000"}]},{"id":"goodprice-incheon-28","name":"새벽숯불가든","address":"인천광역시중구제물량로166번길23(신포동)","jibunAddress":"","phone":"032-872-9589","foodType":"한식","mainFood":"방목흑돼지(400g)","designatedDate":"","lat":37.471001,"lng":126.6260327,"region":"인천광역시","source":"goodprice","goodpriceMenus":[{"name":"방목흑돼지(400g)","price":"42000"}]},{"id":"goodprice-incheon-29","name":"백원이네","address":"인천광역시중구예단포1로2-10(운북동)","jibunAddress":"","phone":"032-751-5059","foodType":"한식","mainFood":"해물라면","designatedDate":"","lat":37.5286026,"lng":126.504267,"region":"인천광역시","source":"goodprice","goodpriceMenus":[{"name":"해물라면","price":"6000"}]},{"id":"goodprice-incheon-30","name":"할매왕족발순대","address":"인천광역시중구우현로45번길11(신포동)","jibunAddress":"","phone":"032-772-6919","foodType":"한식","mainFood":"순대국밥","designatedDate":"","lat":37.4712579,"lng":126.6272606,"region":"인천광역시","source":"goodprice","goodpriceMenus":[{"name":"순대국밥","price":"9000"},{"name":"냉면","price":"4000"}]},{"id":"goodprice-incheon-31","name":"회마트","address":"인천광역시중구개항로96번길27(율목동)","jibunAddress":"","phone":"032-777-2077","foodType":"한식","mainFood":"광어회(중)","designatedDate":"","lat":37.4712881,"lng":126.6336698,"region":"인천광역시","source":"goodprice","goodpriceMenus":[{"name":"광어회(중)","price":"27000"}]},{"id":"goodprice-incheon-32","name":"도래순","address":"인천광역시중구신포로15번길68-11층(해안동2가)","jibunAddress":"","phone":"032-766-3907","foodType":"중식","mainFood":"짜장면","designatedDate":"","lat":37.4715777,"lng":126.6224579,"region":"인천광역시","source":"goodprice","goodpriceMenus":[{"name":"짜장면","price":"7000"},{"name":"짬뽕","price":"8000"},{"name":"오늘의점심","price":"7000"}]},{"id":"goodprice-incheon-33","name":"신포대패","address":"인천광역시중구개항로23(관동3가)","jibunAddress":"","phone":"032-765-5237","foodType":"한식","mainFood":"신포대패(120g)","designatedDate":"","lat":37.4718782,"lng":126.6258919,"region":"인천광역시","source":"goodprice","goodpriceMenus":[{"name":"신포대패(120g)","price":"6000"},{"name":"냉동삼겹(120g)","price":"6000"}]},{"id":"goodprice-incheon-34","name":"청수식당","address":"인천광역시중구제물량로206번길3(해안동2가)","jibunAddress":"","phone":"032-765-8586","foodType":"한식","mainFood":"오삼불고기","designatedDate":"","lat":37.4723974,"lng":126.6222426,"region":"인천광역시","source":"goodprice","goodpriceMenus":[{"name":"오삼불고기","price":"9000"}]},{"id":"goodprice-incheon-35","name":"골목집","address":"인천광역시중구신포로32-22(신포동)","jibunAddress":"","phone":"032-765-3149","foodType":"한식","mainFood":"칼국수","designatedDate":"","lat":37.4726651,"lng":126.6262175,"region":"인천광역시","source":"goodprice","goodpriceMenus":[{"name":"칼국수","price":"7000"},{"name":"수제비","price":"7500"},{"name":"쫄면","price":"7500"}]},{"id":"goodprice-incheon-36","name":"월미식당","address":"인천광역시중구월미로234번길6(북성동1가)","jibunAddress":"","phone":"032-761-6800","foodType":"한식","mainFood":"짜장면","designatedDate":"","lat":37.4754901,"lng":126.5988756,"region":"인천광역시","source":"goodprice","goodpriceMenus":[{"name":"짜장면","price":"7000"},{"name":"새우우동","price":"7000"},{"name":"해물라면","price":"8000"},{"name":"냉면","price":"8000"}]},{"id":"goodprice-incheon-37","name":"철이네손수제비랑칼국수(신포)","address":"인천광역시중구개항로9-11층(중앙동4가)","jibunAddress":"","phone":"032-777-1159","foodType":"한식","mainFood":"얼큰수제비","designatedDate":"","lat":37.4718782,"lng":126.6258919,"region":"인천광역시","source":"goodprice","goodpriceMenus":[{"name":"얼큰수제비","price":"7000"},{"name":"수제비","price":"7000"}]},{"id":"goodprice-incheon-38","name":"철이네손수제비랑칼국수(신흥)","address":"인천광역시중구인중로144번길71-1(답동)","jibunAddress":"","phone":"032-204-8990","foodType":"한식","mainFood":"수제비","designatedDate":"","lat":37.4671932,"lng":126.629356,"region":"인천광역시","source":"goodprice","goodpriceMenus":[{"name":"수제비","price":"7000"},{"name":"칼국수","price":"7000"}]},{"id":"goodprice-incheon-39","name":"김윤식의착한국수&솥뚜껑삼겹살","address":"인천광역시중구운중로82층(운남동)","jibunAddress":"","phone":"032-255-9510","foodType":"한식","mainFood":"국수&떡갈비","designatedDate":"","lat":37.4944666,"lng":126.5458031,"region":"인천광역시","source":"goodprice","goodpriceMenus":[{"name":"국수&떡갈비","price":"8000"},{"name":"삼겹살(200g)","price":"16000"}]},{"id":"goodprice-incheon-41","name":"우리두리머물다","address":"인천광역시중구제물량로166번길51층(신생동)","jibunAddress":"","phone":"0507-1446-1503","foodType":"기타","mainFood":"미식혜(500ml)","designatedDate":"","lat":37.471001,"lng":126.6260327,"region":"인천광역시","source":"goodprice","goodpriceMenus":[{"name":"미식혜(500ml)","price":"3000"},{"name":"박식혜(500ml)","price":"3500"}]},{"id":"goodprice-incheon-42","name":"일등짬뽕","address":"인천광역시중구운중로281층(운남동)","jibunAddress":"","phone":"032-747-0660","foodType":"중식","mainFood":"짜장면","designatedDate":"","lat":37.4944666,"lng":126.5458031,"region":"인천광역시","source":"goodprice","goodpriceMenus":[{"name":"짜장면","price":"6000"},{"name":"짬뽕","price":"8500"}]},{"id":"goodprice-incheon-43","name":"조은전골칼국수","address":"인천광역시중구운중로841층(운남동)","jibunAddress":"","phone":"","foodType":"한식","mainFood":"칼국수&보쌈(무한리필)","designatedDate":"","lat":37.4944666,"lng":126.5458031,"region":"인천광역시","source":"goodprice","goodpriceMenus":[{"name":"칼국수&보쌈(무한리필)","price":"13000"}]},{"id":"goodprice-incheon-44","name":"가마두담","address":"인천광역시중구월촌길341층(중산동)","jibunAddress":"","phone":"0507-5116-2226","foodType":"한식","mainFood":"김치찜(2인)","designatedDate":"","lat":37.4965434,"lng":126.5658213,"region":"인천광역시","source":"goodprice","goodpriceMenus":[{"name":"김치찜(2인)","price":"24000"},{"name":"콩국수","price":"10000"}]},{"id":"goodprice-incheon-45","name":"금촌집","address":"인천광역시중구우현로90번길19-11층(인현동)","jibunAddress":"","phone":"032-772-9324","foodType":"한식","mainFood":"부대찌개(2인)","designatedDate":"","lat":37.4740396,"lng":126.6312199,"region":"인천광역시","source":"goodprice","goodpriceMenus":[{"name":"부대찌개(2인)","price":"18000"}]},{"id":"goodprice-incheon-46","name":"다정가마솥손두부","address":"인천광역시중구운중로140-41층(중산동)","jibunAddress":"","phone":"0507-1320-8254","foodType":"한식","mainFood":"초당(백)순두부","designatedDate":"","lat":37.4944666,"lng":126.5458031,"region":"인천광역시","source":"goodprice","goodpriceMenus":[{"name":"초당(백)순두부","price":"9000"}]},{"id":"goodprice-incheon-47","name":"명진일식","address":"인천광역시중구신포로23번길211층(중앙동4가)","jibunAddress":"","phone":"032-772-8833","foodType":"일식","mainFood":"한상차림(4인)","designatedDate":"","lat":37.4725088,"lng":126.6223296,"region":"인천광역시","source":"goodprice","goodpriceMenus":[{"name":"한상차림(4인)","price":"53000"}]},{"id":"goodprice-incheon-48","name":"삼미","address":"인천광역시중구제물량로210-41층(해안동2가)","jibunAddress":"","phone":"032-812-4055","foodType":"기타","mainFood":"치즈카야토스트","designatedDate":"","lat":37.4793055,"lng":126.6197971,"region":"인천광역시","source":"goodprice","goodpriceMenus":[{"name":"치즈카야토스트","price":"4000"}]},{"id":"goodprice-incheon-49","name":"소미국수","address":"인천광역시중구서해대로486-21층(유동)","jibunAddress":"","phone":"032-773-1003","foodType":"한식","mainFood":"감자칼국수","designatedDate":"","lat":37.471932,"lng":126.637783,"region":"인천광역시","source":"goodprice","goodpriceMenus":[{"name":"감자칼국수","price":"9000"}]},{"id":"goodprice-incheon-50","name":"옹진찰밥","address":"인천광역시중구제물량로306번길451층(북성동2가)","jibunAddress":"","phone":"032-765-2773","foodType":"한식","mainFood":"소라된장찌개","designatedDate":"","lat":37.4774864,"lng":126.61798,"region":"인천광역시","source":"goodprice","goodpriceMenus":[{"name":"소라된장찌개","price":"8000"}]},{"id":"goodprice-incheon-51","name":"제이콥스핏제리아","address":"인천광역시중구우현로45번길291층(신포동)","jibunAddress":"","phone":"0507-1498-1123","foodType":"양식","mainFood":"마르게리타","designatedDate":"","lat":37.4712579,"lng":126.6272606,"region":"인천광역시","source":"goodprice","goodpriceMenus":[{"name":"마르게리타","price":"12000"}]},{"id":"goodprice-incheon-52","name":"진국","address":"인천광역시중구제물량로245-21층(항동1가)","jibunAddress":"","phone":"032-772-0321","foodType":"한식","mainFood":"콩나물국밥","designatedDate":"","lat":37.4701422,"lng":126.6272229,"region":"인천광역시","source":"goodprice","goodpriceMenus":[{"name":"콩나물국밥","price":"6000"},{"name":"사골곰탕","price":"9000"}]},{"id":"goodprice-incheon-53","name":"진흥각","address":"인천광역시중구신포로23번길201층(중앙동4가)","jibunAddress":"","phone":"032-772-3058","foodType":"중식","mainFood":"유니짜장","designatedDate":"","lat":37.4725088,"lng":126.6223296,"region":"인천광역시","source":"goodprice","goodpriceMenus":[{"name":"유니짜장","price":"6500"},{"name":"탕수육(소)","price":"18000"}]},{"id":"goodprice-incheon-54","name":"화양식","address":"인천광역시중구개항로811층(경동)","jibunAddress":"","phone":"0507-1348-7897","foodType":"양식","mainFood":"알리오올리오파스타","designatedDate":"","lat":37.4725707,"lng":126.6345717,"region":"인천광역시","source":"goodprice","goodpriceMenus":[{"name":"알리오올리오파스타","price":"12000"},{"name":"칠리가지탕수","price":"16000"}]},{"id":"goodprice-incheon-55","name":"우현족발","address":"인천광역시중구우현로49번길2-71층(내동)","jibunAddress":"","phone":"032-777-8837","foodType":"한식","mainFood":"무한리필(족발보쌈매운족발감자탕)","designatedDate":"","lat":37.4716493,"lng":126.6275104,"region":"인천광역시","source":"goodprice","goodpriceMenus":[{"name":"무한리필(족발보쌈매운족발감자탕)","price":"14000"},{"name":"족발(大)","price":"35000"},{"name":"우거지해장국","price":"5000"}]},{"id":"goodprice-incheon-57","name":"삼시국수","address":"인천광역시중구운중로971층(운남동)","jibunAddress":"","phone":"0507-1479-2358","foodType":"한식","mainFood":"멸치국수","designatedDate":"","lat":37.4944666,"lng":126.5458031,"region":"인천광역시","source":"goodprice","goodpriceMenus":[{"name":"멸치국수","price":"7000"},{"name":"수육","price":"15000"}]},{"id":"goodprice-incheon-58","name":"가성비한식뷔페","address":"인천광역시중구하늘중앙로225번길11206207호(중산동)","jibunAddress":"","phone":"","foodType":"한식","mainFood":"성인","designatedDate":"","lat":37.4873258,"lng":126.5592825,"region":"인천광역시","source":"goodprice","goodpriceMenus":[{"name":"성인","price":"9000"}]},{"id":"goodprice-incheon-59","name":"마카롱데이즈","address":"인천광역시중구우현로35번길13-21층(신생동)","jibunAddress":"","phone":"0507-1485-5016","foodType":"기타","mainFood":"다쿠마롱(10개이상주문시)","designatedDate":"","lat":37.4705457,"lng":126.626242,"region":"인천광역시","source":"goodprice","goodpriceMenus":[{"name":"다쿠마롱(10개이상주문시)","price":"1700"},{"name":"다쿠마롱(10개이하주문시)","price":"1800"},{"name":"아메리카노","price":"1900"}]},{"id":"goodprice-incheon-60","name":"별밤이닭","address":"인천광역시중구햇내로13번길8106호(운서동)","jibunAddress":"","phone":"0507-1328-1631","foodType":"한식","mainFood":"닭도리탕","designatedDate":"","lat":37.4910366,"lng":126.4961491,"region":"인천광역시","source":"goodprice","goodpriceMenus":[{"name":"닭도리탕","price":"29000"},{"name":"닭도리탕+치즈계란말이","price":"39000"}]},{"id":"goodprice-incheon-61","name":"복락만두","address":"인천광역시중구신포로27번길491층(중앙동3가)","jibunAddress":"","phone":"032-772-8868","foodType":"중식","mainFood":"찐만두","designatedDate":"","lat":37.4728051,"lng":126.6225699,"region":"인천광역시","source":"goodprice","goodpriceMenus":[{"name":"찐만두","price":"6000"}]},{"id":"goodprice-incheon-62","name":"여수족발(영종도하늘도시점)","address":"인천광역시중구두미포로112상가동1층(중산동)","jibunAddress":"","phone":"070-7776-8749","foodType":"한식","mainFood":"족발A","designatedDate":"","lat":37.4941122,"lng":126.5684605,"region":"인천광역시","source":"goodprice","goodpriceMenus":[{"name":"족발A","price":"25000"}]},{"id":"goodprice-incheon-63","name":"우화미","address":"인천광역시중구개항로111층(중앙동4가)","jibunAddress":"","phone":"032-777-6100","foodType":"한식","mainFood":"한돈세트(600g)","designatedDate":"","lat":37.4718782,"lng":126.6258919,"region":"인천광역시","source":"goodprice","goodpriceMenus":[{"name":"한돈세트(600g)","price":"39900"}]},{"id":"goodprice-incheon-64","name":"진순두부","address":"인천광역시중구우현로35번길24-31층(신포동)","jibunAddress":"","phone":"032-764-9898","foodType":"한식","mainFood":"바지락순두부+솥밥","designatedDate":"","lat":37.4705457,"lng":126.626242,"region":"인천광역시","source":"goodprice","goodpriceMenus":[{"name":"바지락순두부+솥밥","price":"10000"},{"name":"들깨버섯순두부+솥밥","price":"10000"},{"name":"청국장순두부+솥밥","price":"10000"},{"name":"굴순두부+솥밥","price":"10000"}]},{"id":"goodprice-incheon-65","name":"명동식당","address":"인천광역시중구답동로30번길25(경동)","jibunAddress":"","phone":"032-765-5668","foodType":"한식","mainFood":"칼국수","designatedDate":"","lat":37.4715455,"lng":126.6322444,"region":"인천광역시","source":"goodprice","goodpriceMenus":[{"name":"칼국수","price":"7000"},{"name":"돈가스","price":"8000"}]},{"id":"goodprice-incheon-66","name":"신대청마루","address":"인천광역시동구방축로105(송림동산업용품유통센타편익C동지하21호)","jibunAddress":"","phone":"032-589-2355","foodType":"한식","mainFood":"백반","designatedDate":"","lat":37.4803896,"lng":126.6635622,"region":"인천광역시","source":"goodprice","goodpriceMenus":[{"name":"백반","price":"7000"}]},{"id":"goodprice-incheon-67","name":"아구군갈비양","address":"인천광역시동구샛골로117-1(송림동)","jibunAddress":"","phone":"032-766-5002","foodType":"한식","mainFood":"백반","designatedDate":"","lat":37.4712685,"lng":126.6430183,"region":"인천광역시","source":"goodprice","goodpriceMenus":[{"name":"백반","price":"6000"},{"name":"해물부대찌개","price":"8000"}]},{"id":"goodprice-incheon-68","name":"화도진순대국","address":"인천광역시동구운교로12(화수동)","jibunAddress":"","phone":"032-777-1289","foodType":"한식","mainFood":"순대국","designatedDate":"","lat":37.479941,"lng":126.628458,"region":"인천광역시","source":"goodprice","goodpriceMenus":[{"name":"순대국","price":"9000"},{"name":"설렁탕","price":"9000"}]},{"id":"goodprice-incheon-69","name":"문성각","address":"인천광역시동구송미로351층(송림동)","jibunAddress":"","phone":"032-777-0400","foodType":"중식","mainFood":"짜장면","designatedDate":"","lat":37.4815515,"lng":126.6484826,"region":"인천광역시","source":"goodprice","goodpriceMenus":[{"name":"짜장면","price":"5000"},{"name":"짬뽕","price":"5500"}]},{"id":"goodprice-incheon-70","name":"벽란식당","address":"인천광역시동구화도진로102-41층(화수동)","jibunAddress":"","phone":"032-766-7022","foodType":"한식","mainFood":"벤뎅이덮밥","designatedDate":"","lat":37.4750695,"lng":126.635185,"region":"인천광역시","source":"goodprice","goodpriceMenus":[{"name":"벤뎅이덮밥","price":"9000"},{"name":"한치덮밥","price":"10000"}]},{"id":"goodprice-incheon-71","name":"횡성생고기","address":"인천광역시동구송화로20번길111층(화평동)","jibunAddress":"","phone":"032-766-2886","foodType":"한식","mainFood":"생삼겹살","designatedDate":"","lat":37.4787133,"lng":126.6324558,"region":"인천광역시","source":"goodprice","goodpriceMenus":[{"name":"생삼겹살","price":"11900"}]},{"id":"goodprice-incheon-72","name":"청해물텀벙","address":"인천광역시동구수문통로5-11층(화평동)","jibunAddress":"","phone":"032-761-4140","foodType":"한식","mainFood":"아구뚝배기","designatedDate":"","lat":37.4800663,"lng":126.6347829,"region":"인천광역시","source":"goodprice","goodpriceMenus":[{"name":"아구뚝배기","price":"10000"},{"name":"복매운탕","price":"12000"}]},{"id":"goodprice-incheon-73","name":"한울타리","address":"인천광역시동구석수로47-1(만석동)","jibunAddress":"","phone":"032-221-8887","foodType":"한식","mainFood":"청국장","designatedDate":"","lat":37.4813514,"lng":126.6266073,"region":"인천광역시","source":"goodprice","goodpriceMenus":[{"name":"청국장","price":"8000"},{"name":"된장찌개","price":"8000"}]},{"id":"goodprice-incheon-74","name":"해주식당","address":"인천광역시동구화도진로44번길31층송현시장내(송현동)","jibunAddress":"","phone":"032-888-4009","foodType":"한식","mainFood":"백반","designatedDate":"","lat":37.4763798,"lng":126.6342734,"region":"인천광역시","source":"goodprice","goodpriceMenus":[{"name":"백반","price":"8000"}]},{"id":"goodprice-incheon-75","name":"일월아구","address":"인천광역시동구수문통로42층(송현동)","jibunAddress":"","phone":"032-773-5076","foodType":"한식","mainFood":"쭈꾸미쌈밥정식","designatedDate":"","lat":37.4800663,"lng":126.6347829,"region":"인천광역시","source":"goodprice","goodpriceMenus":[{"name":"쭈꾸미쌈밥정식","price":"10000"}]},{"id":"goodprice-incheon-76","name":"몽실식당","address":"인천광역시동구화평로41층(화평동)","jibunAddress":"","phone":"032-765-1650","foodType":"한식","mainFood":"냉면+불고기","designatedDate":"","lat":37.4784213,"lng":126.6295589,"region":"인천광역시","source":"goodprice","goodpriceMenus":[{"name":"냉면+불고기","price":"9000"}]},{"id":"goodprice-incheon-77","name":"대청마루감자탕","address":"인천광역시동구금곡로104(송림동)","jibunAddress":"","phone":"032-773-1885","foodType":"한식","mainFood":"뼈해장국","designatedDate":"","lat":37.4733223,"lng":126.6398589,"region":"인천광역시","source":"goodprice","goodpriceMenus":[{"name":"뼈해장국","price":"9000"},{"name":"우거지해장국","price":"7000"}]},{"id":"goodprice-incheon-78","name":"어도(魚島)","address":"인천광역시동구금곡로56-11층(금곡동)","jibunAddress":"","phone":"032-761-8887","foodType":"한식","mainFood":"순두부","designatedDate":"","lat":37.4746531,"lng":126.6471517,"region":"인천광역시","source":"goodprice","goodpriceMenus":[{"name":"순두부","price":"8000"},{"name":"청국장","price":"8000"}]},{"id":"goodprice-incheon-79","name":"무지개상회","address":"인천광역시동구중앙로151층(금곡동)","jibunAddress":"","phone":"070-8818-1919","foodType":"기타","mainFood":"아메리카노","designatedDate":"","lat":37.4744421,"lng":126.6342369,"region":"인천광역시","source":"goodprice","goodpriceMenus":[{"name":"아메리카노","price":"1500"},{"name":"호떡와플","price":"2000"}]},{"id":"goodprice-incheon-80","name":"석이네분식","address":"인천광역시동구샛골로162번길171층(송림동)","jibunAddress":"","phone":"","foodType":"한식","mainFood":"백반","designatedDate":"","lat":37.4773236,"lng":126.6474588,"region":"인천광역시","source":"goodprice","goodpriceMenus":[{"name":"백반","price":"7000"},{"name":"칼국수","price":"6000"}]},{"id":"goodprice-incheon-81","name":"금창식당","address":"인천광역시동구금창로561층(금곡동)","jibunAddress":"","phone":"032-777-1271","foodType":"한식","mainFood":"쌈밥","designatedDate":"","lat":37.4718821,"lng":126.6418612,"region":"인천광역시","source":"goodprice","goodpriceMenus":[{"name":"쌈밥","price":"10000"}]},{"id":"goodprice-incheon-82","name":"유풍반점","address":"인천광역시동구샛골로194번길161층(송림동)","jibunAddress":"","phone":"032-772-5119","foodType":"중식","mainFood":"짜장면","designatedDate":"","lat":37.4793081,"lng":126.6466115,"region":"인천광역시","source":"goodprice","goodpriceMenus":[{"name":"짜장면","price":"5000"}]},{"id":"goodprice-incheon-83","name":"갓구워낸빵","address":"인천광역시동구샛골로1731층(송림동)","jibunAddress":"","phone":"032-567-9019","foodType":"기타","mainFood":"단팥빵","designatedDate":"","lat":37.4668248,"lng":126.6418374,"region":"인천광역시","source":"goodprice","goodpriceMenus":[{"name":"단팥빵","price":"1200"},{"name":"크림빵","price":"1200"}]},{"id":"goodprice-incheon-84","name":"시온이네집밥","address":"인천광역시동구샛골로168-31층(송림동)","jibunAddress":"","phone":"032-710-9274","foodType":"한식","mainFood":"청국장","designatedDate":"","lat":37.4712685,"lng":126.6430183,"region":"인천광역시","source":"goodprice","goodpriceMenus":[{"name":"청국장","price":"6000"}]},{"id":"goodprice-incheon-85","name":"밥심","address":"인천광역시동구샛골로1291층(송림동)","jibunAddress":"","phone":"032-766-5648","foodType":"한식","mainFood":"한식부페","designatedDate":"","lat":37.4712685,"lng":126.6430183,"region":"인천광역시","source":"goodprice","goodpriceMenus":[{"name":"한식부페","price":"8000"}]},{"id":"goodprice-incheon-86","name":"냠냠분식","address":"인천광역시동구수문통로391층(송현동)","jibunAddress":"","phone":"032-777-3355","foodType":"한식","mainFood":"떡볶이","designatedDate":"","lat":37.4801375,"lng":126.6346838,"region":"인천광역시","source":"goodprice","goodpriceMenus":[{"name":"떡볶이","price":"3500"},{"name":"튀김만두(2개)","price":"1000"}]},{"id":"goodprice-incheon-87","name":"와글와글맛있는국수집","address":"인천광역시동구솔빛로87-11층(송림동)","jibunAddress":"","phone":"032-764-3959","foodType":"한식","mainFood":"진치국수","designatedDate":"","lat":37.4767072,"lng":126.6400158,"region":"인천광역시","source":"goodprice","goodpriceMenus":[{"name":"진치국수","price":"4000"},{"name":"수제비","price":"5000"}]},{"id":"goodprice-incheon-88","name":"하루도넛","address":"인천광역시동구송림로106-112층(송림동)","jibunAddress":"","phone":"032-777-1648","foodType":"기타","mainFood":"꽈배기","designatedDate":"","lat":37.4744756,"lng":126.6404046,"region":"인천광역시","source":"goodprice","goodpriceMenus":[{"name":"꽈배기","price":"800"}]},{"id":"goodprice-incheon-89","name":"대성각","address":"인천광역시동구금곡로82번길5(송림동)","jibunAddress":"","phone":"032-763-4079","foodType":"중식","mainFood":"짜장면","designatedDate":"","lat":37.4725987,"lng":126.6444666,"region":"인천광역시","source":"goodprice","goodpriceMenus":[{"name":"짜장면","price":"4500"}]},{"id":"goodprice-incheon-90","name":"브레드오뉴(BreadOnu)","address":"인천광역시동구송미로501층2층일부호(송림동)","jibunAddress":"","phone":"032-777-4997","foodType":"기타","mainFood":"단팥빵","designatedDate":"","lat":37.4815515,"lng":126.6484826,"region":"인천광역시","source":"goodprice","goodpriceMenus":[{"name":"단팥빵","price":"2000"},{"name":"소보루","price":"2200"}]},{"id":"goodprice-incheon-91","name":"제이엔케이(J&K)푸드","address":"인천광역시동구인중로614상가동1층103호(송현동송현동누리아파트)","jibunAddress":"","phone":"1899-0445","foodType":"한식","mainFood":"1인보온도시락","designatedDate":"","lat":37.4808005,"lng":126.6400806,"region":"인천광역시","source":"goodprice","goodpriceMenus":[{"name":"1인보온도시락","price":"6600"}]},{"id":"goodprice-incheon-92","name":"브레드나눔터","address":"인천광역시동구화도진로361층(송현동)","jibunAddress":"","phone":"","foodType":"기타","mainFood":"꽈배기12개","designatedDate":"","lat":37.4750695,"lng":126.635185,"region":"인천광역시","source":"goodprice","goodpriceMenus":[{"name":"꽈배기12개","price":"5000"},{"name":"찹쌀도너츠10개","price":"5000"}]},{"id":"goodprice-incheon-93","name":"일품해장국","address":"인천광역시동구화도진로421층(송현동)","jibunAddress":"","phone":"032-885-1822","foodType":"한식","mainFood":"선지해장국","designatedDate":"","lat":37.474849,"lng":126.6352501,"region":"인천광역시","source":"goodprice","goodpriceMenus":[{"name":"선지해장국","price":"6000"},{"name":"우거지해장국","price":"6000"}]},{"id":"goodprice-incheon-94","name":"모모식당","address":"인천광역시동구화수로71층102호(송현동센타빌딩)","jibunAddress":"","phone":"032-213-2434","foodType":"양식","mainFood":"모모등심돈까스","designatedDate":"","lat":37.4827431,"lng":126.6333376,"region":"인천광역시","source":"goodprice","goodpriceMenus":[{"name":"모모등심돈까스","price":"10000"}]},{"id":"goodprice-incheon-95","name":"서미모밀촌","address":"인천광역시동구샛골로129-11층(송림동)","jibunAddress":"","phone":"","foodType":"한식","mainFood":"메밀국수","designatedDate":"","lat":37.4712685,"lng":126.6430183,"region":"인천광역시","source":"goodprice","goodpriceMenus":[{"name":"메밀국수","price":"7500"}]},{"id":"goodprice-incheon-96","name":"선이네생선구이","address":"인천광역시동구샛골로128-1(송림동)","jibunAddress":"","phone":"032-762-4358","foodType":"한식","mainFood":"생선구이","designatedDate":"","lat":37.4712685,"lng":126.6430183,"region":"인천광역시","source":"goodprice","goodpriceMenus":[{"name":"생선구이","price":"10000"}]},{"id":"goodprice-incheon-97","name":"만석골","address":"인천광역시동구화도진로192번길21층101호(만석동계성빌라)","jibunAddress":"","phone":"032-766-8080","foodType":"한식","mainFood":"육개장","designatedDate":"","lat":37.4860931,"lng":126.6226962,"region":"인천광역시","source":"goodprice","goodpriceMenus":[{"name":"육개장","price":"10000"}]},{"id":"goodprice-incheon-99","name":"카페립","address":"인천광역시동구박문로1청소년센터3층(송림동)","jibunAddress":"","phone":"070-4443-1726","foodType":"기타","mainFood":"휘낭시에플레인","designatedDate":"","lat":37.4701517,"lng":126.6505716,"region":"인천광역시","source":"goodprice","goodpriceMenus":[{"name":"휘낭시에플레인","price":"2000"},{"name":"르뱅쿠키오리지널","price":"3000"}]},{"id":"goodprice-incheon-100","name":"송학남원추어탕","address":"인천광역시동구수문통로15(송현동)","jibunAddress":"","phone":"032-765-5256","foodType":"한식","mainFood":"추어탕","designatedDate":"","lat":37.4801375,"lng":126.6346838,"region":"인천광역시","source":"goodprice","goodpriceMenus":[{"name":"추어탕","price":"10000"},{"name":"닭개장","price":"9000"},{"name":"돈가스","price":"8000"},{"name":"꼬물이만두","price":"5000"}]},{"id":"goodprice-incheon-101","name":"잘된정","address":"인천광역시동구동산로68(송림동)","jibunAddress":"","phone":"032-761-0038","foodType":"중식","mainFood":"짜장면","designatedDate":"","lat":37.470009,"lng":126.6498405,"region":"인천광역시","source":"goodprice","goodpriceMenus":[{"name":"짜장면","price":"5000"},{"name":"짬뽕","price":"6000"}]},{"id":"goodprice-incheon-102","name":"대박집","address":"인천광역시미추홀구미추홀대로707(주안동)","jibunAddress":"","phone":"032-861-4147","foodType":"한식","mainFood":"삼겹살(200g)","designatedDate":"","lat":37.4558107,"lng":126.6799687,"region":"인천광역시","source":"goodprice","goodpriceMenus":[{"name":"삼겹살(200g)","price":"9340"},{"name":"김치찌개","price":"7000"}]},{"id":"goodprice-incheon-103","name":"해와달","address":"인천광역시미추홀구주안로90번길39(주안동)","jibunAddress":"","phone":"032-874-3266","foodType":"한식","mainFood":"수제돈가스","designatedDate":"","lat":37.4628931,"lng":126.6795181,"region":"인천광역시","source":"goodprice","goodpriceMenus":[{"name":"수제돈가스","price":"9000"},{"name":"제육덮밥","price":"8000"}]},{"id":"goodprice-incheon-104","name":"국민짬뽕","address":"인천광역시미추홀구인하로272(주안동)","jibunAddress":"","phone":"032-873-8856","foodType":"중식","mainFood":"자장면","designatedDate":"","lat":37.4483289,"lng":126.6756083,"region":"인천광역시","source":"goodprice","goodpriceMenus":[{"name":"자장면","price":"5000"},{"name":"짬뽕","price":"7000"}]},{"id":"goodprice-incheon-105","name":"김밥짜장","address":"인천광역시미추홀구주안로86(주안동)","jibunAddress":"","phone":"032-873-8234","foodType":"한식","mainFood":"김치찌개","designatedDate":"","lat":37.4636276,"lng":126.6897718,"region":"인천광역시","source":"goodprice","goodpriceMenus":[{"name":"김치찌개","price":"4000"},{"name":"자장면","price":"3500"}]},{"id":"goodprice-incheon-106","name":"다우리식당","address":"인천광역시미추홀구인하로67번길16(용현동)","jibunAddress":"","phone":"032-874-6616","foodType":"한식","mainFood":"된장찌개","designatedDate":"","lat":37.4522452,"lng":126.6562281,"region":"인천광역시","source":"goodprice","goodpriceMenus":[{"name":"된장찌개","price":"7000"},{"name":"김치찌개","price":"7000"}]},{"id":"goodprice-incheon-107","name":"당가네대박삼겹","address":"인천광역시미추홀구인하로77번길30(용현동)","jibunAddress":"","phone":"032-866-1991","foodType":"한식","mainFood":"삼겹살(150g)","designatedDate":"","lat":37.4522828,"lng":126.6574783,"region":"인천광역시","source":"goodprice","goodpriceMenus":[{"name":"삼겹살(150g)","price":"7500"},{"name":"김치찌개","price":"5000"}]},{"id":"goodprice-incheon-108","name":"도원","address":"인천광역시미추홀구토금중로40번길26(용현동)","jibunAddress":"","phone":"032-887-9664","foodType":"중식","mainFood":"자장면","designatedDate":"","lat":37.4521177,"lng":126.6373467,"region":"인천광역시","source":"goodprice","goodpriceMenus":[{"name":"자장면","price":"5000"},{"name":"짬뽕","price":"6000"}]},{"id":"goodprice-incheon-109","name":"딕인차이나","address":"인천광역시미추홀구석산로42(주안동)","jibunAddress":"","phone":"032-442-6666","foodType":"중식","mainFood":"자장면","designatedDate":"","lat":37.4615268,"lng":126.6967083,"region":"인천광역시","source":"goodprice","goodpriceMenus":[{"name":"자장면","price":"4000"},{"name":"짬뽕","price":"6000"}]},{"id":"goodprice-incheon-110","name":"맛사랑","address":"인천광역시미추홀구인하로77번길6-26(용현동)","jibunAddress":"","phone":"032-872-5181","foodType":"한식","mainFood":"수제돈까스","designatedDate":"","lat":37.4522828,"lng":126.6574783,"region":"인천광역시","source":"goodprice","goodpriceMenus":[{"name":"수제돈까스","price":"7000"},{"name":"오징어볶음","price":"7000"}]},{"id":"goodprice-incheon-111","name":"백년갈비","address":"인천광역시미추홀구석정로236-1(도화동)","jibunAddress":"","phone":"032-884-1362","foodType":"한식","mainFood":"설렁탕","designatedDate":"","lat":37.4646733,"lng":126.6444178,"region":"인천광역시","source":"goodprice","goodpriceMenus":[{"name":"설렁탕","price":"8000"},{"name":"갈비탕","price":"8000"}]},{"id":"goodprice-incheon-112","name":"삼삼오오","address":"인천광역시미추홀구인하로83나동1층(용현동)","jibunAddress":"","phone":"032-872-6651","foodType":"한식","mainFood":"부대찌개","designatedDate":"","lat":37.447427,"lng":126.6786206,"region":"인천광역시","source":"goodprice","goodpriceMenus":[{"name":"부대찌개","price":"7000"},{"name":"제육덮밥","price":"7000"}]},{"id":"goodprice-incheon-113","name":"숯불구이먹방(주안점)","address":"인천광역시미추홀구석바위로77-6(주안동)","jibunAddress":"","phone":"032-422-5339","foodType":"한식","mainFood":"생삼겹(150g)","designatedDate":"","lat":37.4610484,"lng":126.6812703,"region":"인천광역시","source":"goodprice","goodpriceMenus":[{"name":"생삼겹(150g)","price":"7500"},{"name":"돼지왕갈비(260g)","price":"8900"}]},{"id":"goodprice-incheon-114","name":"쑥골국수집","address":"인천광역시미추홀구주안로5(도화동)","jibunAddress":"","phone":"032-864-0302","foodType":"한식","mainFood":"왕돈까스","designatedDate":"","lat":37.4638779,"lng":126.6844454,"region":"인천광역시","source":"goodprice","goodpriceMenus":[{"name":"왕돈까스","price":"6000"},{"name":"잔치국수","price":"4000"}]},{"id":"goodprice-incheon-115","name":"짜장전설","address":"인천광역시미추홀구인하로77번길33(용현동)","jibunAddress":"","phone":"032-861-0660","foodType":"중식","mainFood":"자장면","designatedDate":"","lat":37.4522828,"lng":126.6574783,"region":"인천광역시","source":"goodprice","goodpriceMenus":[{"name":"자장면","price":"5000"},{"name":"짬뽕","price":"6000"}]},{"id":"goodprice-incheon-116","name":"청해루","address":"인천광역시미추홀구학익소로61번길21-19(학익동)","jibunAddress":"","phone":"032-876-4007","foodType":"중식","mainFood":"짬뽕","designatedDate":"","lat":37.4427264,"lng":126.6738641,"region":"인천광역시","source":"goodprice","goodpriceMenus":[{"name":"짬뽕","price":"6000"},{"name":"자장면","price":"5000"}]},{"id":"goodprice-incheon-117","name":"김밥타운","address":"인천광역시미추홀구인하로259(주안동)","jibunAddress":"","phone":"032-863-6690","foodType":"한식","mainFood":"원조김밥","designatedDate":"","lat":37.447427,"lng":126.6786206,"region":"인천광역시","source":"goodprice","goodpriceMenus":[{"name":"원조김밥","price":"3000"},{"name":"칼국수","price":"6500"}]},{"id":"goodprice-incheon-118","name":"새우물식당","address":"인천광역시미추홀구미추로19번길14(숭의동)","jibunAddress":"","phone":"032-886-5239","foodType":"한식","mainFood":"삼겹살(100g)","designatedDate":"","lat":37.4620416,"lng":126.6459011,"region":"인천광역시","source":"goodprice","goodpriceMenus":[{"name":"삼겹살(100g)","price":"6000"},{"name":"하나돈가스","price":"7000"}]},{"id":"goodprice-incheon-119","name":"소와돼지방","address":"인천광역시미추홀구인하로293(주안동)","jibunAddress":"","phone":"032-421-1243","foodType":"한식","mainFood":"생삼겹(200g)","designatedDate":"","lat":37.4483289,"lng":126.6756083,"region":"인천광역시","source":"goodprice","goodpriceMenus":[{"name":"생삼겹(200g)","price":"9000"},{"name":"냉삼겹(200g)","price":"8000"}]},{"id":"goodprice-incheon-120","name":"신포수산","address":"인천광역시미추홀구제일로27번길3-1(도화동)","jibunAddress":"","phone":"032-867-4286","foodType":"한식","mainFood":"대구탕","designatedDate":"","lat":37.4600252,"lng":126.6733026,"region":"인천광역시","source":"goodprice","goodpriceMenus":[{"name":"대구탕","price":"8000"},{"name":"초밥","price":"12000"}]},{"id":"goodprice-incheon-121","name":"현대식당","address":"인천광역시미추홀구미추로36번길19-1(숭의동)","jibunAddress":"","phone":"032-888-6300","foodType":"한식","mainFood":"김치찌개","designatedDate":"","lat":37.463837,"lng":126.6482358,"region":"인천광역시","source":"goodprice","goodpriceMenus":[{"name":"김치찌개","price":"4000"},{"name":"제육볶음","price":"5000"}]},{"id":"goodprice-incheon-122","name":"숯불구이먹방(인하대점)","address":"인천광역시미추홀구경인남길30번길39(용현동)","jibunAddress":"","phone":"032-214-4544","foodType":"한식","mainFood":"육회비빔밥","designatedDate":"","lat":37.4515492,"lng":126.6579167,"region":"인천광역시","source":"goodprice","goodpriceMenus":[{"name":"육회비빔밥","price":"6000"},{"name":"보쌈정식","price":"7000"},{"name":"삼겹살(150g)","price":"6500"},{"name":"김치찌개","price":"5000"}]},{"id":"goodprice-incheon-123","name":"착한탕국","address":"인천광역시미추홀구인하로266번길29(주안동)","jibunAddress":"","phone":"032-872-8294","foodType":"한식","mainFood":"선짓국(2인분)","designatedDate":"","lat":37.4462116,"lng":126.6778129,"region":"인천광역시","source":"goodprice","goodpriceMenus":[{"name":"선짓국(2인분)","price":"7000"},{"name":"육개장(2인분)","price":"7000"},{"name":"곰탕(3인분)","price":"8000"},{"name":"도가니설렁탕(3인분)","price":"14000"}]},{"id":"goodprice-incheon-124","name":"도화차이나","address":"인천광역시미추홀구장고개로42번길19(도화동)","jibunAddress":"","phone":"032-434-0535","foodType":"중식","mainFood":"짜장면","designatedDate":"","lat":37.4707367,"lng":126.6687526,"region":"인천광역시","source":"goodprice","goodpriceMenus":[{"name":"짜장면","price":"4000"},{"name":"짬뽕","price":"5000"},{"name":"냉면","price":"6000"},{"name":"콩국수","price":"6000"}]},{"id":"goodprice-incheon-125","name":"왕가","address":"인천광역시미추홀구주안중로26-1(주안동)","jibunAddress":"","phone":"032-442-4560","foodType":"중식","mainFood":"짜장면","designatedDate":"","lat":37.4611372,"lng":126.6827028,"region":"인천광역시","source":"goodprice","goodpriceMenus":[{"name":"짜장면","price":"5000"},{"name":"짬뽕","price":"7000"}]},{"id":"goodprice-incheon-126","name":"카페나무아래","address":"인천광역시미추홀구수봉안길32(숭의동)","jibunAddress":"","phone":"032-873-2175","foodType":"한식","mainFood":"등심돈까스","designatedDate":"","lat":37.4620283,"lng":126.6597598,"region":"인천광역시","source":"goodprice","goodpriceMenus":[{"name":"등심돈까스","price":"8000"},{"name":"오므라이스","price":"7000"},{"name":"샐러드돈가스","price":"9000"},{"name":"우동","price":"5000"}]},{"id":"goodprice-incheon-127","name":"강원국수집","address":"인천광역시미추홀구독배로432번길4(용현동)","jibunAddress":"","phone":"032-887-6802","foodType":"한식","mainFood":"잔치국수","designatedDate":"","lat":37.4584817,"lng":126.6503708,"region":"인천광역시","source":"goodprice","goodpriceMenus":[{"name":"잔치국수","price":"5000"},{"name":"바지락칼국수","price":"7000"},{"name":"제육덮밥","price":"7000"},{"name":"메밀전","price":"15000"}]},{"id":"goodprice-incheon-128","name":"소문난식당","address":"인천광역시미추홀구독정이로942층(숭의동)","jibunAddress":"","phone":"032-465-3549","foodType":"한식","mainFood":"백반","designatedDate":"","lat":37.461174,"lng":126.6523701,"region":"인천광역시","source":"goodprice","goodpriceMenus":[{"name":"백반","price":"7000"}]},{"id":"goodprice-incheon-129","name":"이웃집","address":"인천광역시미추홀구독정이로69(숭의동)","jibunAddress":"","phone":"032-881-3634","foodType":"한식","mainFood":"김밥","designatedDate":"","lat":37.461174,"lng":126.6523701,"region":"인천광역시","source":"goodprice","goodpriceMenus":[{"name":"김밥","price":"3000"},{"name":"떡볶이","price":"3000"},{"name":"김치볶음밥","price":"5500"},{"name":"제육덮밥","price":"6500"}]},{"id":"goodprice-incheon-130","name":"홍가네","address":"인천광역시미추홀구석바위로101번길31-6(주안동수성주택)","jibunAddress":"","phone":"032-434-6853","foodType":"한식","mainFood":"제육덮밥","designatedDate":"","lat":37.46177,"lng":126.6840355,"region":"인천광역시","source":"goodprice","goodpriceMenus":[{"name":"제육덮밥","price":"7000"},{"name":"부대찌개쌈밥","price":"7000"},{"name":"김치찌개","price":"7000"},{"name":"알탕","price":"8000"}]},{"id":"goodprice-incheon-131","name":"본전집","address":"인천광역시미추홀구경인로326번길491층(주안동)","jibunAddress":"","phone":"032-868-9293","foodType":"한식","mainFood":"갈매기살(200g)","designatedDate":"","lat":37.456361,"lng":126.6757216,"region":"인천광역시","source":"goodprice","goodpriceMenus":[{"name":"갈매기살(200g)","price":"11000"},{"name":"주먹고기(200g)","price":"11000"},{"name":"돼지막창(200g)","price":"12000"}]},{"id":"goodprice-incheon-132","name":"숙이갈비","address":"인천광역시미추홀구인하로3071층(주안동)","jibunAddress":"","phone":"032-710-3328","foodType":"한식","mainFood":"돼지갈비(250g)","designatedDate":"","lat":37.4483289,"lng":126.6756083,"region":"인천광역시","source":"goodprice","goodpriceMenus":[{"name":"돼지갈비(250g)","price":"9900"},{"name":"육회비빔밥","price":"7500"}]},{"id":"goodprice-incheon-133","name":"루루네과자점","address":"인천광역시미추홀구낙섬중로63(용현동)103호","jibunAddress":"","phone":"","foodType":"기타","mainFood":"카페라떼/카푸치노","designatedDate":"","lat":37.4531178,"lng":126.638666,"region":"인천광역시","source":"goodprice","goodpriceMenus":[{"name":"카페라떼/카푸치노","price":"2000"},{"name":"카페모카/초코라떼","price":"2500"},{"name":"유자/자몽/오미자차","price":"2500"},{"name":"얼그레이/페퍼민트/캐모마일차","price":"2000"}]},{"id":"goodprice-incheon-134","name":"명가촌","address":"인천광역시미추홀구미추로36번길43(숭의동)1층","jibunAddress":"","phone":"032-881-5979","foodType":"한식","mainFood":"설렁탕","designatedDate":"","lat":37.463837,"lng":126.6482358,"region":"인천광역시","source":"goodprice","goodpriceMenus":[{"name":"설렁탕","price":"8000"},{"name":"갈비탕","price":"10000"},{"name":"황태해장국","price":"7000"}]},{"id":"goodprice-incheon-135","name":"모모라면","address":"인천광역시미추홀구석정로150번길43(도화동)1층","jibunAddress":"","phone":"032-888-7871","foodType":"한식","mainFood":"얼큰라면+밥","designatedDate":"","lat":37.4677045,"lng":126.6538103,"region":"인천광역시","source":"goodprice","goodpriceMenus":[{"name":"얼큰라면+밥","price":"4000"},{"name":"돈가스라면밥세트","price":"7000"},{"name":"제육덮밥","price":"6500"},{"name":"갈비탕","price":"6500"}]},{"id":"goodprice-incheon-136","name":"박승광샤브샤브","address":"인천광역시미추홀구매소홀로372(학익동).","jibunAddress":"","phone":"032-873-0940","foodType":"한식","mainFood":"소고기샤브세트1(2인)","designatedDate":"","lat":37.4392009,"lng":126.6797738,"region":"인천광역시","source":"goodprice","goodpriceMenus":[{"name":"소고기샤브세트1(2인)","price":"23000"},{"name":"소고기샤브세트2(2인)","price":"19000"},{"name":"소고기샤브(점심특선)","price":"10000"}]},{"id":"goodprice-incheon-137","name":"삼팔뚝배기","address":"인천광역시미추홀구매소홀로576번길16(문학동)1층","jibunAddress":"","phone":"032-252-9393","foodType":"한식","mainFood":"소고기미역국","designatedDate":"","lat":37.4377444,"lng":126.6869427,"region":"인천광역시","source":"goodprice","goodpriceMenus":[{"name":"소고기미역국","price":"6800"},{"name":"소고기무국","price":"6800"},{"name":"청국장","price":"6800"},{"name":"고등어조림","price":"7800"}]},{"id":"goodprice-incheon-138","name":"성원멸치국수","address":"인천광역시미추홀구염창로69(주안동)106호","jibunAddress":"","phone":"032-875-1600","foodType":"한식","mainFood":"멸치국수","designatedDate":"","lat":37.4649124,"lng":126.6835534,"region":"인천광역시","source":"goodprice","goodpriceMenus":[{"name":"멸치국수","price":"4500"},{"name":"비빔국수","price":"5500"}]},{"id":"goodprice-incheon-139","name":"아는족발","address":"인천광역시미추홀구용오로80(용현동)1층","jibunAddress":"","phone":"032-888-1529","foodType":"한식","mainFood":"족발(중)","designatedDate":"","lat":37.4541486,"lng":126.6418257,"region":"인천광역시","source":"goodprice","goodpriceMenus":[{"name":"족발(중)","price":"29900"},{"name":"족발(대)","price":"33900"},{"name":"생메밀면쟁반막국수","price":"5900"}]},{"id":"goodprice-incheon-140","name":"엄지김밥","address":"인천광역시미추홀구석정로422(주안동)1층","jibunAddress":"","phone":"032-202-0303","foodType":"한식","mainFood":"엄지김밥","designatedDate":"","lat":37.4663842,"lng":126.6854032,"region":"인천광역시","source":"goodprice","goodpriceMenus":[{"name":"엄지김밥","price":"2500"},{"name":"칼국수","price":"4500"},{"name":"멸치국수","price":"5000"},{"name":"라면짝궁김밥","price":"6000"}]},{"id":"goodprice-incheon-141","name":"이모떡즉석떡볶이","address":"인천광역시미추홀구인하로77번길6-21(용현동).","jibunAddress":"","phone":"032-864-4180","foodType":"한식","mainFood":"옛날즉석떡볶이","designatedDate":"","lat":37.4522828,"lng":126.6574783,"region":"인천광역시","source":"goodprice","goodpriceMenus":[{"name":"옛날즉석떡볶이","price":"5000"},{"name":"짜장즉석떡볶이","price":"5000"},{"name":"옛카즉석떡볶이","price":"5000"}]},{"id":"goodprice-incheon-142","name":"잇다(IT-DA)","address":"인천광역시미추홀구소성로178(학익동).","jibunAddress":"","phone":"070-8910-3512","foodType":"한식","mainFood":"소고기쌀국수","designatedDate":"","lat":37.4411902,"lng":126.6686126,"region":"인천광역시","source":"goodprice","goodpriceMenus":[{"name":"소고기쌀국수","price":"7000"},{"name":"팟타이","price":"8500"},{"name":"월남쌈세트","price":"8500"}]},{"id":"goodprice-incheon-143","name":"하얀감자탕","address":"인천광역시미추홀구인하로101(용현동)1층","jibunAddress":"","phone":"032-883-2225","foodType":"한식","mainFood":"콩나물뼈해장국","designatedDate":"","lat":37.4482833,"lng":126.6898337,"region":"인천광역시","source":"goodprice","goodpriceMenus":[{"name":"콩나물뼈해장국","price":"8500"},{"name":"우거지뼈해장국","price":"8500"}]},{"id":"goodprice-incheon-144","name":"하루국수","address":"인천광역시미추홀구주안중로50번길19(주안동)2층","jibunAddress":"","phone":"032-213-8998","foodType":"한식","mainFood":"콩나물비빔밥","designatedDate":"","lat":37.4633947,"lng":126.6844075,"region":"인천광역시","source":"goodprice","goodpriceMenus":[{"name":"콩나물비빔밥","price":"7000"},{"name":"돌솥햄&김치볶음밥","price":"7000"}]},{"id":"goodprice-incheon-145","name":"공일돈까스인천주안점","address":"인천광역시미추홀구석정로430(주안동)102호","jibunAddress":"","phone":"032-710-0176","foodType":"양식","mainFood":"공일돈까스","designatedDate":"","lat":37.4646733,"lng":126.6444178,"region":"인천광역시","source":"goodprice","goodpriceMenus":[{"name":"공일돈까스","price":"7900"},{"name":"생선까스","price":"8900"},{"name":"눈꽃치즈돈까스","price":"9900"},{"name":"모듬돈까스","price":"10900"}]},{"id":"goodprice-incheon-146","name":"다온디저트베이커리","address":"인천광역시미추홀구주승로247(관교동)101호","jibunAddress":"","phone":"070-8657-3223","foodType":"기타","mainFood":"에그타르트","designatedDate":"","lat":37.4414995,"lng":126.695354,"region":"인천광역시","source":"goodprice","goodpriceMenus":[{"name":"에그타르트","price":"1900"},{"name":"크랜베리초코칩쿠키","price":"2000"},{"name":"소금빵","price":"2500"}]},{"id":"goodprice-incheon-147","name":"레커훈스인하대점","address":"인천광역시미추홀구인하로67번길10(용현동).","jibunAddress":"","phone":"032-255-0505","foodType":"한식","mainFood":"크리스피치킨","designatedDate":"","lat":37.4522452,"lng":126.6562281,"region":"인천광역시","source":"goodprice","goodpriceMenus":[{"name":"크리스피치킨","price":"12000"},{"name":"양념치킨","price":"13000"},{"name":"반반치킨","price":"13000"}]},{"id":"goodprice-incheon-148","name":"사계절구이와조림","address":"인천광역시미추홀구경인로438번길12(주안동).","jibunAddress":"","phone":"032-421-8255","foodType":"한식","mainFood":"가자미구이","designatedDate":"","lat":37.4563695,"lng":126.6886584,"region":"인천광역시","source":"goodprice","goodpriceMenus":[{"name":"가자미구이","price":"10000"},{"name":"조기구이","price":"10000"}]},{"id":"goodprice-incheon-149","name":"숙이네즉석떡볶이","address":"인천광역시미추홀구주승로258(관교동).","jibunAddress":"","phone":"032-423-7805","foodType":"한식","mainFood":"즉석떡볶이기본(2인)","designatedDate":"","lat":37.4441936,"lng":126.671766,"region":"인천광역시","source":"goodprice","goodpriceMenus":[{"name":"즉석떡볶이기본(2인)","price":"7000"},{"name":"즉석떡볶이기본(3인)","price":"8000"},{"name":"즉석떡볶이기본(4인)","price":"9000"}]},{"id":"goodprice-incheon-150","name":"남경식당","address":"인천광역시미추홀구경인로1621층(숭의동)","jibunAddress":"","phone":"032-874-5590","foodType":"한식","mainFood":"가정식백반","designatedDate":"","lat":37.459579,"lng":126.6937951,"region":"인천광역시","source":"goodprice","goodpriceMenus":[{"name":"가정식백반","price":"7000"}]},{"id":"goodprice-incheon-151","name":"얼레리꼴레리","address":"인천광역시미추홀구석정로150번길40(숭의동)","jibunAddress":"","phone":"032-887-9778","foodType":"한식","mainFood":"쫄면(라면)+왕순살돈까스","designatedDate":"","lat":37.4677045,"lng":126.6538103,"region":"인천광역시","source":"goodprice","goodpriceMenus":[{"name":"쫄면(라면)+왕순살돈까스","price":"6000"},{"name":"참치찌개+돈까스+밥","price":"6500"},{"name":"참치김치덮밥+돈까스","price":"6000"},{"name":"카레덮밥+돈까스(소)","price":"5500"}]},{"id":"goodprice-incheon-152","name":"한담","address":"인천광역시미추홀구독배로492번길8-11층(숭의동)","jibunAddress":"","phone":"032-881-0277","foodType":"기타","mainFood":"옛날즉석우동","designatedDate":"","lat":37.4624077,"lng":126.6450161,"region":"인천광역시","source":"goodprice","goodpriceMenus":[{"name":"옛날즉석우동","price":"4900"},{"name":"수제카레덮밥","price":"7000"},{"name":"소세지카레덮밥","price":"8900"},{"name":"카레우동","price":"8000"}]},{"id":"goodprice-incheon-153","name":"오거리식당","address":"인천광역시미추홀구석정로252번길8(도화동)","jibunAddress":"","phone":"032-866-3118","foodType":"한식","mainFood":"순두부","designatedDate":"","lat":37.4677918,"lng":126.6635611,"region":"인천광역시","source":"goodprice","goodpriceMenus":[{"name":"순두부","price":"6000"},{"name":"제육","price":"8000"},{"name":"뚝불","price":"7000"}]},{"id":"goodprice-incheon-154","name":"자매국시팥죽","address":"인천광역시미추홀구인하로274-38(주안동)","jibunAddress":"","phone":"","foodType":"한식","mainFood":"팥죽","designatedDate":"","lat":37.4482833,"lng":126.6898337,"region":"인천광역시","source":"goodprice","goodpriceMenus":[{"name":"팥죽","price":"6000"},{"name":"팥칼국수","price":"8000"}]},{"id":"goodprice-incheon-155","name":"광명홍두개손칼국수","address":"인천광역시미추홀구신기길30(주안동)","jibunAddress":"","phone":"032-874-1339","foodType":"한식","mainFood":"잔치국수","designatedDate":"","lat":37.4461852,"lng":126.6766742,"region":"인천광역시","source":"goodprice","goodpriceMenus":[{"name":"잔치국수","price":"4000"},{"name":"칼제비","price":"5000"},{"name":"손칼국수","price":"5000"},{"name":"손수제비","price":"5000"}]},{"id":"goodprice-incheon-156","name":"나들목","address":"인천광역시미추홀구독배로462번길20-17(숭의동)","jibunAddress":"","phone":"","foodType":"한식","mainFood":"콩나물해장국","designatedDate":"","lat":37.4613113,"lng":126.6463975,"region":"인천광역시","source":"goodprice","goodpriceMenus":[{"name":"콩나물해장국","price":"6000"},{"name":"김치콩나물","price":"7000"},{"name":"황태콩나물","price":"7000"},{"name":"오징어콩나물","price":"7000"}]},{"id":"goodprice-incheon-157","name":"가나안반점","address":"인천광역시연수구비류대로156번길5(옥련동)","jibunAddress":"","phone":"032-832-0732","foodType":"중식","mainFood":"자장면","designatedDate":"","lat":37.4271881,"lng":126.6515036,"region":"인천광역시","source":"goodprice","goodpriceMenus":[{"name":"자장면","price":"4000"}]},{"id":"goodprice-incheon-158","name":"구이촌","address":"인천광역시연수구학나래로14번길16-1(선학동)","jibunAddress":"","phone":"032-819-9595","foodType":"한식","mainFood":"우차돌박이(130g)","designatedDate":"","lat":37.4244664,"lng":126.6973092,"region":"인천광역시","source":"goodprice","goodpriceMenus":[{"name":"우차돌박이(130g)","price":"10000"}]},{"id":"goodprice-incheon-159","name":"소랑돼지랑","address":"인천광역시연수구함박로24(연수동)","jibunAddress":"","phone":"032-817-8592","foodType":"한식","mainFood":"돼지갈비(300g)","designatedDate":"","lat":37.4251936,"lng":126.6787028,"region":"인천광역시","source":"goodprice","goodpriceMenus":[{"name":"돼지갈비(300g)","price":"12000"}]},{"id":"goodprice-incheon-160","name":"김밥나라","address":"인천광역시연수구독배로40번길11(옥련동)","jibunAddress":"","phone":"032-831-1213","foodType":"한식","mainFood":"비빔밥","designatedDate":"","lat":37.4243508,"lng":126.646379,"region":"인천광역시","source":"goodprice","goodpriceMenus":[{"name":"비빔밥","price":"6000"}]},{"id":"goodprice-incheon-161","name":"연수차이나","address":"인천광역시연수구먼우금로252번길12(연수동)","jibunAddress":"","phone":"032-822-5544","foodType":"중식","mainFood":"자장면","designatedDate":"","lat":37.4188337,"lng":126.6800191,"region":"인천광역시","source":"goodprice","goodpriceMenus":[{"name":"자장면","price":"4000"}]},{"id":"goodprice-incheon-162","name":"국수골목","address":"인천광역시연수구샘말로15-31층(연수동)","jibunAddress":"","phone":"032-821-1408","foodType":"한식","mainFood":"멸치국수","designatedDate":"","lat":37.4136947,"lng":126.6796143,"region":"인천광역시","source":"goodprice","goodpriceMenus":[{"name":"멸치국수","price":"6000"}]},{"id":"goodprice-incheon-163","name":"김밥이랑토스트","address":"인천광역시연수구함박뫼로250연수풍림1차아파트상가102호(연수동)","jibunAddress":"","phone":"032-817-7611","foodType":"한식","mainFood":"야채토스트","designatedDate":"","lat":37.421763,"lng":126.6872442,"region":"인천광역시","source":"goodprice","goodpriceMenus":[{"name":"야채토스트","price":"2700"}]},{"id":"goodprice-incheon-164","name":"모박사김밥","address":"인천광역시연수구먼우금로69대동아파트상가113호(동춘동)","jibunAddress":"","phone":"032-812-4888","foodType":"한식","mainFood":"원조김밥","designatedDate":"","lat":37.4203076,"lng":126.6803966,"region":"인천광역시","source":"goodprice","goodpriceMenus":[{"name":"원조김밥","price":"3000"},{"name":"비빔밥","price":"6500"}]},{"id":"goodprice-incheon-165","name":"밀사랑","address":"인천광역시연수구학나래로5번길601층(선학동)","jibunAddress":"","phone":"","foodType":"한식","mainFood":"칼국수","designatedDate":"","lat":37.4235936,"lng":126.6944529,"region":"인천광역시","source":"goodprice","goodpriceMenus":[{"name":"칼국수","price":"6000"}]},{"id":"goodprice-incheon-166","name":"부리또정거장","address":"인천광역시연수구새말로99번길17102호(연수동)","jibunAddress":"","phone":"032-811-7609","foodType":"양식","mainFood":"부리또세트","designatedDate":"","lat":37.4189755,"lng":126.6804291,"region":"인천광역시","source":"goodprice","goodpriceMenus":[{"name":"부리또세트","price":"7000"}]},{"id":"goodprice-incheon-167","name":"인디오븐동춘점","address":"인천광역시연수구앵고개로264번길401층(동춘동)","jibunAddress":"","phone":"032-815-5259","foodType":"기타","mainFood":"단팥빵","designatedDate":"","lat":37.4065698,"lng":126.6717165,"region":"인천광역시","source":"goodprice","goodpriceMenus":[{"name":"단팥빵","price":"1200"},{"name":"크림빵","price":"1200"}]},{"id":"goodprice-incheon-168","name":"장재은한방통닭","address":"인천광역시연수구청학로101층(청학동)","jibunAddress":"","phone":"032-435-5282","foodType":"한식","mainFood":"한방통닭","designatedDate":"","lat":37.4305522,"lng":126.6638223,"region":"인천광역시","source":"goodprice","goodpriceMenus":[{"name":"한방통닭","price":"10900"}]},{"id":"goodprice-incheon-169","name":"정아네선지국","address":"인천광역시연수구한나루로202-6103호(옥련동)","jibunAddress":"","phone":"032-833-9098","foodType":"한식","mainFood":"선짓국","designatedDate":"","lat":37.4226268,"lng":126.6522156,"region":"인천광역시","source":"goodprice","goodpriceMenus":[{"name":"선짓국","price":"7000"},{"name":"순두부찌개","price":"7000"}]},{"id":"goodprice-incheon-170","name":"진이네김밥","address":"인천광역시연수구비류대로294번길32-81층(청학동)","jibunAddress":"","phone":"032-834-3406","foodType":"한식","mainFood":"참치주먹밥","designatedDate":"","lat":37.4251021,"lng":126.6667321,"region":"인천광역시","source":"goodprice","goodpriceMenus":[{"name":"참치주먹밥","price":"3000"},{"name":"김치볶음밥","price":"6500"}]},{"id":"goodprice-incheon-171","name":"케이푸드(여기손맛국밥)","address":"인천광역시연수구먼우금로252번길27-4101호(연수동)","jibunAddress":"","phone":"","foodType":"한식","mainFood":"돼지국밥","designatedDate":"","lat":37.4188753,"lng":126.6803576,"region":"인천광역시","source":"goodprice","goodpriceMenus":[{"name":"돼지국밥","price":"7900"},{"name":"(경로청소년)돼지국밥","price":"6900"}]},{"id":"goodprice-incheon-172","name":"고복샤브샤브송도점","address":"인천광역시연수구센트럴로263판매동2층(송도동)","jibunAddress":"","phone":"032-831-0320","foodType":"한식","mainFood":"점심샤브샤브세트","designatedDate":"","lat":37.3979205,"lng":126.6339597,"region":"인천광역시","source":"goodprice","goodpriceMenus":[{"name":"점심샤브샤브세트","price":"12000"}]},{"id":"goodprice-incheon-173","name":"송도주물럭","address":"인천광역시연수구컨벤시아대로81143~144호(송도동)","jibunAddress":"","phone":"032-859-0077","foodType":"한식","mainFood":"오리주물럭(500g)","designatedDate":"","lat":37.3991881,"lng":126.6534384,"region":"인천광역시","source":"goodprice","goodpriceMenus":[{"name":"오리주물럭(500g)","price":"39000"},{"name":"오리주물럭(1kg)","price":"59000"}]},{"id":"goodprice-incheon-175","name":"고래","address":"인천광역시연수구청명로31번길8101호(청학동)","jibunAddress":"","phone":"","foodType":"한식","mainFood":"백반정식","designatedDate":"","lat":37.4185922,"lng":126.6757347,"region":"인천광역시","source":"goodprice","goodpriceMenus":[{"name":"백반정식","price":"6000"}]},{"id":"goodprice-incheon-176","name":"동래청국장","address":"인천광역시연수구넘말로31(선학동)","jibunAddress":"","phone":"032-811-9221","foodType":"한식","mainFood":"청국장","designatedDate":"","lat":37.4297297,"lng":126.6969761,"region":"인천광역시","source":"goodprice","goodpriceMenus":[{"name":"청국장","price":"8000"}]},{"id":"goodprice-incheon-177","name":"미스터얼리","address":"인천광역시연수구샘말로8번길13-101층(연수동)","jibunAddress":"","phone":"032-233-3201","foodType":"기타","mainFood":"아메리카노","designatedDate":"","lat":37.4119475,"lng":126.6789564,"region":"인천광역시","source":"goodprice","goodpriceMenus":[{"name":"아메리카노","price":"2500"},{"name":"그릭요거트(100g)","price":"4000"}]},{"id":"goodprice-incheon-178","name":"진성부대찌개","address":"인천광역시연수구용담로125번길401층(연수동)","jibunAddress":"","phone":"032-822-8588","foodType":"한식","mainFood":"부대찌개","designatedDate":"","lat":37.415646,"lng":126.6801604,"region":"인천광역시","source":"goodprice","goodpriceMenus":[{"name":"부대찌개","price":"8000"}]},{"id":"goodprice-incheon-179","name":"천궁","address":"인천광역시연수구비류대로184(옥련동)","jibunAddress":"","phone":"032-833-2580","foodType":"중식","mainFood":"짜장밥","designatedDate":"","lat":37.4232413,"lng":126.6978017,"region":"인천광역시","source":"goodprice","goodpriceMenus":[{"name":"짜장밥","price":"7000"}]},{"id":"goodprice-incheon-180","name":"더건강한매일베이커리","address":"인천광역시연수구센트럴로194B동101호(송도동)","jibunAddress":"","phone":"","foodType":"기타","mainFood":"유기농밀소금빵","designatedDate":"","lat":37.3947061,"lng":126.6414984,"region":"인천광역시","source":"goodprice","goodpriceMenus":[{"name":"유기농밀소금빵","price":"1800"},{"name":"유기농밀올리브치아바타","price":"3700"},{"name":"유기농밀에그타르트","price":"2500"},{"name":"유기농밀스콘","price":"1700"}]},{"id":"goodprice-incheon-181","name":"아랫목김밥","address":"인천광역시남동구용천로170(간석동)","jibunAddress":"","phone":"032-432-1233","foodType":"한식","mainFood":"김밥","designatedDate":"","lat":37.4566595,"lng":126.7148145,"region":"인천광역시","source":"goodprice","goodpriceMenus":[{"name":"김밥","price":"2000"},{"name":"라면","price":"4000"}]},{"id":"goodprice-incheon-182","name":"김밥마을","address":"인천광역시남동구장승남로44(만수동)","jibunAddress":"","phone":"032-464-6777","foodType":"한식","mainFood":"원조김밥","designatedDate":"","lat":37.4434207,"lng":126.7373542,"region":"인천광역시","source":"goodprice","goodpriceMenus":[{"name":"원조김밥","price":"3000"},{"name":"참치김밥","price":"4000"}]},{"id":"goodprice-incheon-183","name":"소망각","address":"인천광역시남동구문화서로4번길25-8(구월동)","jibunAddress":"","phone":"032-433-8552","foodType":"중식","mainFood":"자장면","designatedDate":"","lat":37.4456532,"lng":126.6985053,"region":"인천광역시","source":"goodprice","goodpriceMenus":[{"name":"자장면","price":"4500"},{"name":"짬뽕","price":"5500"}]},{"id":"goodprice-incheon-184","name":"중국성","address":"인천광역시남동구남동대로747번길51(구월동)","jibunAddress":"","phone":"032-426-7979","foodType":"중식","mainFood":"자장면(매장방문주문)","designatedDate":"","lat":37.4491819,"lng":126.7056795,"region":"인천광역시","source":"goodprice","goodpriceMenus":[{"name":"자장면(매장방문주문)","price":"4500"},{"name":"짬뽕(매장방문주문)","price":"5500"}]},{"id":"goodprice-incheon-185","name":"행복식당","address":"인천광역시남동구성말로53번길27-1(구월동)","jibunAddress":"","phone":"032-441-2705","foodType":"한식","mainFood":"백반","designatedDate":"","lat":37.447067,"lng":126.7068168,"region":"인천광역시","source":"goodprice","goodpriceMenus":[{"name":"백반","price":"8000"},{"name":"김치찌개","price":"8000"}]},{"id":"goodprice-incheon-186","name":"내고향만두","address":"인천광역시남동구인주대로888번길27(만수동)","jibunAddress":"","phone":"032-471-8334","foodType":"한식","mainFood":"고기만두","designatedDate":"","lat":37.4471427,"lng":126.735467,"region":"인천광역시","source":"goodprice","goodpriceMenus":[{"name":"고기만두","price":"5000"}]},{"id":"goodprice-incheon-187","name":"중국관","address":"인천광역시남동구은봉로312번길231층(논현동)","jibunAddress":"","phone":"032-441-0644","foodType":"중식","mainFood":"자장면(매장방문주문)","designatedDate":"","lat":37.4049763,"lng":126.7245791,"region":"인천광역시","source":"goodprice","goodpriceMenus":[{"name":"자장면(매장방문주문)","price":"5000"},{"name":"짬뽕(매장방문주문)","price":"8000"}]},{"id":"goodprice-incheon-188","name":"큰집손칼국수","address":"인천광역시남동구호구포로790번길21-5(구월동)","jibunAddress":"","phone":"032-469-4125","foodType":"한식","mainFood":"잔치국수","designatedDate":"","lat":37.4532217,"lng":126.7195387,"region":"인천광역시","source":"goodprice","goodpriceMenus":[{"name":"잔치국수","price":"3500"},{"name":"찰보리밥","price":"4500"}]},{"id":"goodprice-incheon-189","name":"착한탕국","address":"인천광역시남동구호구포로800번길17(구월동)","jibunAddress":"","phone":"032-465-8294","foodType":"한식","mainFood":"선지해장국2인분","designatedDate":"","lat":37.4541413,"lng":126.7205068,"region":"인천광역시","source":"goodprice","goodpriceMenus":[{"name":"선지해장국2인분","price":"7000"},{"name":"육개장2인분","price":"7000"},{"name":"추어탕2인분","price":"9000"},{"name":"사골곰탕3인분","price":"8000"}]},{"id":"goodprice-incheon-190","name":"항아리필","address":"인천광역시남동구인주대로888번길35(만수동)","jibunAddress":"","phone":"070-8848-5418","foodType":"한식","mainFood":"한식뷔페","designatedDate":"","lat":37.4471427,"lng":126.735467,"region":"인천광역시","source":"goodprice","goodpriceMenus":[{"name":"한식뷔페","price":"8000"}]},{"id":"goodprice-incheon-191","name":"델리푸드","address":"인천광역시남동구백범로124번길7(만수동)","jibunAddress":"","phone":"032-468-2502","foodType":"한식","mainFood":"한식부페","designatedDate":"","lat":37.4593672,"lng":126.7378941,"region":"인천광역시","source":"goodprice","goodpriceMenus":[{"name":"한식부페","price":"6000"},{"name":"반찬3팩","price":"5000"}]},{"id":"goodprice-incheon-192","name":"여명차이나","address":"인천광역시남동구장승로49-11층(만수동)","jibunAddress":"","phone":"032-465-5522","foodType":"중식","mainFood":"자장면(매장방문주문)","designatedDate":"","lat":37.4455445,"lng":126.735838,"region":"인천광역시","source":"goodprice","goodpriceMenus":[{"name":"자장면(매장방문주문)","price":"5000"},{"name":"짬뽕(매장방문주문)","price":"6000"}]},{"id":"goodprice-incheon-193","name":"자가제면모밀지기","address":"인천광역시남동구구월로372번길40(만수동정은베스트빌)","jibunAddress":"","phone":"032-467-7956","foodType":"한식","mainFood":"온모밀","designatedDate":"","lat":37.4525964,"lng":126.7317376,"region":"인천광역시","source":"goodprice","goodpriceMenus":[{"name":"온모밀","price":"6000"},{"name":"냉모밀","price":"7000"}]},{"id":"goodprice-incheon-194","name":"짜장일번지","address":"인천광역시남동구복개동로8(만수동)","jibunAddress":"","phone":"032-461-2802","foodType":"중식","mainFood":"자장면","designatedDate":"","lat":37.4520703,"lng":126.7259946,"region":"인천광역시","source":"goodprice","goodpriceMenus":[{"name":"자장면","price":"6000"},{"name":"짬뽕","price":"7000"}]},{"id":"goodprice-incheon-195","name":"국수마을","address":"인천광역시남동구하촌서로12(만수동)","jibunAddress":"","phone":"032-467-3393","foodType":"한식","mainFood":"잔치국수","designatedDate":"","lat":37.4518642,"lng":126.7298415,"region":"인천광역시","source":"goodprice","goodpriceMenus":[{"name":"잔치국수","price":"5000"},{"name":"비빔국수","price":"6000"}]},{"id":"goodprice-incheon-196","name":"두리왕돈까스","address":"인천광역시남동구장승남로42105호(만수동)","jibunAddress":"","phone":"032-467-5522","foodType":"한식","mainFood":"돈까스","designatedDate":"","lat":37.4434207,"lng":126.7373542,"region":"인천광역시","source":"goodprice","goodpriceMenus":[{"name":"돈까스","price":"7500"},{"name":"우동","price":"5000"}]},{"id":"goodprice-incheon-197","name":"고향모밀촌","address":"인천광역시남동구복개동로6(만수동)","jibunAddress":"","phone":"032-467-0995","foodType":"한식","mainFood":"온모밀","designatedDate":"","lat":37.4520703,"lng":126.7259946,"region":"인천광역시","source":"goodprice","goodpriceMenus":[{"name":"온모밀","price":"7000"},{"name":"고기만두","price":"3500"}]},{"id":"goodprice-incheon-198","name":"맛깔김밥","address":"인천광역시남동구백범로312-64(간석동)","jibunAddress":"","phone":"032-433-2355","foodType":"한식","mainFood":"김밥","designatedDate":"","lat":37.4534506,"lng":126.7354061,"region":"인천광역시","source":"goodprice","goodpriceMenus":[{"name":"김밥","price":"3500"},{"name":"된장찌개","price":"7500"}]},{"id":"goodprice-incheon-199","name":"서인반점","address":"인천광역시남동구하촌서로13(만수동)","jibunAddress":"","phone":"032-464-5365","foodType":"중식","mainFood":"자장면","designatedDate":"","lat":37.4518642,"lng":126.7298415,"region":"인천광역시","source":"goodprice","goodpriceMenus":[{"name":"자장면","price":"6000"},{"name":"짬뽕","price":"8000"}]},{"id":"goodprice-incheon-200","name":"학교앞옛날떡볶이","address":"인천광역시남동구장도로4-2(논현동)","jibunAddress":"","phone":"032-423-7494","foodType":"한식","mainFood":"떡볶이","designatedDate":"","lat":37.4006107,"lng":126.7371919,"region":"인천광역시","source":"goodprice","goodpriceMenus":[{"name":"떡볶이","price":"3500"}]},{"id":"goodprice-incheon-201","name":"박가네삼감포","address":"인천광역시남동구논현로46번길14(논현동)","jibunAddress":"","phone":"032-422-5449","foodType":"한식","mainFood":"장어탕","designatedDate":"","lat":37.4002069,"lng":126.7113163,"region":"인천광역시","source":"goodprice","goodpriceMenus":[{"name":"장어탕","price":"7000"},{"name":"추어탕","price":"7000"}]},{"id":"goodprice-incheon-202","name":"정김밥","address":"인천광역시남동구만수서로105번길25(만수동)","jibunAddress":"","phone":"032-461-3332","foodType":"한식","mainFood":"김밥","designatedDate":"","lat":37.4621912,"lng":126.7387557,"region":"인천광역시","source":"goodprice","goodpriceMenus":[{"name":"김밥","price":"3000"},{"name":"라면","price":"4000"}]},{"id":"goodprice-incheon-203","name":"김밥나라","address":"인천광역시남동구용천로821층(구월동)","jibunAddress":"","phone":"032-469-1265","foodType":"한식","mainFood":"김밥","designatedDate":"","lat":37.4566595,"lng":126.7148145,"region":"인천광역시","source":"goodprice","goodpriceMenus":[{"name":"김밥","price":"2500"},{"name":"라면정식","price":"5000"},{"name":"우동정식","price":"5000"}]},{"id":"goodprice-incheon-204","name":"녹차한돈갈비","address":"인천광역시남동구장수로81층(장수동)","jibunAddress":"","phone":"032-468-9009","foodType":"한식","mainFood":"한식부페","designatedDate":"","lat":37.4514658,"lng":126.749694,"region":"인천광역시","source":"goodprice","goodpriceMenus":[{"name":"한식부페","price":"6000"}]},{"id":"goodprice-incheon-205","name":"멜로디아","address":"인천광역시남동구장승로255동1층(만수동장승백이상가)","jibunAddress":"","phone":"032-471-1519","foodType":"기타","mainFood":"아메리카노","designatedDate":"","lat":37.4455445,"lng":126.735838,"region":"인천광역시","source":"goodprice","goodpriceMenus":[{"name":"아메리카노","price":"2000"},{"name":"아이스티","price":"2000"},{"name":"카페라떼","price":"3000"},{"name":"콜드브루","price":"2500"}]},{"id":"goodprice-incheon-206","name":"돈킹돈까스","address":"인천광역시남동구남동대로799번길34(구월동신영구월지웰시티푸르지오)판매시설동2층C동207호","jibunAddress":"","phone":"032-469-0322","foodType":"양식","mainFood":"등심돈까스(매장주문가격)","designatedDate":"","lat":37.453907,"lng":126.7067855,"region":"인천광역시","source":"goodprice","goodpriceMenus":[{"name":"등심돈까스(매장주문가격)","price":"8500"},{"name":"브라운소스오믈렛(매장주문가격)","price":"7500"},{"name":"우동(매장주문가격)","price":"5000"}]},{"id":"goodprice-incheon-207","name":"별난곱창","address":"인천광역시남동구하촌서로131층(만수동)","jibunAddress":"","phone":"032-466-3237","foodType":"한식","mainFood":"뼈해장국","designatedDate":"","lat":37.4518642,"lng":126.7298415,"region":"인천광역시","source":"goodprice","goodpriceMenus":[{"name":"뼈해장국","price":"7000"},{"name":"순대국","price":"7000"},{"name":"콩비지","price":"7000"}]},{"id":"goodprice-incheon-208","name":"옥가마추어탕","address":"인천광역시남동구구월남로1502층(구월동)","jibunAddress":"","phone":"0507-1443-1131","foodType":"한식","mainFood":"돌솥추어탕","designatedDate":"","lat":37.4523653,"lng":126.7174059,"region":"인천광역시","source":"goodprice","goodpriceMenus":[{"name":"돌솥추어탕","price":"8500"},{"name":"얼큰이추어탕","price":"8500"}]},{"id":"goodprice-incheon-209","name":"운카페","address":"인천광역시남동구구월로1211층(간석동)","jibunAddress":"","phone":"0507-1483-1250","foodType":"기타","mainFood":"아메리카노","designatedDate":"","lat":37.4567698,"lng":126.7048303,"region":"인천광역시","source":"goodprice","goodpriceMenus":[{"name":"아메리카노","price":"1500"},{"name":"카페라떼","price":"3000"},{"name":"유자차","price":"3000"}]},{"id":"goodprice-incheon-210","name":"이엠에스카페","address":"인천광역시남동구은봉로297(논현동)근린생활시설동1층근생4호","jibunAddress":"","phone":"0507-1392-8872","foodType":"기타","mainFood":"아메리카노","designatedDate":"","lat":37.4128606,"lng":126.6939677,"region":"인천광역시","source":"goodprice","goodpriceMenus":[{"name":"아메리카노","price":"3500"},{"name":"오리지널엠도그","price":"4000"},{"name":"쿠키","price":"1500"}]},{"id":"goodprice-incheon-211","name":"차우마인천논현점","address":"인천광역시남동구논현로221층(논현동)","jibunAddress":"","phone":"0504-975-1052","foodType":"중식","mainFood":"자장면","designatedDate":"","lat":37.4022348,"lng":126.7116102,"region":"인천광역시","source":"goodprice","goodpriceMenus":[{"name":"자장면","price":"5000"}]},{"id":"goodprice-incheon-212","name":"춘보네돼지국밥앤수제돈까스","address":"인천광역시남동구예술로226번길41층(구월동)","jibunAddress":"","phone":"032-432-8777","foodType":"한식","mainFood":"수육국밥","designatedDate":"","lat":37.4542049,"lng":126.703184,"region":"인천광역시","source":"goodprice","goodpriceMenus":[{"name":"수육국밥","price":"7000"},{"name":"선지해장국","price":"8000"},{"name":"돼지국밥","price":"8000"}]},{"id":"goodprice-incheon-213","name":"카페최고요","address":"인천광역시남동구용천로11번길221층(구월동)","jibunAddress":"","phone":"0507-778-5135","foodType":"기타","mainFood":"수제쿠키","designatedDate":"","lat":37.4505722,"lng":126.7127971,"region":"인천광역시","source":"goodprice","goodpriceMenus":[{"name":"수제쿠키","price":"1500"},{"name":"아메리카노","price":"2500"},{"name":"아이스티","price":"2500"}]},{"id":"goodprice-incheon-214","name":"남포면옥","address":"인천광역시남동구남동대로898번길89-81층(간석동)","jibunAddress":"","phone":"032-441-2996","foodType":"한식","mainFood":"꽃게간장백반","designatedDate":"","lat":37.4631196,"lng":126.7095971,"region":"인천광역시","source":"goodprice","goodpriceMenus":[{"name":"꽃게간장백반","price":"8000"},{"name":"꽃게무침","price":"8500"},{"name":"꽃게탕","price":"8000"}]},{"id":"goodprice-incheon-215","name":"옛날국수","address":"인천광역시남동구용천로1501층(간석동)","jibunAddress":"","phone":"032-219-0412","foodType":"한식","mainFood":"잔치국수","designatedDate":"","lat":37.4566595,"lng":126.7148145,"region":"인천광역시","source":"goodprice","goodpriceMenus":[{"name":"잔치국수","price":"6000"},{"name":"비빔국수","price":"6000"},{"name":"떡만두국","price":"6000"}]},{"id":"goodprice-incheon-216","name":"고기좋아","address":"인천광역시남동구만수로75번길161층(만수동)","jibunAddress":"","phone":"0507-1465-6637","foodType":"한식","mainFood":"한돈목살","designatedDate":"","lat":37.4641004,"lng":126.7360691,"region":"인천광역시","source":"goodprice","goodpriceMenus":[{"name":"한돈목살","price":"12000"},{"name":"한돈삼겹살","price":"13000"},{"name":"한우육사시미","price":"23000"},{"name":"한우육회비빔국수","price":"6000"}]},{"id":"goodprice-incheon-217","name":"대부도바지락칼국수","address":"인천광역시남동구석산로62번길111층(간석동)","jibunAddress":"","phone":"032-424-2327","foodType":"한식","mainFood":"바지락칼국수","designatedDate":"","lat":37.4597963,"lng":126.6988499,"region":"인천광역시","source":"goodprice","goodpriceMenus":[{"name":"바지락칼국수","price":"6000"},{"name":"바지락얼큰칼국수","price":"7000"},{"name":"콩국수","price":"8000"}]},{"id":"goodprice-incheon-218","name":"만수숯불양꼬치","address":"인천광역시남동구담방로48번길7-111층(만수동)","jibunAddress":"","phone":"032-463-9233","foodType":"중식","mainFood":"양꼬치","designatedDate":"","lat":37.4439241,"lng":126.7400596,"region":"인천광역시","source":"goodprice","goodpriceMenus":[{"name":"양꼬치","price":"13000"},{"name":"고급양갈비","price":"28000"}]},{"id":"goodprice-incheon-219","name":"최복남직화쭈꾸미명가","address":"인천광역시남동구경인로5201층(간석동)","jibunAddress":"","phone":"032-421-8780","foodType":"한식","mainFood":"쭈꾸미정식","designatedDate":"","lat":37.46078,"lng":126.6970653,"region":"인천광역시","source":"goodprice","goodpriceMenus":[{"name":"쭈꾸미정식","price":"15000"}]},{"id":"goodprice-incheon-220","name":"태남식당","address":"인천광역시남동구장자북로31101호(장수동)","jibunAddress":"","phone":"","foodType":"한식","mainFood":"백반","designatedDate":"","lat":37.4516314,"lng":126.7525455,"region":"인천광역시","source":"goodprice","goodpriceMenus":[{"name":"백반","price":"7000"}]},{"id":"goodprice-incheon-221","name":"매일하하","address":"인천광역시남동구남동대로799번길34판매시설동2층B동219호(구월동)","jibunAddress":"","phone":"032-433-6476","foodType":"한식","mainFood":"매일하하카레","designatedDate":"","lat":37.453907,"lng":126.7067855,"region":"인천광역시","source":"goodprice","goodpriceMenus":[{"name":"매일하하카레","price":"8000"}]},{"id":"goodprice-incheon-222","name":"브레덴라떼","address":"인천광역시남동구만수로75번길30(만수동)","jibunAddress":"","phone":"032-431-7753","foodType":"기타","mainFood":"케이크","designatedDate":"","lat":37.4656058,"lng":126.7357605,"region":"인천광역시","source":"goodprice","goodpriceMenus":[{"name":"케이크","price":"14000"},{"name":"단팥빵","price":"1000"},{"name":"우유식빵","price":"2500"}]},{"id":"goodprice-incheon-223","name":"빈스카페","address":"인천광역시남동구복개서로79(구월동)","jibunAddress":"","phone":"070-828-3077","foodType":"기타","mainFood":"HOT아메리카노","designatedDate":"","lat":37.4521696,"lng":126.7256264,"region":"인천광역시","source":"goodprice","goodpriceMenus":[{"name":"HOT아메리카노","price":"1000"},{"name":"ICE아메리카노","price":"1500"}]},{"id":"goodprice-incheon-224","name":"예원차이나","address":"인천광역시남동구은봉로312번길29-10(논현동)","jibunAddress":"","phone":"032-446-5667","foodType":"중식","mainFood":"짜장면(매장방문주문)","designatedDate":"","lat":37.4049763,"lng":126.7245791,"region":"인천광역시","source":"goodprice","goodpriceMenus":[{"name":"짜장면(매장방문주문)","price":"5500"},{"name":"짬뽕(매장방문주문)","price":"6500"},{"name":"간짜장(매장방문주문)","price":"6000"}]},{"id":"goodprice-incheon-225","name":"오가네한우마을","address":"인천광역시남동구용천로3번길26(구월동)","jibunAddress":"","phone":"032-468-7413","foodType":"한식","mainFood":"칼집생삼겹(500g)","designatedDate":"","lat":37.4505534,"lng":126.7113808,"region":"인천광역시","source":"goodprice","goodpriceMenus":[{"name":"칼집생삼겹(500g)","price":"20000"},{"name":"칼집생목살(500g)","price":"20000"}]},{"id":"goodprice-incheon-226","name":"비담비","address":"인천광역시남동구독점로3번길10-24101호(구월동)","jibunAddress":"","phone":"032-463-7760","foodType":"한식","mainFood":"판모밀","designatedDate":"","lat":37.4506182,"lng":126.7102134,"region":"인천광역시","source":"goodprice","goodpriceMenus":[{"name":"판모밀","price":"8000"},{"name":"온모밀","price":"8000"},{"name":"통만두","price":"4000"}]},{"id":"goodprice-incheon-227","name":"서일대중사우나","address":"인천광역시남동구용천로3번길18(구월동)","jibunAddress":"","phone":"032-472-8002","foodType":"목욕업","mainFood":"목욕(대인)","designatedDate":"","lat":37.4499047,"lng":126.7117677,"region":"인천광역시","source":"goodprice","goodpriceMenus":[{"name":"목욕(대인)","price":"9000"}]},{"id":"goodprice-incheon-228","name":"닭모락전기구이만수점","address":"인천광역시남동구구월로372번길16104호(만수동삼정빌딩)","jibunAddress":"","phone":"032-236-5444","foodType":"한식","mainFood":"전기구이통닭(포장)","designatedDate":"","lat":37.4525964,"lng":126.7317376,"region":"인천광역시","source":"goodprice","goodpriceMenus":[{"name":"전기구이통닭(포장)","price":"9900"},{"name":"전기구이찹쌀통닭(포장)","price":"13000"},{"name":"전기구이돼지바베큐(포장)","price":"16000"}]},{"id":"goodprice-incheon-229","name":"부귀무한리필삼겹살돼지갈비","address":"인천광역시남동구호구포로810번길801층일부(구월동북개좌로101)","jibunAddress":"","phone":"0507-1342-3372","foodType":"한식","mainFood":"생삼겹살(200g)","designatedDate":"","lat":37.4545374,"lng":126.7215776,"region":"인천광역시","source":"goodprice","goodpriceMenus":[{"name":"생삼겹살(200g)","price":"15000"},{"name":"왕갈비(200g)","price":"16000"},{"name":"항정살(200g)","price":"18000"},{"name":"생목살(200g)","price":"15000"}]},{"id":"goodprice-incheon-230","name":"아찌꽈배기","address":"인천광역시남동구만수로75101-2호(만수동)","jibunAddress":"","phone":"032-217-0077","foodType":"기타","mainFood":"꽈배기2개","designatedDate":"","lat":37.4633025,"lng":126.7368589,"region":"인천광역시","source":"goodprice","goodpriceMenus":[{"name":"꽈배기2개","price":"1500"},{"name":"팥도너츠1개","price":"1500"}]},{"id":"goodprice-incheon-231","name":"월각중화요리","address":"인천광역시남동구구월남로2711층104호(구월동)","jibunAddress":"","phone":"032-467-3998","foodType":"중식","mainFood":"짜장면","designatedDate":"","lat":37.4523653,"lng":126.7174059,"region":"인천광역시","source":"goodprice","goodpriceMenus":[{"name":"짜장면","price":"5000"},{"name":"짬뽕","price":"6000"},{"name":"짜장면(토요일)","price":"3000"}]},{"id":"goodprice-incheon-232","name":"진이네국시랑라면백반","address":"인천광역시남동구담방로47번길14-71층일부(만수동)","jibunAddress":"","phone":"","foodType":"한식","mainFood":"백반","designatedDate":"","lat":37.4439178,"lng":126.738118,"region":"인천광역시","source":"goodprice","goodpriceMenus":[{"name":"백반","price":"6000"},{"name":"제육덮밥","price":"6000"},{"name":"비빔밥","price":"6000"}]},{"id":"goodprice-incheon-233","name":"옥이네겹살이","address":"인천광역시남동구담방로48번길13-101층(만수동)","jibunAddress":"","phone":"032-466-3765","foodType":"한식","mainFood":"삼겹살(180g)","designatedDate":"","lat":37.4439241,"lng":126.7400596,"region":"인천광역시","source":"goodprice","goodpriceMenus":[{"name":"삼겹살(180g)","price":"9900"},{"name":"냉동삼겹살(200g)","price":"7900"},{"name":"대패삼겹살(180g)","price":"9900"},{"name":"한우차돌박이(100g)","price":"11800"}]},{"id":"goodprice-incheon-234","name":"노릇노릇","address":"인천광역시남동구장도로86-172층(논현동)","jibunAddress":"","phone":"0507-1409-0739","foodType":"한식","mainFood":"해물파전","designatedDate":"","lat":37.4006107,"lng":126.7371919,"region":"인천광역시","source":"goodprice","goodpriceMenus":[{"name":"해물파전","price":"8000"}]},{"id":"goodprice-incheon-235","name":"국밥스토리","address":"인천광역시남동구인주대로681번길19101호(구월동)","jibunAddress":"","phone":"","foodType":"한식","mainFood":"돼지국밥(전화포장)","designatedDate":"","lat":37.4511446,"lng":126.7128868,"region":"인천광역시","source":"goodprice","goodpriceMenus":[{"name":"돼지국밥(전화포장)","price":"10500"},{"name":"순대국밥(전화포장)","price":"10500"}]},{"id":"goodprice-incheon-236","name":"논현동국수당","address":"인천광역시남동구논고개로123번길45-1107호(논현동로얄프라자)","jibunAddress":"","phone":"032-426-0123","foodType":"한식","mainFood":"잔치국수","designatedDate":"","lat":37.4021409,"lng":126.7237744,"region":"인천광역시","source":"goodprice","goodpriceMenus":[{"name":"잔치국수","price":"4500"},{"name":"비빔국수","price":"7000"}]},{"id":"goodprice-incheon-237","name":"명가설렁탕","address":"인천광역시부평구주부토로66번길141층102호(부평동)","jibunAddress":"","phone":"032-330-8277","foodType":"한식","mainFood":"떡만두국","designatedDate":"","lat":37.5008008,"lng":126.7276355,"region":"인천광역시","source":"goodprice","goodpriceMenus":[{"name":"떡만두국","price":"9000"},{"name":"명가설렁탕","price":"9000"},{"name":"육개장","price":"9000"}]},{"id":"goodprice-incheon-239","name":"임계동커피집","address":"인천광역시부평구주부토로81번길50래미안C상가221호(부평동)","jibunAddress":"","phone":"032-505-9133","foodType":"기타","mainFood":"아메리카노","designatedDate":"","lat":37.5023689,"lng":126.7239635,"region":"인천광역시","source":"goodprice","goodpriceMenus":[{"name":"아메리카노","price":"2500"},{"name":"바닐라라떼","price":"4000"},{"name":"카라멜마끼아또","price":"4000"}]},{"id":"goodprice-incheon-240","name":"로데오친구들","address":"인천광역시부평구부평문화로65번길13(부평동)","jibunAddress":"","phone":"032-523-3814","foodType":"한식","mainFood":"제육덮밥","designatedDate":"","lat":37.4950906,"lng":126.7234925,"region":"인천광역시","source":"goodprice","goodpriceMenus":[{"name":"제육덮밥","price":"7000"},{"name":"김치볶음밥","price":"7000"},{"name":"참치볶음밥","price":"7000"}]},{"id":"goodprice-incheon-241","name":"부평뼈해장국","address":"인천광역시부평구주부토로66번길1(부평동)","jibunAddress":"","phone":"032-514-7767","foodType":"한식","mainFood":"된장찌개","designatedDate":"","lat":37.5006363,"lng":126.7267715,"region":"인천광역시","source":"goodprice","goodpriceMenus":[{"name":"된장찌개","price":"7000"},{"name":"백반","price":"7000"},{"name":"청국장","price":"8000"}]},{"id":"goodprice-incheon-242","name":"진수성찬","address":"인천광역시부평구신트리로14(부평동)","jibunAddress":"","phone":"032-506-5987","foodType":"한식","mainFood":"백반","designatedDate":"","lat":37.5062783,"lng":126.7219453,"region":"인천광역시","source":"goodprice","goodpriceMenus":[{"name":"백반","price":"6000"},{"name":"청국장","price":"8000"},{"name":"김치찌개","price":"8000"}]},{"id":"goodprice-incheon-243","name":"짬뽕집","address":"인천광역시부평구배곶북로19(십정동)","jibunAddress":"","phone":"","foodType":"중식","mainFood":"등심탕수육","designatedDate":"","lat":37.4739249,"lng":126.696798,"region":"인천광역시","source":"goodprice","goodpriceMenus":[{"name":"등심탕수육","price":"20000"},{"name":"짜장","price":"5000"},{"name":"쟁반짜장","price":"8000"}]},{"id":"goodprice-incheon-244","name":"서가면옥","address":"인천광역시부평구신촌로68-11층(부평동)","jibunAddress":"","phone":"032-506-9432","foodType":"한식","mainFood":"한방보쌈정식","designatedDate":"","lat":37.4886273,"lng":126.7107118,"region":"인천광역시","source":"goodprice","goodpriceMenus":[{"name":"한방보쌈정식","price":"10000"},{"name":"연탄돼지구이정식","price":"10000"},{"name":"통영굴국밥","price":"10000"}]},{"id":"goodprice-incheon-245","name":"어머니홍두깨칼국수","address":"인천광역시부평구부흥로316번길371층21호(부평동)","jibunAddress":"","phone":"032-522-6669","foodType":"한식","mainFood":"잔치국수","designatedDate":"","lat":37.4965056,"lng":126.7268168,"region":"인천광역시","source":"goodprice","goodpriceMenus":[{"name":"잔치국수","price":"3000"},{"name":"손칼국수","price":"5000"},{"name":"손칼제비","price":"5000"}]},{"id":"goodprice-incheon-246","name":"촌장서서갈비","address":"인천광역시부평구부평대로165번길102층203204호(부평동)","jibunAddress":"","phone":"032-505-0292","foodType":"한식","mainFood":"불뚝배기","designatedDate":"","lat":37.5040808,"lng":126.7184408,"region":"인천광역시","source":"goodprice","goodpriceMenus":[{"name":"불뚝배기","price":"8000"},{"name":"돼지갈비(250g)","price":"10900"},{"name":"삼겹살(180g)","price":"10900"}]},{"id":"goodprice-incheon-247","name":"포동포동","address":"인천광역시부평구안남로261113호(산곡동전방프라자)","jibunAddress":"","phone":"032-330-3032","foodType":"한식","mainFood":"생고기김치찌개","designatedDate":"","lat":37.4999429,"lng":126.7083915,"region":"인천광역시","source":"goodprice","goodpriceMenus":[{"name":"생고기김치찌개","price":"8000"},{"name":"냉동삼겹살(200g)","price":"8900"},{"name":"등심돈가스","price":"7000"}]},{"id":"goodprice-incheon-248","name":"면사무소","address":"인천광역시부평구부흥로303번길311층(부평동)","jibunAddress":"","phone":"032-515-6660","foodType":"한식","mainFood":"멸치국수","designatedDate":"","lat":37.499217,"lng":126.7257823,"region":"인천광역시","source":"goodprice","goodpriceMenus":[{"name":"멸치국수","price":"5000"},{"name":"비빔국수","price":"7000"},{"name":"온김치말이국수","price":"7000"}]},{"id":"goodprice-incheon-249","name":"태흥정육식당","address":"인천광역시부평구주부토로146번길321층(갈산동)","jibunAddress":"","phone":"032-522-8252","foodType":"한식","mainFood":"돼지제육백반","designatedDate":"","lat":37.5080178,"lng":126.7275339,"region":"인천광역시","source":"goodprice","goodpriceMenus":[{"name":"돼지제육백반","price":"8000"},{"name":"소뚝배기불백","price":"8000"},{"name":"냉동삼겹살(200g)","price":"10000"}]},{"id":"goodprice-incheon-250","name":"갈산냉면家돈까스","address":"인천광역시부평구주부토로3081층(갈산동)","jibunAddress":"","phone":"032-513-7982","foodType":"양식","mainFood":"매콤까스","designatedDate":"","lat":37.5131296,"lng":126.7259541,"region":"인천광역시","source":"goodprice","goodpriceMenus":[{"name":"매콤까스","price":"9000"},{"name":"불고기단품(350g)","price":"9000"},{"name":"왕만두","price":"7000"}]},{"id":"goodprice-incheon-251","name":"타박네","address":"인천광역시부평구길주로602번길3(부평동)","jibunAddress":"","phone":"032-519-6595","foodType":"한식","mainFood":"가정식백반","designatedDate":"","lat":37.5062369,"lng":126.7290844,"region":"인천광역시","source":"goodprice","goodpriceMenus":[{"name":"가정식백반","price":"8000"}]},{"id":"goodprice-incheon-252","name":"끼니분식","address":"인천광역시부평구신트리로22번길61층(부평동)","jibunAddress":"","phone":"032-255-2734","foodType":"한식","mainFood":"우엉김밥","designatedDate":"","lat":37.5052833,"lng":126.7235925,"region":"인천광역시","source":"goodprice","goodpriceMenus":[{"name":"우엉김밥","price":"3500"},{"name":"돈까스","price":"8000"},{"name":"김치볶음밥","price":"7000"}]},{"id":"goodprice-incheon-253","name":"아구그림본점","address":"인천광역시부평구부평대로122-21층(부평동)","jibunAddress":"","phone":"032-710-4678","foodType":"한식","mainFood":"아구찜(소)","designatedDate":"","lat":37.523164,"lng":126.7220807,"region":"인천광역시","source":"goodprice","goodpriceMenus":[{"name":"아구찜(소)","price":"28000"},{"name":"해물아구찜(중)","price":"38000"},{"name":"순살아구찜(소)","price":"33000"}]},{"id":"goodprice-incheon-254","name":"열우물생고기","address":"인천광역시부평구평천로3041층일부(갈산동)","jibunAddress":"","phone":"032-506-9289","foodType":"한식","mainFood":"차돌박이(150g)","designatedDate":"","lat":37.5175846,"lng":126.7293958,"region":"인천광역시","source":"goodprice","goodpriceMenus":[{"name":"차돌박이(150g)","price":"23000"},{"name":"통삼겹(200g)","price":"16000"},{"name":"목삼겹(200g)","price":"16000"}]},{"id":"goodprice-incheon-255","name":"장수반찬","address":"인천광역시부평구체육관로401층104호(삼산동신영프라자)","jibunAddress":"","phone":"","foodType":"한식","mainFood":"4팩","designatedDate":"","lat":37.5087173,"lng":126.732075,"region":"인천광역시","source":"goodprice","goodpriceMenus":[{"name":"4팩","price":"10000"},{"name":"쇠고기미역국","price":"7000"},{"name":"감자등뼈찜","price":"13000"}]},{"id":"goodprice-incheon-256","name":"낙원떡집","address":"인천광역시부평구육동로141층(부평동)","jibunAddress":"","phone":"032-501-6492","foodType":"한식","mainFood":"모듬찰떡(8Kg)","designatedDate":"","lat":37.4870762,"lng":126.7249626,"region":"인천광역시","source":"goodprice","goodpriceMenus":[{"name":"모듬찰떡(8Kg)","price":"160000"},{"name":"밥풀인절미(8Kg)","price":"130000"},{"name":"찰시루떡(8Kg)","price":"120000"}]},{"id":"goodprice-incheon-257","name":"동원각","address":"인천광역시부평구부일로113번길471층(부개동)","jibunAddress":"","phone":"032-501-7194","foodType":"중식","mainFood":"간짜장","designatedDate":"","lat":37.4914738,"lng":126.74224,"region":"인천광역시","source":"goodprice","goodpriceMenus":[{"name":"간짜장","price":"7000"},{"name":"볶음밥","price":"7000"},{"name":"짬뽕","price":"7000"}]},{"id":"goodprice-incheon-258","name":"디마일즈","address":"인천광역시부평구경인로891번길431층101호(부평동)","jibunAddress":"","phone":"032-330-3001","foodType":"기타","mainFood":"인절미빙수","designatedDate":"","lat":37.4868838,"lng":126.7188468,"region":"인천광역시","source":"goodprice","goodpriceMenus":[{"name":"인절미빙수","price":"9900"},{"name":"팥인절미빙수","price":"10900"}]},{"id":"goodprice-incheon-259","name":"미스터초이(Mr.CHOI)","address":"인천광역시부평구부흥북로35103호(부평동송림빌딩)","jibunAddress":"","phone":"032-515-3824","foodType":"기타","mainFood":"드립커피","designatedDate":"","lat":37.5009211,"lng":126.7326456,"region":"인천광역시","source":"goodprice","goodpriceMenus":[{"name":"드립커피","price":"2000"},{"name":"원두","price":"8000"}]},{"id":"goodprice-incheon-260","name":"밥하루","address":"인천광역시부평구영성서로311동일부호(삼산동동원빌딩)","jibunAddress":"","phone":"032-517-6646","foodType":"한식","mainFood":"제육볶음","designatedDate":"","lat":37.5207874,"lng":126.7428365,"region":"인천광역시","source":"goodprice","goodpriceMenus":[{"name":"제육볶음","price":"11900"},{"name":"부대찌개","price":"12900"},{"name":"돼지갈비찜","price":"13900"}]},{"id":"goodprice-incheon-261","name":"부평칼국수","address":"인천광역시부평구동수천로861층(부개동)","jibunAddress":"","phone":"032-502-8855","foodType":"한식","mainFood":"칼국수","designatedDate":"","lat":37.4910777,"lng":126.7358011,"region":"인천광역시","source":"goodprice","goodpriceMenus":[{"name":"칼국수","price":"7500"}]},{"id":"goodprice-incheon-262","name":"부흥기사식당","address":"인천광역시부평구부흥로387(부개동)","jibunAddress":"","phone":"032-529-4127","foodType":"한식","mainFood":"된장찌개","designatedDate":"","lat":37.4980059,"lng":126.7349786,"region":"인천광역시","source":"goodprice","goodpriceMenus":[{"name":"된장찌개","price":"7000"},{"name":"동태찌개","price":"8000"},{"name":"김치찌개","price":"7000"}]},{"id":"goodprice-incheon-263","name":"북새통","address":"인천광역시부평구갈월서로61층(갈산동대우빌딩)","jibunAddress":"","phone":"032-525-1888","foodType":"한식","mainFood":"즉석떡볶이","designatedDate":"","lat":37.5103829,"lng":126.7233857,"region":"인천광역시","source":"goodprice","goodpriceMenus":[{"name":"즉석떡볶이","price":"6000"},{"name":"차돌박이떡볶이","price":"10000"},{"name":"대패떡볶이","price":"9000"}]},{"id":"goodprice-incheon-264","name":"오리감자탕곱창전문","address":"인천광역시부평구경인로1012번길341층(부평동)","jibunAddress":"","phone":"032-522-8853","foodType":"한식","mainFood":"삽겹살(200g)","designatedDate":"","lat":37.4858333,"lng":126.7317288,"region":"인천광역시","source":"goodprice","goodpriceMenus":[{"name":"삽겹살(200g)","price":"5000"},{"name":"오리백숙","price":"30000"},{"name":"오리로스(200g)","price":"6000"}]},{"id":"goodprice-incheon-265","name":"원숯불한우촌","address":"인천광역시부평구마장로36번길26지하1층B08~B10호(십정동더카운티)","jibunAddress":"","phone":"032-501-5053","foodType":"한식","mainFood":"왕갈비탕","designatedDate":"","lat":37.4826969,"lng":126.7092414,"region":"인천광역시","source":"goodprice","goodpriceMenus":[{"name":"왕갈비탕","price":"13000"},{"name":"비빔밥","price":"9000"},{"name":"삼겹살(200g)","price":"14000"}]},{"id":"goodprice-incheon-266","name":"풍성한뒷고기","address":"인천광역시부평구부평대로63번길81층(부평동)","jibunAddress":"","phone":"032-501-8254","foodType":"한식","mainFood":"백반","designatedDate":"","lat":37.4973746,"lng":126.720538,"region":"인천광역시","source":"goodprice","goodpriceMenus":[{"name":"백반","price":"9000"},{"name":"뒷고기모듬(600g)","price":"40000"},{"name":"홍어무침","price":"20000"}]},{"id":"goodprice-incheon-267","name":"부부밥상","address":"인천광역시부평구경원대로1363번길5(부평동)","jibunAddress":"","phone":"032-513-1694","foodType":"한식","mainFood":"간장게장+고등어구이","designatedDate":"","lat":37.4919472,"lng":126.7205041,"region":"인천광역시","source":"goodprice","goodpriceMenus":[{"name":"간장게장+고등어구이","price":"8000"},{"name":"양념게장+고등어구이","price":"9000"},{"name":"게장비빔밥+고등어구이","price":"9000"}]},{"id":"goodprice-incheon-268","name":"거인뒷고기부평점","address":"인천광역시부평구길주남로125번길61층(부개동대원빌딩)","jibunAddress":"","phone":"070-8691-0096","foodType":"한식","mainFood":"뒷고기(300g)","designatedDate":"","lat":37.5043565,"lng":126.7357747,"region":"인천광역시","source":"goodprice","goodpriceMenus":[{"name":"뒷고기(300g)","price":"11000"},{"name":"뽈살(300g)","price":"11000"},{"name":"모듬(300g)","price":"14000"},{"name":"덜미살(300g)","price":"15000"}]},{"id":"goodprice-incheon-269","name":"치킨러버","address":"인천광역시부평구일신로14번길51층일부(일신동)","jibunAddress":"","phone":"032-724-9294","foodType":"한식","mainFood":"옛날통락(포장)","designatedDate":"","lat":37.4839755,"lng":126.7446036,"region":"인천광역시","source":"goodprice","goodpriceMenus":[{"name":"옛날통락(포장)","price":"9000"},{"name":"순한닭강정(포장)","price":"11000"},{"name":"똥집튀김(포장)","price":"8000"}]},{"id":"goodprice-incheon-270","name":"청천(淸川)뚝배기","address":"인천광역시부평구세월천로17105호(청천동)","jibunAddress":"","phone":"0507-1346-5188","foodType":"한식","mainFood":"뚝배기불고기","designatedDate":"","lat":37.5145616,"lng":126.6933622,"region":"인천광역시","source":"goodprice","goodpriceMenus":[{"name":"뚝배기불고기","price":"9000"},{"name":"도가니탕","price":"9900"}]},{"id":"goodprice-incheon-271","name":"고미당","address":"인천광역시부평구청중로861층일부호(청천동)","jibunAddress":"","phone":"070-7808-1233","foodType":"기타","mainFood":"아메리카노","designatedDate":"","lat":37.5173653,"lng":126.7071664,"region":"인천광역시","source":"goodprice","goodpriceMenus":[{"name":"아메리카노","price":"2500"}]},{"id":"goodprice-incheon-272","name":"마망","address":"인천광역시부평구부흥로2462단지정문앞상가1층107호(부평동)","jibunAddress":"","phone":"032-513-0450","foodType":"기타","mainFood":"소보로/크림빵","designatedDate":"","lat":37.4987818,"lng":126.7196409,"region":"인천광역시","source":"goodprice","goodpriceMenus":[{"name":"소보로/크림빵","price":"1000"},{"name":"단팥빵/완두앙금","price":"1200"}]},{"id":"goodprice-incheon-273","name":"이정닭갈비","address":"인천광역시부평구평천로2861층일부(갈산동)","jibunAddress":"","phone":"070-7537-3022","foodType":"한식","mainFood":"닭갈비덮밥","designatedDate":"","lat":37.5210395,"lng":126.6930792,"region":"인천광역시","source":"goodprice","goodpriceMenus":[{"name":"닭갈비덮밥","price":"9500"},{"name":"동치미/열무냉국수","price":"6500"}]},{"id":"goodprice-incheon-274","name":"만원족발","address":"인천광역시부평구부흥로304번길27제3호내제라동24호(진홍상가)(부평동)","jibunAddress":"","phone":"","foodType":"한식","mainFood":"순살족발(500g)","designatedDate":"","lat":37.4966393,"lng":126.7258521,"region":"인천광역시","source":"goodprice","goodpriceMenus":[{"name":"순살족발(500g)","price":"10000"},{"name":"미니족발(3족)","price":"10000"}]},{"id":"goodprice-incheon-275","name":"행복손칼국수","address":"인천광역시계양구계산로83(계산동)","jibunAddress":"","phone":"032-555-0221","foodType":"한식","mainFood":"손칼국수","designatedDate":"","lat":37.5390735,"lng":126.7185206,"region":"인천광역시","source":"goodprice","goodpriceMenus":[{"name":"손칼국수","price":"6000"},{"name":"항아리수제비","price":"6000"},{"name":"콩나물비빔밥","price":"7000"},{"name":"제육덮밥","price":"8000"}]},{"id":"goodprice-incheon-276","name":"차종인설렁탕","address":"인천광역시계양구양지로44(동양동)","jibunAddress":"","phone":"032-543-6892","foodType":"한식","mainFood":"설렁탕","designatedDate":"","lat":37.5661448,"lng":126.7532973,"region":"인천광역시","source":"goodprice","goodpriceMenus":[{"name":"설렁탕","price":"8500"},{"name":"도가니탕","price":"16000"},{"name":"소갈비찜","price":"19000"},{"name":"버섯불고기","price":"34000"}]},{"id":"goodprice-incheon-277","name":"놀부홍두깨칼국수","address":"인천광역시계양구계양산로215번길41층(병방동)","jibunAddress":"","phone":"032-545-4194","foodType":"한식","mainFood":"돈가스","designatedDate":"","lat":37.5486187,"lng":126.7407562,"region":"인천광역시","source":"goodprice","goodpriceMenus":[{"name":"돈가스","price":"8000"},{"name":"칼국수","price":"6000"},{"name":"쫄면","price":"7000"},{"name":"만두국","price":"8000"}]},{"id":"goodprice-incheon-278","name":"남원골추어탕","address":"인천광역시계양구계양대로122(작전동)","jibunAddress":"","phone":"032-543-5588","foodType":"한식","mainFood":"강황밥추어탕","designatedDate":"","lat":37.5239311,"lng":126.7221491,"region":"인천광역시","source":"goodprice","goodpriceMenus":[{"name":"강황밥추어탕","price":"10000"},{"name":"추어튀김","price":"10000"}]},{"id":"goodprice-incheon-279","name":"김재국만두전문점","address":"인천광역시계양구주부토로530(계산동)","jibunAddress":"","phone":"032-556-8980","foodType":"한식","mainFood":"고기만두","designatedDate":"","lat":37.5289028,"lng":126.7292686,"region":"인천광역시","source":"goodprice","goodpriceMenus":[{"name":"고기만두","price":"5000"},{"name":"김치만두","price":"5000"},{"name":"고기만두국","price":"8000"},{"name":"김치만두국","price":"8000"}]},{"id":"goodprice-incheon-280","name":"영우동","address":"인천광역시계양구임학동로491층일부호(임학동)","jibunAddress":"","phone":"032-212-1888","foodType":"한식","mainFood":"영우동","designatedDate":"","lat":37.5447683,"lng":126.7363071,"region":"인천광역시","source":"goodprice","goodpriceMenus":[{"name":"영우동","price":"5000"},{"name":"주먹밥","price":"2500"},{"name":"냉모밀","price":"7000"},{"name":"돈까스","price":"7500"}]},{"id":"goodprice-incheon-281","name":"어머니밥상","address":"인천광역시계양구오조산로57번길153층(계산동)","jibunAddress":"","phone":"032-556-6330","foodType":"한식","mainFood":"김치찌개","designatedDate":"","lat":37.5360671,"lng":126.7376365,"region":"인천광역시","source":"goodprice","goodpriceMenus":[{"name":"김치찌개","price":"7000"},{"name":"된장찌개","price":"7000"}]},{"id":"goodprice-incheon-282","name":"풍년막걸리","address":"인천광역시계양구장제로875번길10-1(임학동)","jibunAddress":"","phone":"070-4028-6766","foodType":"한식","mainFood":"김치전","designatedDate":"","lat":37.5455957,"lng":126.7380441,"region":"인천광역시","source":"goodprice","goodpriceMenus":[{"name":"김치전","price":"6000"},{"name":"부추전","price":"8000"},{"name":"보쌈","price":"23000"}]},{"id":"goodprice-incheon-283","name":"남해횟집","address":"인천광역시계양구주부토로571101호(계산동)","jibunAddress":"","phone":"032-542-8965","foodType":"일식","mainFood":"우럭회+탕","designatedDate":"","lat":37.5289028,"lng":126.7292686,"region":"인천광역시","source":"goodprice","goodpriceMenus":[{"name":"우럭회+탕","price":"50000"},{"name":"광어회+탕","price":"50000"}]},{"id":"goodprice-incheon-284","name":"굴천국","address":"인천광역시계양구임학동로55-1(임학동)","jibunAddress":"","phone":"032-546-9295","foodType":"한식","mainFood":"굴국밥","designatedDate":"","lat":37.5447683,"lng":126.7363071,"region":"인천광역시","source":"goodprice","goodpriceMenus":[{"name":"굴국밥","price":"9000"},{"name":"굴얼큰칼국수","price":"9000"}]},{"id":"goodprice-incheon-285","name":"밀밭길","address":"인천광역시계양구용마루1길11(용종동)","jibunAddress":"","phone":"032-555-4204","foodType":"한식","mainFood":"밀면","designatedDate":"","lat":37.5434479,"lng":126.743364,"region":"인천광역시","source":"goodprice","goodpriceMenus":[{"name":"밀면","price":"7000"},{"name":"비빔밀면","price":"7000"},{"name":"만두","price":"5000"}]},{"id":"goodprice-incheon-286","name":"단골분식","address":"인천광역시계양구안산로50(임학동)","jibunAddress":"","phone":"032-549-9043","foodType":"한식","mainFood":"김밥","designatedDate":"","lat":37.5436606,"lng":126.7327975,"region":"인천광역시","source":"goodprice","goodpriceMenus":[{"name":"김밥","price":"3000"},{"name":"떡볶이","price":"3000"},{"name":"주먹밥","price":"3000"}]},{"id":"goodprice-incheon-287","name":"손가네짬뽕","address":"인천광역시계양구계양대로194번길8(계산동)","jibunAddress":"","phone":"032-555-8688","foodType":"중식","mainFood":"짬뽕","designatedDate":"","lat":37.541167,"lng":126.7239707,"region":"인천광역시","source":"goodprice","goodpriceMenus":[{"name":"짬뽕","price":"7000"},{"name":"자장면","price":"6000"},{"name":"굴짬뽕","price":"9000"},{"name":"소고기짬뽕","price":"9000"}]},{"id":"goodprice-incheon-288","name":"에버그린","address":"인천광역시계양구주부토로4771층(계산동)","jibunAddress":"","phone":"032-554-1236","foodType":"한식","mainFood":"김치볶음밥","designatedDate":"","lat":37.5289028,"lng":126.7292686,"region":"인천광역시","source":"goodprice","goodpriceMenus":[{"name":"김치볶음밥","price":"7000"},{"name":"돈가스","price":"8000"},{"name":"칼국수","price":"7000"},{"name":"비빔밥","price":"7000"}]},{"id":"goodprice-incheon-289","name":"가빈","address":"인천광역시계양구계양산로64102호(계산동)","jibunAddress":"","phone":"032-554-3600","foodType":"한식","mainFood":"돈까스","designatedDate":"","lat":37.5454323,"lng":126.7190608,"region":"인천광역시","source":"goodprice","goodpriceMenus":[{"name":"돈까스","price":"9500"},{"name":"치즈돈까스","price":"10500"},{"name":"매콤돈까스","price":"10000"},{"name":"고구마돈까스","price":"10000"}]},{"id":"goodprice-incheon-290","name":"장모님본가","address":"인천광역시계양구봉오대로691번길271층(작전동)","jibunAddress":"","phone":"032-543-5262","foodType":"한식","mainFood":"한방삼계탕","designatedDate":"","lat":37.5325103,"lng":126.7258149,"region":"인천광역시","source":"goodprice","goodpriceMenus":[{"name":"한방삼계탕","price":"14000"},{"name":"옻삼계탕","price":"16000"}]},{"id":"goodprice-incheon-291","name":"빈스토리계산점","address":"인천광역시계양구어사대로9번길2102호(계산동성신하이츠빌)","jibunAddress":"","phone":"032-552-3518","foodType":"기타","mainFood":"아메리카노","designatedDate":"","lat":37.5423845,"lng":126.725384,"region":"인천광역시","source":"goodprice","goodpriceMenus":[{"name":"아메리카노","price":"2000"},{"name":"카페라떼","price":"3000"}]},{"id":"goodprice-incheon-292","name":"하나미","address":"인천광역시계양구오조산로89번길6201호(용종동)","jibunAddress":"","phone":"032-556-5551","foodType":"일식","mainFood":"하나미정식","designatedDate":"","lat":37.5389754,"lng":126.7372489,"region":"인천광역시","source":"goodprice","goodpriceMenus":[{"name":"하나미정식","price":"12000"},{"name":"히레까스","price":"10000"}]},{"id":"goodprice-incheon-293","name":"동경식당","address":"인천광역시계양구아나지로197번길9상가동102호(효성동유승그린아파트)","jibunAddress":"","phone":"032-547-4479","foodType":"중식","mainFood":"짜장면","designatedDate":"","lat":37.5266344,"lng":126.7137535,"region":"인천광역시","source":"goodprice","goodpriceMenus":[{"name":"짜장면","price":"6000"},{"name":"짬뽕","price":"7000"}]},{"id":"goodprice-incheon-294","name":"착한고기정육식당","address":"인천광역시계양구장제로7232층일부호(작전동)","jibunAddress":"","phone":"032-552-4144","foodType":"한식","mainFood":"한돈생삽겹살(150g)","designatedDate":"","lat":37.5245951,"lng":126.7332022,"region":"인천광역시","source":"goodprice","goodpriceMenus":[{"name":"한돈생삽겹살(150g)","price":"9900"}]},{"id":"goodprice-incheon-295","name":"들꽃국시","address":"인천광역시계양구용종로30상가동101호(계산동은행마을아주아파트)","jibunAddress":"","phone":"032-277-2900","foodType":"한식","mainFood":"잔치국수","designatedDate":"","lat":37.5357829,"lng":126.7413913,"region":"인천광역시","source":"goodprice","goodpriceMenus":[{"name":"잔치국수","price":"5000"},{"name":"비빔국수","price":"5000"}]},{"id":"goodprice-incheon-296","name":"우리집분식","address":"인천광역시계양구경명대로1045번길21-11층일부호(5호)(계산동)","jibunAddress":"","phone":"","foodType":"한식","mainFood":"김밥","designatedDate":"","lat":37.5455893,"lng":126.7230586,"region":"인천광역시","source":"goodprice","goodpriceMenus":[{"name":"김밥","price":"3000"},{"name":"라볶이","price":"4000"}]},