[{"id":"goodprice-busan-0","name":"전주식당","address":"부산광역시중구대청로137번길9-1(중앙동)","jibunAddress":"","phone":"051-469-0771","foodType":"한식","mainFood":"돌솥밥","designatedDate":"","lat":35.1033973,"lng":129.0349905,"region":"부산광역시","source":"goodprice","goodpriceMenus":[{"name":"돌솥밥","price":"8500"},{"name":"돌솥비빔밥","price":"7500"},{"name":"치즈밥","price":"7500"}]},{"id":"goodprice-busan-1","name":"구포밀면","address":"부산광역시중구대청로141(중앙동)","jibunAddress":"","phone":"051-466-6112","foodType":"한식","mainFood":"손칼국수","designatedDate":"","lat":35.1031519,"lng":129.0250711,"region":"부산광역시","source":"goodprice","goodpriceMenus":[{"name":"손칼국수","price":"6000"},{"name":"해물칼국수","price":"7000"},{"name":"국수","price":"5500"}]},{"id":"goodprice-busan-2","name":"한양왕순대","address":"부산광역시중구해관로20-1(중앙동)","jibunAddress":"","phone":"051-245-9138","foodType":"한식","mainFood":"순대국밥","designatedDate":"","lat":35.1030945,"lng":129.0356219,"region":"부산광역시","source":"goodprice","goodpriceMenus":[{"name":"순대국밥","price":"9000"},{"name":"돼지국밥","price":"9000"}]},{"id":"goodprice-busan-3","name":"남원원조추어탕","address":"부산광역시중구해관로37-1(중앙동)","jibunAddress":"","phone":"051-246-5636","foodType":"한식","mainFood":"추어탕","designatedDate":"","lat":35.1030945,"lng":129.0356219,"region":"부산광역시","source":"goodprice","goodpriceMenus":[{"name":"추어탕","price":"9000"},{"name":"돌솥비빔밥","price":"8000"}]},{"id":"goodprice-busan-4","name":"뚱보집","address":"부산광역시중구중앙대로29번길2-11(중앙동)","jibunAddress":"","phone":"051-246-7466","foodType":"한식","mainFood":"콩나물밥","designatedDate":"","lat":35.1001849,"lng":129.0358421,"region":"부산광역시","source":"goodprice","goodpriceMenus":[{"name":"콩나물밥","price":"4000"},{"name":"주꾸미구이","price":"18000"}]},{"id":"goodprice-busan-5","name":"대성밀냉면전문","address":"부산광역시중구보수대로44번길6(부평동)","jibunAddress":"","phone":"051-244-9658","foodType":"한식","mainFood":"밀면(소)","designatedDate":"","lat":35.1019099,"lng":129.0238152,"region":"부산광역시","source":"goodprice","goodpriceMenus":[{"name":"밀면(소)","price":"8000"}]},{"id":"goodprice-busan-6","name":"일미기사식당","address":"부산광역시중구흑교로16-1(부평동)","jibunAddress":"","phone":"051-253-4440","foodType":"한식","mainFood":"시락국밥","designatedDate":"","lat":35.1060016,"lng":129.0235375,"region":"부산광역시","source":"goodprice","goodpriceMenus":[{"name":"시락국밥","price":"4500"},{"name":"선지국밥","price":"5000"},{"name":"우동","price":"3500"}]},{"id":"goodprice-busan-7","name":"남포수제비","address":"부산광역시중구광복로49번길7-1(창선동)","jibunAddress":"","phone":"051-245-6821","foodType":"한식","mainFood":"충무김밥","designatedDate":"","lat":35.100763,"lng":129.0304715,"region":"부산광역시","source":"goodprice","goodpriceMenus":[{"name":"충무김밥","price":"6500"}]},{"id":"goodprice-busan-8","name":"고등어구이정식","address":"부산광역시중구자갈치로64-21층(남포동)","jibunAddress":"","phone":"051-241-6526","foodType":"한식","mainFood":"고등어구이","designatedDate":"","lat":35.0970652,"lng":129.0288672,"region":"부산광역시","source":"goodprice","goodpriceMenus":[{"name":"고등어구이","price":"8000"},{"name":"갈치구이","price":"10000"},{"name":"비빔밥","price":"8000"}]},{"id":"goodprice-busan-9","name":"미도리우동","address":"부산광역시중구흑교로45번길10-1(보수동)","jibunAddress":"","phone":"051-244-8246","foodType":"일식","mainFood":"유부초밥","designatedDate":"","lat":35.1037121,"lng":129.0225536,"region":"부산광역시","source":"goodprice","goodpriceMenus":[{"name":"유부초밥","price":"4000"},{"name":"우동","price":"5500"},{"name":"모밀국수","price":"7000"}]},{"id":"goodprice-busan-10","name":"남선식당","address":"부산광역시중구충장대로4번길6(중앙동4가)","jibunAddress":"","phone":"051-469-3828","foodType":"한식","mainFood":"순두부찌개","designatedDate":"","lat":35.1044145,"lng":129.036954,"region":"부산광역시","source":"goodprice","goodpriceMenus":[{"name":"순두부찌개","price":"7000"},{"name":"된장찌개","price":"7000"}]},{"id":"goodprice-busan-11","name":"대교식당","address":"부산광역시중구충장대로4번길8(중앙동4가)","jibunAddress":"","phone":"051-469-0146","foodType":"한식","mainFood":"된장찌개","designatedDate":"","lat":35.1044145,"lng":129.036954,"region":"부산광역시","source":"goodprice","goodpriceMenus":[{"name":"된장찌개","price":"6000"},{"name":"나물비빔밥","price":"6000"},{"name":"만두백반","price":"5500"}]},{"id":"goodprice-busan-12","name":"단골식당","address":"부산광역시중구동광길193(영주1동)","jibunAddress":"","phone":"051-441-8540","foodType":"한식","mainFood":"묵은지김치전골","designatedDate":"","lat":35.1105658,"lng":129.0371001,"region":"부산광역시","source":"goodprice","goodpriceMenus":[{"name":"묵은지김치전골","price":"8000"},{"name":"된장찌개","price":"7000"}]},{"id":"goodprice-busan-13","name":"동경식당","address":"부산광역시중구대청로99번길16(대청동2가)","jibunAddress":"","phone":"051-469-7162","foodType":"한식","mainFood":"추어탕","designatedDate":"","lat":35.1037098,"lng":129.030758,"region":"부산광역시","source":"goodprice","goodpriceMenus":[{"name":"추어탕","price":"10000"},{"name":"순두부","price":"7000"}]},{"id":"goodprice-busan-14","name":"카페두콩","address":"부산광역시중구흑교로46번길8(보수동1가)","jibunAddress":"","phone":"","foodType":"기타","mainFood":"아메리카노","designatedDate":"","lat":35.1035748,"lng":129.0257437,"region":"부산광역시","source":"goodprice","goodpriceMenus":[{"name":"아메리카노","price":"2500"},{"name":"카페라떼","price":"3500"}]},{"id":"goodprice-busan-15","name":"청춘탕수육","address":"부산광역시중구대청로135번길18(중앙동4가)","jibunAddress":"","phone":"051-468-3786","foodType":"중식","mainFood":"짜장면","designatedDate":"","lat":35.1044838,"lng":129.034835,"region":"부산광역시","source":"goodprice","goodpriceMenus":[{"name":"짜장면","price":"5000"},{"name":"짬뽕","price":"6000"},{"name":"볶음밥","price":"6000"}]},{"id":"goodprice-busan-16","name":"민아식당","address":"부산광역시중구충장대로9번길21-1(중앙동4가)","jibunAddress":"","phone":"051-462-1774","foodType":"한식","mainFood":"따로국밥","designatedDate":"","lat":35.1084872,"lng":129.0380741,"region":"부산광역시","source":"goodprice","goodpriceMenus":[{"name":"따로국밥","price":"8000"},{"name":"수육백반","price":"10000"}]},{"id":"goodprice-busan-17","name":"기와집","address":"부산광역시중구대청로137번길7-2(중앙동3가)","jibunAddress":"","phone":"051-961-8851","foodType":"한식","mainFood":"자연산송이전골","designatedDate":"","lat":35.1033973,"lng":129.0349905,"region":"부산광역시","source":"goodprice","goodpriceMenus":[{"name":"자연산송이전골","price":"10000"},{"name":"자연산송이밥","price":"10000"}]},{"id":"goodprice-busan-18","name":"퍼짱","address":"부산광역시중구충장대로9번길211층(중앙동4가)","jibunAddress":"","phone":"","foodType":"기타","mainFood":"양지곰탕","designatedDate":"","lat":35.1084872,"lng":129.0380741,"region":"부산광역시","source":"goodprice","goodpriceMenus":[{"name":"양지곰탕","price":"8500"},{"name":"양지쌀국수","price":"7500"}]},{"id":"goodprice-busan-19","name":"앤스토리","address":"부산광역시중구중구로33번길6-11층(부평동1가)","jibunAddress":"","phone":"051-256-2619","foodType":"한식","mainFood":"아구불고기(소)","designatedDate":"","lat":35.1009943,"lng":129.0264838,"region":"부산광역시","source":"goodprice","goodpriceMenus":[{"name":"아구불고기(소)","price":"28000"},{"name":"아구찜(소)","price":"30000"}]},{"id":"goodprice-busan-20","name":"급행","address":"부산광역시중구중앙대로41번길11-2(중앙동1가)","jibunAddress":"","phone":"051-246-6970","foodType":"한식","mainFood":"밀면","designatedDate":"","lat":35.1011534,"lng":129.0351141,"region":"부산광역시","source":"goodprice","goodpriceMenus":[{"name":"밀면","price":"6000"},{"name":"짬뽕","price":"6000"}]},{"id":"goodprice-busan-21","name":"석기시대","address":"부산광역시중구동광길75-11층(동광동5가)","jibunAddress":"","phone":"","foodType":"중식","mainFood":"오향장육(소)","designatedDate":"","lat":35.1040737,"lng":129.0345454,"region":"부산광역시","source":"goodprice","goodpriceMenus":[{"name":"오향장육(소)","price":"22000"},{"name":"만둣국","price":"7000"}]},{"id":"goodprice-busan-22","name":"깡통골목할매유부전골본점","address":"부산광역시중구부평3길29(부평동1가)","jibunAddress":"","phone":"051-245-1878","foodType":"한식","mainFood":"유부전골","designatedDate":"","lat":35.1022352,"lng":129.0272106,"region":"부산광역시","source":"goodprice","goodpriceMenus":[{"name":"유부전골","price":"6000"},{"name":"유부보따리우동","price":"6000"},{"name":"유부떡볶이","price":"5000"}]},{"id":"goodprice-busan-23","name":"황소식당","address":"부산광역시중구충장대로4번길8(중앙동4가)","jibunAddress":"","phone":"051-465-6648","foodType":"한식","mainFood":"부대찌개","designatedDate":"","lat":35.1044145,"lng":129.036954,"region":"부산광역시","source":"goodprice","goodpriceMenus":[{"name":"부대찌개","price":"7000"},{"name":"김치찌개","price":"7000"}]},{"id":"goodprice-busan-25","name":"돌고래","address":"부산광역시중구중구로40번길15(신창동2가)","jibunAddress":"","phone":"051-246-1825","foodType":"한식","mainFood":"순두부백반","designatedDate":"","lat":35.1014306,"lng":129.0297006,"region":"부산광역시","source":"goodprice","goodpriceMenus":[{"name":"순두부백반","price":"8000"},{"name":"된장찌개백반","price":"8000"}]},{"id":"goodprice-busan-26","name":"재성밀면","address":"부산광역시중구중앙대로41번길14-1(동광동3가)","jibunAddress":"","phone":"051-242-3836","foodType":"한식","mainFood":"물밀면","designatedDate":"","lat":35.1011534,"lng":129.0351141,"region":"부산광역시","source":"goodprice","goodpriceMenus":[{"name":"물밀면","price":"7000"},{"name":"비빔밀면","price":"7000"}]},{"id":"goodprice-busan-27","name":"마산아구찜","address":"부산광역시중구대청로90번길6-1(신창동1가)","jibunAddress":"","phone":"051-255-1184","foodType":"한식","mainFood":"아구찜","designatedDate":"","lat":35.1021938,"lng":129.0297397,"region":"부산광역시","source":"goodprice","goodpriceMenus":[{"name":"아구찜","price":"30000"},{"name":"꽃게찜","price":"30000"},{"name":"대구찜","price":"30000"}]},{"id":"goodprice-busan-28","name":"꽃가람남포직영점","address":"부산광역시중구비프광장로3(부평동2가)","jibunAddress":"","phone":"0507-1317-4600","foodType":"한식","mainFood":"고추장돼지불고기정식","designatedDate":"","lat":35.0985083,"lng":129.0266378,"region":"부산광역시","source":"goodprice","goodpriceMenus":[{"name":"고추장돼지불고기정식","price":"9500"},{"name":"쭈낙","price":"10000"},{"name":"쭈낙곱새","price":"10000"},{"name":"쭈불낙새","price":"10000"}]},{"id":"goodprice-busan-29","name":"쭈니네부엌","address":"부산광역시중구중구로861층(대청동4가)","jibunAddress":"","phone":"051-467-9359","foodType":"한식","mainFood":"추억의쫄우동","designatedDate":"","lat":35.1081521,"lng":129.0346339,"region":"부산광역시","source":"goodprice","goodpriceMenus":[{"name":"추억의쫄우동","price":"6000"},{"name":"카레덮밥","price":"6500"},{"name":"제육덮밥","price":"7500"}]},{"id":"goodprice-busan-30","name":"동명칼국수","address":"부산광역시중구중구로34번길232층(신창동1가)","jibunAddress":"","phone":"051-241-0061","foodType":"한식","mainFood":"칼국수","designatedDate":"","lat":35.1010397,"lng":129.0294472,"region":"부산광역시","source":"goodprice","goodpriceMenus":[{"name":"칼국수","price":"6500"},{"name":"비빔칼국수","price":"7000"},{"name":"만두","price":"5000"},{"name":"김밥","price":"3500"}]},{"id":"goodprice-busan-31","name":"쪽사리","address":"부산광역시중구중구로33번길51층(부평동1가)","jibunAddress":"","phone":"0507-1327-5879","foodType":"한식","mainFood":"쪽갈비(2인분)","designatedDate":"","lat":35.1009943,"lng":129.0264838,"region":"부산광역시","source":"goodprice","goodpriceMenus":[{"name":"쪽갈비(2인분)","price":"26000"},{"name":"치밥도시락","price":"8000"}]},{"id":"goodprice-busan-32","name":"양가손만두부평직영점","address":"부산광역시중구부평1길481층(부평동2가)","jibunAddress":"","phone":"051-243-8436","foodType":"한식","mainFood":"고기찐만두","designatedDate":"","lat":35.1013098,"lng":129.0258166,"region":"부산광역시","source":"goodprice","goodpriceMenus":[{"name":"고기찐만두","price":"7000"},{"name":"고기군만두","price":"7000"},{"name":"김치찐만두","price":"7000"},{"name":"김치군만두","price":"7000"}]},{"id":"goodprice-busan-33","name":"미향장어탕","address":"부산광역시중구남포길45-1(남포동2가)","jibunAddress":"","phone":"0507-1430-2452","foodType":"한식","mainFood":"장어탕","designatedDate":"","lat":35.099126,"lng":129.0292567,"region":"부산광역시","source":"goodprice","goodpriceMenus":[{"name":"장어탕","price":"12000"},{"name":"물냉면","price":"9000"},{"name":"비빔냉면","price":"9000"}]},{"id":"goodprice-busan-34","name":"오야꼬","address":"부산광역시중구중구로68(대청동4가)","jibunAddress":"","phone":"051-462-8989","foodType":"일식","mainFood":"모밀셋트","designatedDate":"","lat":35.104343,"lng":129.0296049,"region":"부산광역시","source":"goodprice","goodpriceMenus":[{"name":"모밀셋트","price":"8000"},{"name":"우동셋트","price":"8000"}]},{"id":"goodprice-busan-35","name":"본가이대감숯불촌","address":"부산광역시서구충무시장길7(충무동1가)","jibunAddress":"","phone":"051-241-6683","foodType":"한식","mainFood":"돼지갈비(230)","designatedDate":"","lat":35.0949122,"lng":129.0234208,"region":"부산광역시","source":"goodprice","goodpriceMenus":[{"name":"돼지갈비(230)","price":"11000"}]},{"id":"goodprice-busan-36","name":"시민제과","address":"부산광역시서구구덕로116(충무동1가)","jibunAddress":"","phone":"051-254-8990","foodType":"기타","mainFood":"롤케이크","designatedDate":"","lat":35.0967272,"lng":129.023559,"region":"부산광역시","source":"goodprice","goodpriceMenus":[{"name":"롤케이크","price":"12000"},{"name":"딸기롤케이크","price":"12000"}]},{"id":"goodprice-busan-37","name":"마을식당","address":"부산광역시서구구덕로148번길37(토성동1가)","jibunAddress":"","phone":"051-231-7877","foodType":"한식","mainFood":"순두부찌개","designatedDate":"","lat":35.0981538,"lng":129.0227857,"region":"부산광역시","source":"goodprice","goodpriceMenus":[{"name":"순두부찌개","price":"6500"},{"name":"김치찌개","price":"6500"}]},{"id":"goodprice-busan-38","name":"장원숯불갈비","address":"부산광역시서구구덕로144-7(토성동5가)","jibunAddress":"","phone":"051-244-6747","foodType":"한식","mainFood":"돼지갈비(200g)","designatedDate":"","lat":35.1125363,"lng":129.0165453,"region":"부산광역시","source":"goodprice","goodpriceMenus":[{"name":"돼지갈비(200g)","price":"9000"},{"name":"삼겹살(150g)","price":"9000"}]},{"id":"goodprice-busan-39","name":"참숯화로구이고주몽","address":"부산광역시서구구덕로148번길43-1(토성동1가)","jibunAddress":"","phone":"051-246-2452","foodType":"한식","mainFood":"돼지갈비(250g)","designatedDate":"","lat":35.0981538,"lng":129.0227857,"region":"부산광역시","source":"goodprice","goodpriceMenus":[{"name":"돼지갈비(250g)","price":"14000"}]},{"id":"goodprice-busan-40","name":"성일칼국수","address":"부산광역시서구해안새벽시장길8(충무동1가)","jibunAddress":"","phone":"051-244-1547","foodType":"한식","mainFood":"칼국수","designatedDate":"","lat":35.0949494,"lng":129.0253225,"region":"부산광역시","source":"goodprice","goodpriceMenus":[{"name":"칼국수","price":"5000"},{"name":"짜장면","price":"5000"}]},{"id":"goodprice-busan-41","name":"삼원두루치기","address":"부산광역시서구구덕로193번길12-17(부민동2가)","jibunAddress":"","phone":"051-231-5452","foodType":"한식","mainFood":"두루치기","designatedDate":"","lat":35.102025,"lng":129.0192551,"region":"부산광역시","source":"goodprice","goodpriceMenus":[{"name":"두루치기","price":"7500"}]},{"id":"goodprice-busan-42","name":"산바다","address":"부산광역시서구엄광산로6(서대신동3가)","jibunAddress":"","phone":"051-241-2976","foodType":"한식","mainFood":"메기매운탕","designatedDate":"","lat":35.1347591,"lng":129.0079288,"region":"부산광역시","source":"goodprice","goodpriceMenus":[{"name":"메기매운탕","price":"8000"},{"name":"빙어튀김","price":"10000"}]},{"id":"goodprice-busan-44","name":"별미집","address":"부산광역시서구구덕로333번길14(서대신동3가)","jibunAddress":"","phone":"051-254-9891","foodType":"한식","mainFood":"추어탕","designatedDate":"","lat":35.1130069,"lng":129.014684,"region":"부산광역시","source":"goodprice","goodpriceMenus":[{"name":"추어탕","price":"8000"}]},{"id":"goodprice-busan-45","name":"뷔페청","address":"부산광역시서구흑교로109번길43","jibunAddress":"","phone":"051-242-4311","foodType":"한식","mainFood":"성인","designatedDate":"","lat":35.1064213,"lng":129.0207371,"region":"부산광역시","source":"goodprice","goodpriceMenus":[{"name":"성인","price":"8000"},{"name":"초등","price":"5000"}]},{"id":"goodprice-busan-46","name":"부원","address":"부산광역시서구구덕로157번길6(토성동3가)","jibunAddress":"","phone":"051-256-0061","foodType":"중식","mainFood":"짜장면","designatedDate":"","lat":35.0987458,"lng":129.0190693,"region":"부산광역시","source":"goodprice","goodpriceMenus":[{"name":"짜장면","price":"4000"},{"name":"짬뽕","price":"6000"}]},{"id":"goodprice-busan-47","name":"함흥냉면","address":"부산광역시서구구덕로124번길55(토성동1가)","jibunAddress":"","phone":"051-254-5642","foodType":"한식","mainFood":"냉면","designatedDate":"","lat":35.0991232,"lng":129.0230639,"region":"부산광역시","source":"goodprice","goodpriceMenus":[{"name":"냉면","price":"8000"},{"name":"비빔냉면","price":"8000"}]},{"id":"goodprice-busan-48","name":"시골집","address":"부산광역시서구구덕로193번길22-21(부민동3가)","jibunAddress":"","phone":"051-257-9027","foodType":"한식","mainFood":"김치찌개","designatedDate":"","lat":35.102025,"lng":129.0192551,"region":"부산광역시","source":"goodprice","goodpriceMenus":[{"name":"김치찌개","price":"8000"},{"name":"된장찌개","price":"8000"}]},{"id":"goodprice-busan-49","name":"소떼식당","address":"부산광역시서구구덕로124번길38(토성동1가)","jibunAddress":"","phone":"051-261-7688","foodType":"한식","mainFood":"돼지갈비(150g)","designatedDate":"","lat":35.0976241,"lng":129.0226156,"region":"부산광역시","source":"goodprice","goodpriceMenus":[{"name":"돼지갈비(150g)","price":"10000"}]},{"id":"goodprice-busan-50","name":"유리네항아리수제비","address":"부산광역시서구엄광산로24(서대신동3가)","jibunAddress":"","phone":"","foodType":"한식","mainFood":"황태해장국","designatedDate":"","lat":35.1310594,"lng":129.0104859,"region":"부산광역시","source":"goodprice","goodpriceMenus":[{"name":"황태해장국","price":"6000"},{"name":"항아리수제비+공기밥","price":"6000"}]},{"id":"goodprice-busan-51","name":"촌국수정식","address":"부산광역시서구충무대로82번길22(암남동)","jibunAddress":"","phone":"051-241-2100","foodType":"한식","mainFood":"간장게장정식","designatedDate":"","lat":35.0785689,"lng":129.0214413,"region":"부산광역시","source":"goodprice","goodpriceMenus":[{"name":"간장게장정식","price":"7000"}]},{"id":"goodprice-busan-52","name":"미가도횟집","address":"부산광역시서구구덕로350문화아파트103호상가(동대신동3가)","jibunAddress":"","phone":"051-244-6266","foodType":"일식","mainFood":"회초밥","designatedDate":"","lat":35.1084774,"lng":129.0192144,"region":"부산광역시","source":"goodprice","goodpriceMenus":[{"name":"회초밥","price":"13000"},{"name":"생태탕","price":"13000"}]},{"id":"goodprice-busan-53","name":"뚜레박","address":"부산광역시서구엄광산로32(암남동)","jibunAddress":"","phone":"051-246-5233","foodType":"한식","mainFood":"청국장","designatedDate":"","lat":35.1310594,"lng":129.0104859,"region":"부산광역시","source":"goodprice","goodpriceMenus":[{"name":"청국장","price":"8000"}]},{"id":"goodprice-busan-54","name":"마산손팥칼국수","address":"부산광역시서구자갈치로10(충무동1가)","jibunAddress":"","phone":"051-243-7226","foodType":"한식","mainFood":"팥칼국수","designatedDate":"","lat":35.0965906,"lng":129.0251531,"region":"부산광역시","source":"goodprice","goodpriceMenus":[{"name":"팥칼국수","price":"6000"},{"name":"손칼국수","price":"4000"}]},{"id":"goodprice-busan-55","name":"미소정멸치국수","address":"부산광역시서구대영로85번길24-1","jibunAddress":"","phone":"051-242-8531","foodType":"한식","mainFood":"멸치국수","designatedDate":"","lat":35.1129706,"lng":129.0195049,"region":"부산광역시","source":"goodprice","goodpriceMenus":[{"name":"멸치국수","price":"4000"},{"name":"비빔밥","price":"6500"},{"name":"소고기국밥","price":"6500"}]},{"id":"goodprice-busan-56","name":"부산양곱창","address":"부산광역시서구천마로150-1","jibunAddress":"","phone":"051-257-1368","foodType":"한식","mainFood":"특양구이(400g)","designatedDate":"","lat":35.0860667,"lng":129.0226713,"region":"부산광역시","source":"goodprice","goodpriceMenus":[{"name":"특양구이(400g)","price":"40000"},{"name":"양곱창구이(400g)","price":"40000"},{"name":"곱창전골","price":"40000"}]},{"id":"goodprice-busan-57","name":"바보면가","address":"부산광역시서구임시수도기념로21-10","jibunAddress":"","phone":"051-255-8336","foodType":"한식","mainFood":"손칼국수+돈까스","designatedDate":"","lat":35.1033839,"lng":129.0178227,"region":"부산광역시","source":"goodprice","goodpriceMenus":[{"name":"손칼국수+돈까스","price":"6500"},{"name":"만두국+돈까스","price":"6500"}]},{"id":"goodprice-busan-58","name":"대영탕","address":"부산광역시서구구덕로132번길9","jibunAddress":"","phone":"051-254-9515","foodType":"목욕업","mainFood":"대인","designatedDate":"","lat":35.0971553,"lng":129.022454,"region":"부산광역시","source":"goodprice","goodpriceMenus":[{"name":"대인","price":"7000"},{"name":"소인","price":"5000"}]},{"id":"goodprice-busan-59","name":"행복한오리","address":"부산광역시서구충무대로255번길9","jibunAddress":"","phone":"051-254-5999","foodType":"한식","mainFood":"생오리","designatedDate":"","lat":35.0933398,"lng":129.0234266,"region":"부산광역시","source":"goodprice","goodpriceMenus":[{"name":"생오리","price":"28000"},{"name":"오리불고리","price":"30000"}]},{"id":"goodprice-busan-60","name":"금호식당","address":"부산광역시서구충무대로177번길7","jibunAddress":"","phone":"051-255-4379","foodType":"한식","mainFood":"까치복국","designatedDate":"","lat":35.0864389,"lng":129.0242156,"region":"부산광역시","source":"goodprice","goodpriceMenus":[{"name":"까치복국","price":"12000"}]},{"id":"goodprice-busan-61","name":"송도추어탕","address":"부산광역시서구충무대로79-1","jibunAddress":"","phone":"051-255-2122","foodType":"한식","mainFood":"어탕국수","designatedDate":"","lat":35.0782276,"lng":129.0163547,"region":"부산광역시","source":"goodprice","goodpriceMenus":[{"name":"어탕국수","price":"8000"},{"name":"추어탕","price":"8000"}]},{"id":"goodprice-busan-62","name":"명문김밥","address":"부산광역시서구구덕로124번길16-1","jibunAddress":"","phone":"051-254-9295","foodType":"한식","mainFood":"원조김밥","designatedDate":"","lat":35.0976241,"lng":129.0226156,"region":"부산광역시","source":"goodprice","goodpriceMenus":[{"name":"원조김밥","price":"2000"},{"name":"유부김밥","price":"2500"},{"name":"일미김밥","price":"3000"}]},{"id":"goodprice-busan-63","name":"3678통장어","address":"부산광역시서구구덕로280번길17","jibunAddress":"","phone":"051-242-3678","foodType":"한식","mainFood":"장어탕","designatedDate":"","lat":35.10975,"lng":129.0203143,"region":"부산광역시","source":"goodprice","goodpriceMenus":[{"name":"장어탕","price":"9000"},{"name":"장어구이(150g)","price":"13000"},{"name":"장어들깨국밥","price":"6000"}]},{"id":"goodprice-busan-64","name":"광화냉면","address":"부산광역시서구대영로73번길108","jibunAddress":"","phone":"051-253-4823","foodType":"한식","mainFood":"냉면","designatedDate":"","lat":35.1130239,"lng":129.0178485,"region":"부산광역시","source":"goodprice","goodpriceMenus":[{"name":"냉면","price":"9000"},{"name":"밀면","price":"7000"},{"name":"설렁탕","price":"9000"}]},{"id":"goodprice-busan-65","name":"남강숯불갈비","address":"부산광역시서구충무대로255번길9","jibunAddress":"","phone":"051-254-8108","foodType":"한식","mainFood":"된장찌개","designatedDate":"","lat":35.0933398,"lng":129.0234266,"region":"부산광역시","source":"goodprice","goodpriceMenus":[{"name":"된장찌개","price":"7000"},{"name":"돼지갈비(200g)","price":"10000"}]},{"id":"goodprice-busan-66","name":"착한가게","address":"부산광역시서구충무대로189-6","jibunAddress":"","phone":"","foodType":"한식","mainFood":"시락국","designatedDate":"","lat":35.0824761,"lng":129.0251467,"region":"부산광역시","source":"goodprice","goodpriceMenus":[{"name":"시락국","price":"5000"},{"name":"소고기국밥","price":"6000"}]},{"id":"goodprice-busan-67","name":"화반부민1호점","address":"부산광역시서구구덕로199번길5","jibunAddress":"","phone":"051-255-8727","foodType":"한식","mainFood":"비빔밥+김치찌개","designatedDate":"","lat":35.1026317,"lng":129.017603,"region":"부산광역시","source":"goodprice","goodpriceMenus":[{"name":"비빔밥+김치찌개","price":"8500"},{"name":"두루치기+된장찌개","price":"9500"}]},{"id":"goodprice-busan-68","name":"부산밀면","address":"부산광역시서구대영로18번길13","jibunAddress":"","phone":"051-247-7775","foodType":"한식","mainFood":"물밀면","designatedDate":"","lat":35.1095581,"lng":129.0134577,"region":"부산광역시","source":"goodprice","goodpriceMenus":[{"name":"물밀면","price":"6500"}]},{"id":"goodprice-busan-69","name":"옛날집숯불고기","address":"부산광역시서구대영로73번길11","jibunAddress":"","phone":"051-243-3930","foodType":"한식","mainFood":"돼지갈비(200g)","designatedDate":"","lat":35.1120002,"lng":129.0178772,"region":"부산광역시","source":"goodprice","goodpriceMenus":[{"name":"돼지갈비(200g)","price":"10000"},{"name":"생삼겹살(130g)","price":"10000"},{"name":"소불고기(200g)","price":"13000"}]},{"id":"goodprice-busan-70","name":"하동집","address":"부산광역시서구구덕로124번길59-1","jibunAddress":"","phone":"051-257-3081","foodType":"한식","mainFood":"돼지고기(150g)","designatedDate":"","lat":35.0976241,"lng":129.0226156,"region":"부산광역시","source":"goodprice","goodpriceMenus":[{"name":"돼지고기(150g)","price":"9000"},{"name":"김치찌개","price":"7000"}]},{"id":"goodprice-busan-71","name":"햇살돌솥밥","address":"부산광역시서구구덕로124번길28-1","jibunAddress":"","phone":"051-246-4308","foodType":"한식","mainFood":"솥밥","designatedDate":"","lat":35.0986216,"lng":129.0230327,"region":"부산광역시","source":"goodprice","goodpriceMenus":[{"name":"솥밥","price":"8000"},{"name":"삼겹살(150g)","price":"8000"}]},{"id":"goodprice-busan-72","name":"풍성한칼국수","address":"부산광역시서구충무시장길12","jibunAddress":"","phone":"051-242-1177","foodType":"한식","mainFood":"바지락칼국수","designatedDate":"","lat":35.0949122,"lng":129.0234208,"region":"부산광역시","source":"goodprice","goodpriceMenus":[{"name":"바지락칼국수","price":"6000"},{"name":"바지락수제비","price":"6000"},{"name":"해물장칼국수","price":"6500"},{"name":"들깨칼국수","price":"7000"}]},{"id":"goodprice-busan-73","name":"광화식품","address":"부산광역시서구구덕로148번길40(토성동4가)","jibunAddress":"","phone":"051-256-6833","foodType":"한식","mainFood":"국산두부(600g)","designatedDate":"","lat":35.0981538,"lng":129.0227857,"region":"부산광역시","source":"goodprice","goodpriceMenus":[{"name":"국산두부(600g)","price":"3500"},{"name":"수입두부(600g)","price":"1500"},{"name":"순두부400g","price":"500"},{"name":"연두부400g","price":"500"}]},{"id":"goodprice-busan-74","name":"짜루면옥","address":"부산광역시서구까치고개로2102층(아미동1가)","jibunAddress":"","phone":"051-255-2600","foodType":"한식","mainFood":"칼국수","designatedDate":"","lat":35.103248,"lng":129.0109927,"region":"부산광역시","source":"goodprice","goodpriceMenus":[{"name":"칼국수","price":"4000"},{"name":"잔치국수","price":"4000"},{"name":"짜장면","price":"4000"},{"name":"소고기국밥","price":"6000"}]},{"id":"goodprice-busan-75","name":"봉봉분식","address":"부산광역시서구구덕로165번길6-9(아미동1가)","jibunAddress":"","phone":"051-257-0946","foodType":"한식","mainFood":"된장찌개","designatedDate":"","lat":35.0992623,"lng":129.0187988,"region":"부산광역시","source":"goodprice","goodpriceMenus":[{"name":"된장찌개","price":"6000"},{"name":"순두부찌개","price":"6000"}]},{"id":"goodprice-busan-76","name":"보리정","address":"부산광역시서구대영로74번길27-7(동대신동1가)1층","jibunAddress":"","phone":"051-248-8703","foodType":"한식","mainFood":"집밥정식","designatedDate":"","lat":35.1091066,"lng":129.0199965,"region":"부산광역시","source":"goodprice","goodpriceMenus":[{"name":"집밥정식","price":"7000"}]},{"id":"goodprice-busan-77","name":"송이왕아구찜","address":"부산광역시서구아미초장로23(초장동)1층","jibunAddress":"","phone":"051-243-0121","foodType":"한식","mainFood":"아구찜(소)","designatedDate":"","lat":35.097593,"lng":129.018398,"region":"부산광역시","source":"goodprice","goodpriceMenus":[{"name":"아구찜(소)","price":"25000"},{"name":"아구찜(중)","price":"30000"},{"name":"아구찜(대)","price":"35000"},{"name":"코다리찜(소)","price":"25000"}]},{"id":"goodprice-busan-78","name":"카페무아커피","address":"부산광역시서구구덕로131(토성동5가)2층","jibunAddress":"","phone":"051-248-8563","foodType":"기타","mainFood":"아메리카노","designatedDate":"","lat":35.1125363,"lng":129.0165453,"region":"부산광역시","source":"goodprice","goodpriceMenus":[{"name":"아메리카노","price":"2000"},{"name":"카페라떼","price":"3500"}]},{"id":"goodprice-busan-79","name":"명현화로구이","address":"부산광역시서구보수대로258번길9101호(동대신동3가)","jibunAddress":"","phone":"051-244-9295","foodType":"한식","mainFood":"소양념갈비(200g)","designatedDate":"","lat":35.1180392,"lng":129.0177017,"region":"부산광역시","source":"goodprice","goodpriceMenus":[{"name":"소양념갈비(200g)","price":"11000"},{"name":"생삼겹살(120g)","price":"8000"},{"name":"돼지양념갈비(200g)","price":"8000"}]},{"id":"goodprice-busan-80","name":"만두우","address":"부산광역시서구충무대로255번길5-39(남부민동)","jibunAddress":"","phone":"051-244-1719","foodType":"한식","mainFood":"고기김치만두","designatedDate":"","lat":35.0933398,"lng":129.0234266,"region":"부산광역시","source":"goodprice","goodpriceMenus":[{"name":"고기김치만두","price":"4000"},{"name":"군만두","price":"5000"}]},{"id":"goodprice-busan-81","name":"베이커리루마카","address":"부산광역시서구구덕로265번길34(서대신동1가)","jibunAddress":"","phone":"051-243-4874","foodType":"기타","mainFood":"소금빵","designatedDate":"","lat":35.1085928,"lng":129.0186133,"region":"부산광역시","source":"goodprice","goodpriceMenus":[{"name":"소금빵","price":"2200"}]},{"id":"goodprice-busan-82","name":"커피나라","address":"부산광역시서구충무대로255번길61층(충무동1가)","jibunAddress":"","phone":"","foodType":"기타","mainFood":"아메리카노","designatedDate":"","lat":35.0933398,"lng":129.0234266,"region":"부산광역시","source":"goodprice","goodpriceMenus":[{"name":"아메리카노","price":"1500"}]},{"id":"goodprice-busan-83","name":"초량영동밀면","address":"부산광역시동구대영로243번길107(초량동)","jibunAddress":"","phone":"051-442-5537","foodType":"한식","mainFood":"물밀면","designatedDate":"","lat":35.1147083,"lng":129.0385539,"region":"부산광역시","source":"goodprice","goodpriceMenus":[{"name":"물밀면","price":"7000"},{"name":"비빔밀면","price":"7000"}]},{"id":"goodprice-busan-84","name":"문출래된장","address":"부산광역시동구중앙대로214번길3-6(초량동)","jibunAddress":"","phone":"051-469-9609","foodType":"한식","mainFood":"차돌박이된장찌개","designatedDate":"","lat":35.1162409,"lng":129.0421016,"region":"부산광역시","source":"goodprice","goodpriceMenus":[{"name":"차돌박이된장찌개","price":"9000"}]},{"id":"goodprice-busan-85","name":"양지추어탕","address":"부산광역시동구중앙대로371번길70-4(수정동)","jibunAddress":"","phone":"051-467-3924","foodType":"한식","mainFood":"추어탕","designatedDate":"","lat":35.1302308,"lng":129.0460596,"region":"부산광역시","source":"goodprice","goodpriceMenus":[{"name":"추어탕","price":"9000"},{"name":"추어국수","price":"9000"}]},{"id":"goodprice-busan-86","name":"원조콩나물비빔밥","address":"부산광역시동구중앙대로361번길24-6(수정동)","jibunAddress":"","phone":"051-464-2386","foodType":"한식","mainFood":"콩나물비빔밥","designatedDate":"","lat":35.1289765,"lng":129.0462436,"region":"부산광역시","source":"goodprice","goodpriceMenus":[{"name":"콩나물비빔밥","price":"7000"},{"name":"광어미역국","price":"8000"},{"name":"대구뽈탕","price":"8000"}]},{"id":"goodprice-busan-88","name":"자유관","address":"부산광역시동구중앙대로3241층","jibunAddress":"","phone":"051-469-6646051-463-3339","foodType":"중식","mainFood":"자장면","designatedDate":"","lat":35.1168574,"lng":129.0407445,"region":"부산광역시","source":"goodprice","goodpriceMenus":[{"name":"자장면","price":"7000"},{"name":"짬뽕","price":"8000"}]},{"id":"goodprice-busan-91","name":"쇠가리수제돈까스","address":"부산광역시동구망양로735(수정동)","jibunAddress":"","phone":"051-464-9232","foodType":"양식","mainFood":"수제돈까스","designatedDate":"","lat":35.141959,"lng":129.0556663,"region":"부산광역시","source":"goodprice","goodpriceMenus":[{"name":"수제돈까스","price":"8000"},{"name":"카레돈까스","price":"8000"},{"name":"매운돈까스","price":"8000"},{"name":"냄비우동","price":"5500"}]},{"id":"goodprice-busan-92","name":"미락정","address":"부산광역시동구중앙대로180번길12-13(초량동)","jibunAddress":"","phone":"051-466-1547","foodType":"한식","mainFood":"된장찌개","designatedDate":"","lat":35.1125011,"lng":129.0392371,"region":"부산광역시","source":"goodprice","goodpriceMenus":[{"name":"된장찌개","price":"9000"},{"name":"오뎅백반","price":"9000"}]},{"id":"goodprice-busan-93","name":"원앙분식","address":"부산광역시동구고관로122-1(수정동)","jibunAddress":"","phone":"051-462-8069","foodType":"한식","mainFood":"충무깁밥","designatedDate":"","lat":35.1197002,"lng":129.0419996,"region":"부산광역시","source":"goodprice","goodpriceMenus":[{"name":"충무깁밥","price":"7000"},{"name":"우동","price":"6000"},{"name":"냄비우동","price":"6500"}]},{"id":"goodprice-busan-94","name":"장원돼지국밥","address":"부산광역시동구고관로129-1(수정동)","jibunAddress":"","phone":"051-466-7733","foodType":"한식","mainFood":"돼지국밥","designatedDate":"","lat":35.1222653,"lng":129.0426916,"region":"부산광역시","source":"goodprice","goodpriceMenus":[{"name":"돼지국밥","price":"9000"}]},{"id":"goodprice-busan-95","name":"일미정","address":"부산광역시동구고관로29번길14-1(초량동)","jibunAddress":"","phone":"051-468-6248","foodType":"한식","mainFood":"한정식","designatedDate":"","lat":35.1225361,"lng":129.0410546,"region":"부산광역시","source":"goodprice","goodpriceMenus":[{"name":"한정식","price":"11000"}]},{"id":"goodprice-busan-96","name":"제주암돼지왕소금구이","address":"부산광역시동구범일로102번길9(범일동)","jibunAddress":"","phone":"051-633-9285","foodType":"한식","mainFood":"제주오겹살(130g)","designatedDate":"","lat":35.1390465,"lng":129.0606713,"region":"부산광역시","source":"goodprice","goodpriceMenus":[{"name":"제주오겹살(130g)","price":"10500"},{"name":"한돈삼겹살(130g)","price":"9900"}]},{"id":"goodprice-busan-97","name":"대갓집","address":"부산광역시동구수정로28(수정동)","jibunAddress":"","phone":"051-441-0086","foodType":"한식","mainFood":"생삼겹(150g)","designatedDate":"","lat":35.1274488,"lng":129.0458175,"region":"부산광역시","source":"goodprice","goodpriceMenus":[{"name":"생삼겹(150g)","price":"8000"},{"name":"생오겹(150g)","price":"8000"},{"name":"돼지갈비(200g)","price":"7000"}]},{"id":"goodprice-busan-98","name":"수림","address":"부산광역시동구초량중로93번길12-1(초량동)","jibunAddress":"","phone":"051-442-5535","foodType":"한식","mainFood":"돌솥우동","designatedDate":"","lat":35.1204479,"lng":129.039631,"region":"부산광역시","source":"goodprice","goodpriceMenus":[{"name":"돌솥우동","price":"7000"},{"name":"돌솥얼큰우동","price":"7000"},{"name":"돌솥김치우동","price":"7000"}]},{"id":"goodprice-busan-99","name":"풍전칼국수","address":"부산광역시동구중앙대로371번길23-4(수정동)","jibunAddress":"","phone":"051-462-7617","foodType":"한식","mainFood":"추어탕","designatedDate":"","lat":35.1302308,"lng":129.0460596,"region":"부산광역시","source":"goodprice","goodpriceMenus":[{"name":"추어탕","price":"9000"}]},{"id":"goodprice-busan-100","name":"정아밀면돼지국밥","address":"부산광역시동구중앙대로251번길18(초량동)","jibunAddress":"","phone":"051-468-3440","foodType":"한식","mainFood":"밀면","designatedDate":"","lat":35.1198245,"lng":129.0404007,"region":"부산광역시","source":"goodprice","goodpriceMenus":[{"name":"밀면","price":"7000"},{"name":"돼지국밥","price":"8000"}]},{"id":"goodprice-busan-102","name":"엄마손칼국수","address":"부산광역시동구수정중로12(수정동)","jibunAddress":"","phone":"051-463-6393","foodType":"한식","mainFood":"칼국수","designatedDate":"","lat":35.1318772,"lng":129.0458383,"region":"부산광역시","source":"goodprice","goodpriceMenus":[{"name":"칼국수","price":"6000"},{"name":"수제비","price":"6000"},{"name":"김치국밥","price":"7000"},{"name":"만두국","price":"6000"}]},{"id":"goodprice-busan-103","name":"1972년초량묵집","address":"부산광역시동구초량상로65번길45(초량동)1층","jibunAddress":"","phone":"051-469-0238","foodType":"한식","mainFood":"묵밥(메밀)","designatedDate":"","lat":35.1187932,"lng":129.0368517,"region":"부산광역시","source":"goodprice","goodpriceMenus":[{"name":"묵밥(메밀)","price":"8000"},{"name":"묵밥(도토리)","price":"8000"}]},{"id":"goodprice-busan-104","name":"이집고기","address":"부산광역시동구고관로1381층(수정동)","jibunAddress":"","phone":"051-711-0550","foodType":"한식","mainFood":"숙성삼겹살(100g)","designatedDate":"","lat":35.1222653,"lng":129.0426916,"region":"부산광역시","source":"goodprice","goodpriceMenus":[{"name":"숙성삼겹살(100g)","price":"4600"},{"name":"숙성목살(100g)","price":"4600"}]},{"id":"goodprice-busan-105","name":"벌교식당","address":"부산광역시동구초량로13번길221층(초량동)","jibunAddress":"","phone":"","foodType":"한식","mainFood":"시락국밥","designatedDate":"","lat":35.1171053,"lng":129.039321,"region":"부산광역시","source":"goodprice","goodpriceMenus":[{"name":"시락국밥","price":"4000"},{"name":"짜장면","price":"4000"},{"name":"선지국밥","price":"5000"}]},{"id":"goodprice-busan-106","name":"초량대패","address":"부산광역시동구초량중로61-1(초량동)","jibunAddress":"","phone":"051-992-0557","foodType":"한식","mainFood":"삼겹대패(100g)","designatedDate":"","lat":35.1219722,"lng":129.0408947,"region":"부산광역시","source":"goodprice","goodpriceMenus":[{"name":"삼겹대패(100g)","price":"2900"}]},{"id":"goodprice-busan-107","name":"돈묵짜","address":"부산광역시동구범일로90번길17(범일동)","jibunAddress":"","phone":"051-633-9295","foodType":"한식","mainFood":"제주흑돼지짜글이","designatedDate":"","lat":35.137982,"lng":129.0611607,"region":"부산광역시","source":"goodprice","goodpriceMenus":[{"name":"제주흑돼지짜글이","price":"8000"},{"name":"두루치기정식","price":"8000"}]},{"id":"goodprice-busan-108","name":"초량돼지국밥","address":"부산광역시동구중앙대로214번길3-12(초량동)","jibunAddress":"","phone":"051-442-0032","foodType":"한식","mainFood":"돼지국밥","designatedDate":"","lat":35.1162409,"lng":129.0421016,"region":"부산광역시","source":"goodprice","goodpriceMenus":[{"name":"돼지국밥","price":"9000"},{"name":"순대국밥","price":"9000"}]},{"id":"goodprice-busan-109","name":"함흥보쌈","address":"부산광역시영도구남항로42(영선동2가)","jibunAddress":"","phone":"051-416-2342","foodType":"한식","mainFood":"보쌈정식","designatedDate":"","lat":35.0889087,"lng":129.0402235,"region":"부산광역시","source":"goodprice","goodpriceMenus":[{"name":"보쌈정식","price":"10000"},{"name":"모듬보쌈(소)","price":"28000"},{"name":"물냉면","price":"10000"}]},{"id":"goodprice-busan-110","name":"영선불고기","address":"부산광역시영도구절영로35번길69(영선동1가)","jibunAddress":"","phone":"051-416-7570","foodType":"한식","mainFood":"소불고기(130g)","designatedDate":"","lat":35.0905236,"lng":129.0412957,"region":"부산광역시","source":"goodprice","goodpriceMenus":[{"name":"소불고기(130g)","price":"9000"},{"name":"삼겹살(130g)","price":"7000"}]},{"id":"goodprice-busan-111","name":"티모아","address":"부산광역시영도구절영로13번길25상가동(봉래동2가대화아파트)","jibunAddress":"","phone":"051-415-3584","foodType":"기타","mainFood":"아메리카노","designatedDate":"","lat":35.0923352,"lng":129.0422841,"region":"부산광역시","source":"goodprice","goodpriceMenus":[{"name":"아메리카노","price":"2500"}]},{"id":"goodprice-busan-112","name":"금성갈비탕","address":"부산광역시영도구남항로35-2(남항동1가)","jibunAddress":"","phone":"051-416-5553","foodType":"한식","mainFood":"갈비탕","designatedDate":"","lat":35.0889087,"lng":129.0402235,"region":"부산광역시","source":"goodprice","goodpriceMenus":[{"name":"갈비탕","price":"12000"},{"name":"갈비수육","price":"35000"}]},{"id":"goodprice-busan-114","name":"남촌","address":"부산광역시영도구남항로9번길3(남항동1가)","jibunAddress":"","phone":"051-415-3230","foodType":"한식","mainFood":"소고기샤브샤브(150g)","designatedDate":"","lat":35.0911179,"lng":129.0383846,"region":"부산광역시","source":"goodprice","goodpriceMenus":[{"name":"소고기샤브샤브(150g)","price":"12000"}]},{"id":"goodprice-busan-115","name":"포항물회","address":"부산광역시영도구절영로478(동삼1동)","jibunAddress":"","phone":"051-405-9077","foodType":"한식","mainFood":"물회","designatedDate":"","lat":35.0706807,"lng":129.068718,"region":"부산광역시","source":"goodprice","goodpriceMenus":[{"name":"물회","price":"12000"},{"name":"매운탕","price":"8000"},{"name":"대구뱃살탕","price":"9000"}]},{"id":"goodprice-busan-116","name":"대박식당","address":"부산광역시영도구동삼로32(동삼1동)","jibunAddress":"","phone":"051-404-1850","foodType":"한식","mainFood":"생등심돈까스","designatedDate":"","lat":35.0822234,"lng":129.0710292,"region":"부산광역시","source":"goodprice","goodpriceMenus":[{"name":"생등심돈까스","price":"8000"},{"name":"철판함박스테이크","price":"8500"},{"name":"칼국수","price":"6000"}]},{"id":"goodprice-busan-117","name":"장어이야기","address":"부산광역시영도구절영로470-1(동삼1동)","jibunAddress":"","phone":"051-404-5735","foodType":"한식","mainFood":"장어탕","designatedDate":"","lat":35.0874283,"lng":129.0392884,"region":"부산광역시","source":"goodprice","goodpriceMenus":[{"name":"장어탕","price":"8000"},{"name":"장어정식","price":"11000"}]},{"id":"goodprice-busan-118","name":"꼬꼬삼계탕","address":"부산광역시영도구남항로8(남항동2가)","jibunAddress":"","phone":"051-412-4329","foodType":"한식","mainFood":"삼계탕","designatedDate":"","lat":35.0889087,"lng":129.0402235,"region":"부산광역시","source":"goodprice","goodpriceMenus":[{"name":"삼계탕","price":"11000"},{"name":"옻삼계탕","price":"14000"},{"name":"들깨삼계탕","price":"14000"}]},{"id":"goodprice-busan-119","name":"다미복국","address":"부산광역시영도구남항로9번길2(남항동1가)","jibunAddress":"","phone":"051-417-7383","foodType":"한식","mainFood":"은복","designatedDate":"","lat":35.0911179,"lng":129.0383846,"region":"부산광역시","source":"goodprice","goodpriceMenus":[{"name":"은복","price":"12000"},{"name":"밀복","price":"16000"}]},{"id":"goodprice-busan-120","name":"봉이닭칼국수전문점","address":"부산광역시영도구남항로1(남항동1가)","jibunAddress":"","phone":"051-903-6675","foodType":"한식","mainFood":"옛맛칼국수","designatedDate":"","lat":35.0889087,"lng":129.0402235,"region":"부산광역시","source":"goodprice","goodpriceMenus":[{"name":"옛맛칼국수","price":"7000"},{"name":"닭칼국수","price":"7000"}]},{"id":"goodprice-busan-121","name":"서울집","address":"부산광역시영도구태종로99번길28(봉래동2가동진아파트상가)","jibunAddress":"","phone":"051-416-4845","foodType":"한식","mainFood":"소곱창전골","designatedDate":"","lat":35.0924609,"lng":129.0423889,"region":"부산광역시","source":"goodprice","goodpriceMenus":[{"name":"소곱창전골","price":"11000"}]},{"id":"goodprice-busan-122","name":"홍복","address":"부산광역시영도구절영로49번길30(남항동1가)","jibunAddress":"","phone":"051-417-0763","foodType":"중식","mainFood":"유니짜장","designatedDate":"","lat":35.0898602,"lng":129.0390491,"region":"부산광역시","source":"goodprice","goodpriceMenus":[{"name":"유니짜장","price":"4000"},{"name":"짬뽕","price":"6000"},{"name":"탕수육(소)","price":"13000"}]},{"id":"goodprice-busan-123","name":"유니짜장","address":"부산광역시영도구꿈나무길104(영선동2가)","jibunAddress":"","phone":"051-417-2457","foodType":"중식","mainFood":"짜장면","designatedDate":"","lat":35.0902336,"lng":129.0444072,"region":"부산광역시","source":"goodprice","goodpriceMenus":[{"name":"짜장면","price":"5000"},{"name":"탕수육","price":"14000"}]},{"id":"goodprice-busan-124","name":"미조뒷고기","address":"부산광역시영도구태종로724(동삼2동)","jibunAddress":"","phone":"051-403-0272","foodType":"한식","mainFood":"뒷고기한판(400g)","designatedDate":"","lat":35.0621032,"lng":129.081178,"region":"부산광역시","source":"goodprice","goodpriceMenus":[{"name":"뒷고기한판(400g)","price":"14000"},{"name":"삼겹살(130g)","price":"7000"}]},{"id":"goodprice-busan-125","name":"외양간혜림","address":"부산광역시영도구남항로23(남항동1가)","jibunAddress":"","phone":"051-418-7080","foodType":"한식","mainFood":"등심(100g)","designatedDate":"","lat":35.0889087,"lng":129.0402235,"region":"부산광역시","source":"goodprice","goodpriceMenus":[{"name":"등심(100g)","price":"25000"},{"name":"굴국밥","price":"9000"},{"name":"정식(생선구이)","price":"9000"}]},{"id":"goodprice-busan-126","name":"부산갈매기","address":"부산광역시영도구대교로2번길46-1(봉래동3가)","jibunAddress":"","phone":"051-412-2911","foodType":"한식","mainFood":"삼겹살(120g)","designatedDate":"","lat":35.0949178,"lng":129.044969,"region":"부산광역시","source":"goodprice","goodpriceMenus":[{"name":"삼겹살(120g)","price":"9000"},{"name":"갈매기살(120g)","price":"9000"}]},{"id":"goodprice-busan-127","name":"영도해장국집","address":"부산광역시영도구남항로9번길4(남항동1가)","jibunAddress":"","phone":"051-413-3847","foodType":"한식","mainFood":"선짓국","designatedDate":"","lat":35.0911179,"lng":129.0383846,"region":"부산광역시","source":"goodprice","goodpriceMenus":[{"name":"선짓국","price":"5000"},{"name":"시락국","price":"5000"}]},{"id":"goodprice-busan-128","name":"양푼이국수","address":"부산광역시영도구절영로490(동삼동)","jibunAddress":"","phone":"051-403-2245","foodType":"한식","mainFood":"양푼이국수","designatedDate":"","lat":35.0874283,"lng":129.0392884,"region":"부산광역시","source":"goodprice","goodpriceMenus":[{"name":"양푼이국수","price":"5000"},{"name":"수제비","price":"6000"},{"name":"충무김밥","price":"7000"}]},{"id":"goodprice-busan-129","name":"고기밥상","address":"부산광역시영도구남항시장길342(영선동2가)","jibunAddress":"","phone":"051-416-9292","foodType":"한식","mainFood":"된장찌개정식","designatedDate":"","lat":35.0879123,"lng":129.0429802,"region":"부산광역시","source":"goodprice","goodpriceMenus":[{"name":"된장찌개정식","price":"8000"},{"name":"간장불고기정식","price":"9000"},{"name":"제육볶음정식","price":"9000"}]},{"id":"goodprice-busan-130","name":"연창돼지국밥","address":"부산광역시영도구중리북로8(동삼동)","jibunAddress":"","phone":"051-404-2701","foodType":"한식","mainFood":"돼지국밥","designatedDate":"","lat":35.0714115,"lng":129.0679594,"region":"부산광역시","source":"goodprice","goodpriceMenus":[{"name":"돼지국밥","price":"8000"},{"name":"순대국밥","price":"8000"},{"name":"순대","price":"3000"}]},{"id":"goodprice-busan-132","name":"도날드즉석떡뽁기","address":"부산광역시영도구꿈나무길267(신선동3가)","jibunAddress":"","phone":"051-413-9990","foodType":"한식","mainFood":"떡볶이1인","designatedDate":"","lat":35.0909673,"lng":129.0455657,"region":"부산광역시","source":"goodprice","goodpriceMenus":[{"name":"떡볶이1인","price":"3000"},{"name":"떡볶이2인set","price":"10400"}]},{"id":"goodprice-busan-133","name":"아치한상","address":"부산광역시영도구태종로765번길7(동삼동)","jibunAddress":"","phone":"","foodType":"한식","mainFood":"정식","designatedDate":"","lat":35.068579,"lng":129.0819299,"region":"부산광역시","source":"goodprice","goodpriceMenus":[{"name":"정식","price":"7000"},{"name":"차돌된장찌개","price":"7000"},{"name":"묵은지김치찌개","price":"7000"}]},{"id":"goodprice-busan-134","name":"너와집","address":"부산광역시영도구대교로2번길56(봉래동3가)","jibunAddress":"","phone":"051-418-0476","foodType":"한식","mainFood":"칼국수","designatedDate":"","lat":35.0949178,"lng":129.044969,"region":"부산광역시","source":"goodprice","goodpriceMenus":[{"name":"칼국수","price":"6000"}]},{"id":"goodprice-busan-135","name":"등마루식당","address":"부산광역시영도구봉래나루로246번길20(봉래동3가)","jibunAddress":"","phone":"051-415-5912","foodType":"한식","mainFood":"정식","designatedDate":"","lat":35.0951793,"lng":129.0458371,"region":"부산광역시","source":"goodprice","goodpriceMenus":[{"name":"정식","price":"7000"},{"name":"주물럭정식","price":"8000"}]},{"id":"goodprice-busan-136","name":"국수랑샤브랑","address":"부산광역시영도구남항로9번길281층(남항동1가)","jibunAddress":"","phone":"051-414-0003","foodType":"한식","mainFood":"샤브샤브(소고기)","designatedDate":"","lat":35.0911179,"lng":129.0383846,"region":"부산광역시","source":"goodprice","goodpriceMenus":[{"name":"샤브샤브(소고기)","price":"12000"},{"name":"콩국수","price":"7000"}]},{"id":"goodprice-busan-137","name":"대성식육식당","address":"부산광역시영도구절영로7번길36(봉래동2가)","jibunAddress":"","phone":"051-413-3758","foodType":"한식","mainFood":"한우모듬(400g)","designatedDate":"","lat":35.0928282,"lng":129.042366,"region":"부산광역시","source":"goodprice","goodpriceMenus":[{"name":"한우모듬(400g)","price":"58000"},{"name":"한우갈비살(150g)","price":"24000"}]},{"id":"goodprice-busan-138","name":"동규분식","address":"부산광역시영도구남항로19번길1(남항동1가)","jibunAddress":"","phone":"051-418-6869","foodType":"한식","mainFood":"떡볶이","designatedDate":"","lat":35.0907067,"lng":129.0394924,"region":"부산광역시","source":"goodprice","goodpriceMenus":[{"name":"떡볶이","price":"5000"},{"name":"김밥","price":"3000"},{"name":"우동","price":"4500"},{"name":"떡국","price":"5000"}]},{"id":"goodprice-busan-139","name":"동방밀면","address":"부산광역시영도구꿈나무길239(영선동2가)","jibunAddress":"","phone":"051-416-9592","foodType":"한식","mainFood":"밀면","designatedDate":"","lat":35.0873177,"lng":129.0432667,"region":"부산광역시","source":"goodprice","goodpriceMenus":[{"name":"밀면","price":"7000"},{"name":"비빔면","price":"7500"}]},{"id":"goodprice-busan-140","name":"영도할매국밥과일(영도시니어클럽)","address":"부산광역시영도구절영로101번길18(영선동3가)","jibunAddress":"","phone":"051-413-7272","foodType":"한식","mainFood":"국수무한리필","designatedDate":"","lat":35.087244,"lng":129.0410863,"region":"부산광역시","source":"goodprice","goodpriceMenus":[{"name":"국수무한리필","price":"6000"}]},{"id":"goodprice-busan-141","name":"옛날한우곰탕","address":"부산광역시영도구태종로7445층(동삼동)","jibunAddress":"","phone":"051-405-0801","foodType":"한식","mainFood":"곰탕","designatedDate":"","lat":35.0940693,"lng":129.0369805,"region":"부산광역시","source":"goodprice","goodpriceMenus":[{"name":"곰탕","price":"8000"},{"name":"갈비탕","price":"11000"},{"name":"도가니탕","price":"13000"}]},{"id":"goodprice-busan-142","name":"초량화진갈비삼겹살","address":"부산광역시영도구영선대로59(영선동3가)","jibunAddress":"","phone":"051-418-6683","foodType":"한식","mainFood":"대패삼겹살(90g)","designatedDate":"","lat":35.0834804,"lng":129.0398108,"region":"부산광역시","source":"goodprice","goodpriceMenus":[{"name":"대패삼겹살(90g)","price":"2500"},{"name":"우삼겹(100g)","price":"3500"},{"name":"삼겹살(100g)","price":"4500"}]},{"id":"goodprice-busan-143","name":"국제하이포크","address":"부산광역시영도구중리로24(동삼동)","jibunAddress":"","phone":"051-405-8989","foodType":"한식","mainFood":"오징어두루치기","designatedDate":"","lat":35.0742946,"lng":129.068182,"region":"부산광역시","source":"goodprice","goodpriceMenus":[{"name":"오징어두루치기","price":"7000"},{"name":"돈두루치기","price":"7000"},{"name":"가정식뷔페","price":"6000"}]},{"id":"goodprice-busan-144","name":"대륙탕","address":"부산광역시영도구웃서발로42(동삼동)","jibunAddress":"","phone":"051-404-5007","foodType":"목욕업","mainFood":"목욕대인","designatedDate":"","lat":35.0788476,"lng":129.072048,"region":"부산광역시","source":"goodprice","goodpriceMenus":[{"name":"목욕대인","price":"6000"},{"name":"목욕소인","price":"3500"}]},{"id":"goodprice-busan-145","name":"참시원한대구탕","address":"부산광역시영도구동삼동로7(동삼동)","jibunAddress":"","phone":"051-405-0767","foodType":"한식","mainFood":"대구탕","designatedDate":"","lat":35.0806859,"lng":129.0723477,"region":"부산광역시","source":"goodprice","goodpriceMenus":[{"name":"대구탕","price":"13000"}]},{"id":"goodprice-busan-146","name":"장수삼계탕","address":"부산광역시영도구남항로9번길42(대교동1가)","jibunAddress":"","phone":"051-412-7423","foodType":"한식","mainFood":"삼계탕","designatedDate":"","lat":35.0911179,"lng":129.0383846,"region":"부산광역시","source":"goodprice","goodpriceMenus":[{"name":"삼계탕","price":"12000"}]},{"id":"goodprice-busan-147","name":"뉴욕스시","address":"부산광역시영도구동삼오션로582층229호(동삼동부산오션시티푸르지오)","jibunAddress":"","phone":"051-403-0505","foodType":"일식","mainFood":"초밥세트","designatedDate":"","lat":35.0697837,"lng":129.0820659,"region":"부산광역시","source":"goodprice","goodpriceMenus":[{"name":"초밥세트","price":"13000"}]},{"id":"goodprice-busan-148","name":"고향솥밥","address":"부산광역시영도구남항로9번길35-11층(남항동1가)","jibunAddress":"","phone":"051-412-9419","foodType":"한식","mainFood":"김치찌개+솥밥","designatedDate":"","lat":35.0911179,"lng":129.0383846,"region":"부산광역시","source":"goodprice","goodpriceMenus":[{"name":"김치찌개+솥밥","price":"9500"}]},{"id":"goodprice-busan-149","name":"훈훈카츠","address":"부산광역시영도구태종로260116동101호","jibunAddress":"","phone":"051-414-0080","foodType":"일식","mainFood":"김밥","designatedDate":"","lat":35.0917833,"lng":129.0441376,"region":"부산광역시","source":"goodprice","goodpriceMenus":[{"name":"김밥","price":"3000"},{"name":"김치볶음밥","price":"7000"}]},{"id":"goodprice-busan-150","name":"한마음이모집","address":"부산광역시영도구동삼오션로58호텔동2층240호(동삼동오션시티푸르지오판매시설)","jibunAddress":"","phone":"051-404-5173","foodType":"한식","mainFood":"김밥","designatedDate":"","lat":35.0697837,"lng":129.0820659,"region":"부산광역시","source":"goodprice","goodpriceMenus":[{"name":"김밥","price":"2500"},{"name":"국수","price":"5000"}]},{"id":"goodprice-busan-151","name":"봉래밀면","address":"부산광역시영도구태종로105번길17(대교동2가)","jibunAddress":"","phone":"051-417-7799","foodType":"한식","mainFood":"밀면","designatedDate":"","lat":35.0926875,"lng":129.0431382,"region":"부산광역시","source":"goodprice","goodpriceMenus":[{"name":"밀면","price":"6000"},{"name":"비빔면","price":"6500"}]},{"id":"goodprice-busan-152","name":"소국","address":"부산광역시영도구남항로35-1(남항동)","jibunAddress":"","phone":"051-417-5456","foodType":"한식","mainFood":"삼계탕","designatedDate":"","lat":35.0889087,"lng":129.0402235,"region":"부산광역시","source":"goodprice","goodpriceMenus":[{"name":"삼계탕","price":"10500"},{"name":"닭갈비(2인분)","price":"18000"}]},{"id":"goodprice-busan-153","name":"영도빨간등대밀면","address":"부산광역시영도구남항남로1-1(남항동3가)","jibunAddress":"","phone":"","foodType":"한식","mainFood":"물밀면","designatedDate":"","lat":35.0854868,"lng":129.036237,"region":"부산광역시","source":"goodprice","goodpriceMenus":[{"name":"물밀면","price":"7000"},{"name":"비빔밀면","price":"7000"}]},{"id":"goodprice-busan-154","name":"물레방아","address":"부산광역시영도구청학동로40(청학동)","jibunAddress":"","phone":"051-415-0158","foodType":"한식","mainFood":"한방(옻)오리백숙","designatedDate":"","lat":35.0908461,"lng":129.063097,"region":"부산광역시","source":"goodprice","goodpriceMenus":[{"name":"한방(옻)오리백숙","price":"50000"}]},{"id":"goodprice-busan-155","name":"동삼스파게티","address":"부산광역시영도구동삼로401층(동삼동)","jibunAddress":"","phone":"051-711-2750","foodType":"양식","mainFood":"파스타","designatedDate":"","lat":35.0822234,"lng":129.0710292,"region":"부산광역시","source":"goodprice","goodpriceMenus":[{"name":"파스타","price":"9000"},{"name":"리조또","price":"9000"},{"name":"피자","price":"10000"},{"name":"피자","price":"12000"}]},{"id":"goodprice-busan-156","name":"지(G)","address":"부산광역시영도구남항로3(남항동1가)","jibunAddress":"","phone":"051-413-1136","foodType":"한식","mainFood":"등심돈가스","designatedDate":"","lat":35.0889087,"lng":129.0402235,"region":"부산광역시","source":"goodprice","goodpriceMenus":[{"name":"등심돈가스","price":"7500"},{"name":"안심돈가스","price":"8500"}]},{"id":"goodprice-busan-157","name":"송화루","address":"부산광역시영도구남항로10번길18(남항동2가)","jibunAddress":"","phone":"051-416-6800","foodType":"중식","mainFood":"짜장면","designatedDate":"","lat":35.0891471,"lng":129.0373001,"region":"부산광역시","source":"goodprice","goodpriceMenus":[{"name":"짜장면","price":"5000"},{"name":"홍합짬뽕","price":"6000"}]},{"id":"goodprice-busan-158","name":"거제숯불장어구이","address":"부산광역시영도구남항로10번길6(남항동2가)","jibunAddress":"","phone":"051-413-6866","foodType":"한식","mainFood":"장어탕","designatedDate":"","lat":35.0891471,"lng":129.0373001,"region":"부산광역시","source":"goodprice","goodpriceMenus":[{"name":"장어탕","price":"13000"}]},{"id":"goodprice-busan-159","name":"굴친구낙지","address":"부산광역시영도구남항로9번길5101호(남항동1가)","jibunAddress":"","phone":"051-417-0344","foodType":"한식","mainFood":"굴국밥","designatedDate":"","lat":35.0911179,"lng":129.0383846,"region":"부산광역시","source":"goodprice","goodpriceMenus":[{"name":"굴국밥","price":"9000"},{"name":"매생이굴국밥","price":"10000"}]},{"id":"goodprice-busan-160","name":"언니네맛집","address":"부산광역시영도구남항로27-1(남항동1가)","jibunAddress":"","phone":"051-413-3449","foodType":"한식","mainFood":"낙지볶음","designatedDate":"","lat":35.0889087,"lng":129.0402235,"region":"부산광역시","source":"goodprice","goodpriceMenus":[{"name":"낙지볶음","price":"9000"},{"name":"순두부찌개","price":"8000"}]},{"id":"goodprice-busan-161","name":"영도범우동","address":"부산광역시영도구절영로43번길221층(남항동1가)","jibunAddress":"","phone":"070-4833-6513","foodType":"일식","mainFood":"모듬초밥","designatedDate":"","lat":35.0901809,"lng":129.0402034,"region":"부산광역시","source":"goodprice","goodpriceMenus":[{"name":"모듬초밥","price":"13000"}]},{"id":"goodprice-busan-162","name":"참김밥전문점","address":"부산광역시영도구태종로92102호(대교동2가)","jibunAddress":"","phone":"051-413-1009","foodType":"한식","mainFood":"김밥","designatedDate":"","lat":35.0670219,"lng":129.0813742,"region":"부산광역시","source":"goodprice","goodpriceMenus":[{"name":"김밥","price":"2500"},{"name":"라면","price":"3500"}]},{"id":"goodprice-busan-163","name":"할매김밥","address":"부산광역시영도구절영로13번길28(대교동2가)","jibunAddress":"","phone":"051-416-7080","foodType":"한식","mainFood":"김밥","designatedDate":"","lat":35.0923352,"lng":129.0422841,"region":"부산광역시","source":"goodprice","goodpriceMenus":[{"name":"김밥","price":"3000"}]},{"id":"goodprice-busan-164","name":"쌍둥이짜장","address":"부산광역시영도구남항로45-21층(영선동2가)","jibunAddress":"","phone":"051-417-8886","foodType":"중식","mainFood":"짜장면","designatedDate":"","lat":35.0889087,"lng":129.0402235,"region":"부산광역시","source":"goodprice","goodpriceMenus":[{"name":"짜장면","price":"5000"},{"name":"탕수육(소)","price":"15000"}]},{"id":"goodprice-busan-165","name":"삼촌의주방","address":"부산광역시영도구영선대로33(영선동4가)","jibunAddress":"","phone":"051-417-3737","foodType":"한식","mainFood":"삼촌돈가스","designatedDate":"","lat":35.0857667,"lng":129.0411837,"region":"부산광역시","source":"goodprice","goodpriceMenus":[{"name":"삼촌돈가스","price":"9000"},{"name":"고구마치즈돈가스","price":"10000"}]},{"id":"goodprice-busan-166","name":"강원도봉평메밀가","address":"부산광역시영도구태종로113번길5-4(영선동1가)","jibunAddress":"","phone":"051-413-8255","foodType":"한식","mainFood":"메밀물막국수","designatedDate":"","lat":35.0920101,"lng":129.043649,"region":"부산광역시","source":"goodprice","goodpriceMenus":[{"name":"메밀물막국수","price":"9000"}]},{"id":"goodprice-busan-167","name":"맛나춘하추동밀면","address":"부산광역시영도구절영로93번길46(영선동2가)","jibunAddress":"","phone":"051-414-4555","foodType":"한식","mainFood":"김밥","designatedDate":"","lat":35.0875013,"lng":129.0403879,"region":"부산광역시","source":"goodprice","goodpriceMenus":[{"name":"김밥","price":"3000"},{"name":"칼국수","price":"6000"}]},{"id":"goodprice-busan-168","name":"둘리식당","address":"부산광역시영도구웃서발로77(동삼동)","jibunAddress":"","phone":"051-404-2396","foodType":"한식","mainFood":"낙지볶음","designatedDate":"","lat":35.0788476,"lng":129.072048,"region":"부산광역시","source":"goodprice","goodpriceMenus":[{"name":"낙지볶음","price":"9000"},{"name":"갈비탕","price":"10000"}]},{"id":"goodprice-busan-169","name":"밥과반찬","address":"부산광역시영도구태종로759203호(동삼동)","jibunAddress":"","phone":"051-404-0011","foodType":"한식","mainFood":"생선정식","designatedDate":"","lat":35.0917833,"lng":129.0441376,"region":"부산광역시","source":"goodprice","goodpriceMenus":[{"name":"생선정식","price":"11000"}]},{"id":"goodprice-busan-170","name":"완도식당","address":"부산광역시영도구절영로13번길59","jibunAddress":"","phone":"051-418-3186","foodType":"한식","mainFood":"돼지국밥","designatedDate":"","lat":35.0923352,"lng":129.0422841,"region":"부산광역시","source":"goodprice","goodpriceMenus":[{"name":"돼지국밥","price":"8000"}]},{"id":"goodprice-busan-171","name":"영도한식부페","address":"부산광역시영도구태종로83번길341층(봉래동2가)","jibunAddress":"","phone":"051-417-7611","foodType":"한식","mainFood":"대인1인","designatedDate":"","lat":35.0930175,"lng":129.0407343,"region":"부산광역시","source":"goodprice","goodpriceMenus":[{"name":"대인1인","price":"9000"}]},{"id":"goodprice-busan-172","name":"오마식당","address":"부산광역시영도구일산봉로971층(청학동)","jibunAddress":"","phone":"051-416-4858","foodType":"한식","mainFood":"순두부찌개","designatedDate":"","lat":35.0843252,"lng":129.0652064,"region":"부산광역시","source":"goodprice","goodpriceMenus":[{"name":"순두부찌개","price":"8000"},{"name":"김치찌개","price":"8000"}]},{"id":"goodprice-busan-173","name":"후띠우미엔남","address":"부산광역시영도구남항로31번길15102-2호(남항동1가퀸페로스)","jibunAddress":"","phone":"070-8680-5778","foodType":"기타","mainFood":"쌀국수","designatedDate":"","lat":35.0903086,"lng":129.0405753,"region":"부산광역시","source":"goodprice","goodpriceMenus":[{"name":"쌀국수","price":"7500"},{"name":"매운쌀국수","price":"8500"}]},{"id":"goodprice-busan-174","name":"포청천","address":"부산광역시영도구하나길652(신선동1가)","jibunAddress":"","phone":"051-418-8211","foodType":"중식","mainFood":"짜장면","designatedDate":"","lat":35.0902262,"lng":129.0478343,"region":"부산광역시","source":"goodprice","goodpriceMenus":[{"name":"짜장면","price":"6000"},{"name":"짬뽕","price":"7000"}]},{"id":"goodprice-busan-175","name":"정통관","address":"부산광역시영도구태종로756번길41층","jibunAddress":"","phone":"051-403-9990","foodType":"중식","mainFood":"짜장면","designatedDate":"","lat":35.068567,"lng":129.0793711,"region":"부산광역시","source":"goodprice","goodpriceMenus":[{"name":"짜장면","price":"6000"},{"name":"짬뽕","price":"7000"}]},{"id":"goodprice-busan-176","name":"대교낙지","address":"부산광역시영도구절영로35번길3(대교동2가)","jibunAddress":"","phone":"051-414-8866","foodType":"한식","mainFood":"낙지볶음","designatedDate":"","lat":35.0905236,"lng":129.0412957,"region":"부산광역시","source":"goodprice","goodpriceMenus":[{"name":"낙지볶음","price":"9000"},{"name":"낙곱볶음","price":"10000"},{"name":"낙새볶음","price":"10000"}]},{"id":"goodprice-busan-177","name":"금복식당","address":"부산광역시부산진구서면문화로5번길13(부전동)","jibunAddress":"","phone":"051-803-8790","foodType":"한식","mainFood":"된장찌개","designatedDate":"","lat":35.1582731,"lng":129.0571783,"region":"부산광역시","source":"goodprice","goodpriceMenus":[{"name":"된장찌개","price":"9000"},{"name":"추어탕","price":"9000"},{"name":"아구탕","price":"12000"}]},{"id":"goodprice-busan-178","name":"좋은식당","address":"부산광역시부산진구전포대로176번길15(전포동)","jibunAddress":"","phone":"051-818-4243","foodType":"한식","mainFood":"김치찌개","designatedDate":"","lat":35.1522434,"lng":129.0669588,"region":"부산광역시","source":"goodprice","goodpriceMenus":[{"name":"김치찌개","price":"9000"},{"name":"장어추어탕","price":"10000"},{"name":"된장찌개","price":"8000"}]},{"id":"goodprice-busan-179","name":"서울식당","address":"부산광역시부산진구가야대로703번길31(당감동)","jibunAddress":"","phone":"051-895-5885","foodType":"한식","mainFood":"정식백반","designatedDate":"","lat":35.1581911,"lng":129.0484235,"region":"부산광역시","source":"goodprice","goodpriceMenus":[{"name":"정식백반","price":"7000"},{"name":"육개장","price":"9000"}]},{"id":"goodprice-busan-180","name":"우정분식","address":"부산광역시부산진구동천로85번길3(부전동)","jibunAddress":"","phone":"051-803-0303","foodType":"한식","mainFood":"열무비빔밥","designatedDate":"","lat":35.1562228,"lng":129.0619988,"region":"부산광역시","source":"goodprice","goodpriceMenus":[{"name":"열무비빔밥","price":"6000"},{"name":"돌솥비빔밥","price":"7500"},{"name":"열무참치비빔밥","price":"6500"}]},{"id":"goodprice-busan-181","name":"중앙숯불갈비","address":"부산광역시부산진구골드테마길65(범천동)","jibunAddress":"","phone":"051-632-2008","foodType":"한식","mainFood":"해물된장찌개","designatedDate":"","lat":35.1446637,"lng":129.0598852,"region":"부산광역시","source":"goodprice","goodpriceMenus":[{"name":"해물된장찌개","price":"8000"},{"name":"김치전골","price":"8000"},{"name":"냉면","price":"6000"}]},{"id":"goodprice-busan-182","name":"1974골목","address":"부산광역시부산진구가야대로784번길46(부전동)","jibunAddress":"","phone":"051-803-3850","foodType":"한식","mainFood":"냉면","designatedDate":"","lat":35.1551574,"lng":129.0572166,"region":"부산광역시","source":"goodprice","goodpriceMenus":[{"name":"냉면","price":"6000"},{"name":"석쇠소불고기쌈밥정식","price":"10000"},{"name":"석쇠오리불고기쌈밥정식","price":"10000"}]},{"id":"goodprice-busan-183","name":"도마위에암소","address":"부산광역시부산진구서면문화로48(부전동)","jibunAddress":"","phone":"051-805-0073","foodType":"한식","mainFood":"한우정통육개장","designatedDate":"","lat":35.1588312,"lng":129.0572333,"region":"부산광역시","source":"goodprice","goodpriceMenus":[{"name":"한우정통육개장","price":"9000"},{"name":"한우물회","price":"13000"},{"name":"한우차돌박이(100g)","price":"17000"}]},{"id":"goodprice-busan-184","name":"영자면옥손칼국수","address":"부산광역시부산진구새싹로8번길29(부전동)","jibunAddress":"","phone":"051-808-6958","foodType":"한식","mainFood":"칼국수","designatedDate":"","lat":35.1590404,"lng":129.0589278,"region":"부산광역시","source":"goodprice","goodpriceMenus":[{"name":"칼국수","price":"3500"},{"name":"짜장면","price":"3500"},{"name":"비빔밥","price":"5000"},{"name":"꼬마김밥","price":"4000"}]},{"id":"goodprice-busan-185","name":"후루룩촌국수","address":"부산광역시부산진구새싹로14번길5(부전동)","jibunAddress":"","phone":"051-818-6216","foodType":"한식","mainFood":"물국수","designatedDate":"","lat":35.1628532,"lng":129.0609517,"region":"부산광역시","source":"goodprice","goodpriceMenus":[{"name":"물국수","price":"3000"},{"name":"비빔국수","price":"3500"},{"name":"비빔밥","price":"4000"},{"name":"콩국수","price":"5000"}]},{"id":"goodprice-busan-186","name":"충만꼬마김밥","address":"부산광역시부산진구중앙대로969번길431층(양정동)","jibunAddress":"","phone":"051-851-6667","foodType":"한식","mainFood":"꼬마김밥","designatedDate":"","lat":35.1765276,"lng":129.0724594,"region":"부산광역시","source":"goodprice","goodpriceMenus":[{"name":"꼬마김밥","price":"3000"},{"name":"해장라면","price":"4000"}]},{"id":"goodprice-busan-187","name":"한라정","address":"부산광역시부산진구부전로152번길53(부전동)","jibunAddress":"","phone":"051-805-1408","foodType":"한식","mainFood":"돌솥밥갈치조림","designatedDate":"","lat":35.1601737,"lng":129.0582774,"region":"부산광역시","source":"goodprice","goodpriceMenus":[{"name":"돌솥밥갈치조림","price":"10000"},{"name":"돌솥밥버섯전골","price":"10000"}]},{"id":"goodprice-busan-188","name":"야우보쌈","address":"부산광역시부산진구부전로152번길48(부전동)","jibunAddress":"","phone":"050-8512-9576","foodType":"한식","mainFood":"보쌈정식","designatedDate":"","lat":35.1601737,"lng":129.0582774,"region":"부산광역시","source":"goodprice","goodpriceMenus":[{"name":"보쌈정식","price":"11000"},{"name":"황태탕","price":"12000"},{"name":"마늘보쌈정식","price":"12000"}]},{"id":"goodprice-busan-189","name":"우리식당","address":"부산광역시부산진구범전로5번길10(부전동)","jibunAddress":"","phone":"051-818-4467","foodType":"한식","mainFood":"된장찌개","designatedDate":"","lat":35.1636712,"lng":129.0629751,"region":"부산광역시","source":"goodprice","goodpriceMenus":[{"name":"된장찌개","price":"7000"},{"name":"김치찌개","price":"9000"},{"name":"해물순두부","price":"8000"}]},{"id":"goodprice-busan-190","name":"현대가든","address":"부산광역시부산진구범양로125번길12(양정동)","jibunAddress":"","phone":"051-852-8866","foodType":"한식","mainFood":"소양념갈비(300g)","designatedDate":"","lat":35.1743288,"lng":129.0647775,"region":"부산광역시","source":"goodprice","goodpriceMenus":[{"name":"소양념갈비(300g)","price":"17000"},{"name":"소불고기전골(250g)","price":"12000"},{"name":"양념목살(200g)","price":"9000"}]},{"id":"goodprice-busan-191","name":"양정정통밀면","address":"부산광역시부산진구중앙대로923-1(양정동)","jibunAddress":"","phone":"051-866-5000","foodType":"한식","mainFood":"밀면","designatedDate":"","lat":35.1675908,"lng":129.0663879,"region":"부산광역시","source":"goodprice","goodpriceMenus":[{"name":"밀면","price":"8000"},{"name":"비빔밀면","price":"8000"},{"name":"손만두","price":"6000"}]},{"id":"goodprice-busan-192","name":"양가손만두","address":"부산광역시부산진구가야대로482번길16(개금동)","jibunAddress":"","phone":"051-894-9870","foodType":"한식","mainFood":"잔치국수","designatedDate":"","lat":35.1494841,"lng":129.0245462,"region":"부산광역시","source":"goodprice","goodpriceMenus":[{"name":"잔치국수","price":"5500"},{"name":"만두국","price":"6500"},{"name":"고기찐만두(10개)","price":"6000"}]},{"id":"goodprice-busan-193","name":"이가야","address":"부산광역시부산진구새싹로8번길37(부전동)","jibunAddress":"","phone":"051-802-8817","foodType":"한식","mainFood":"호박죽","designatedDate":"","lat":35.1602731,"lng":129.0602716,"region":"부산광역시","source":"goodprice","goodpriceMenus":[{"name":"호박죽","price":"5000"},{"name":"단팥죽","price":"4000"},{"name":"전복죽","price":"5000"}]},{"id":"goodprice-busan-194","name":"민속집","address":"부산광역시부산진구새싹로39-1(부전동)","jibunAddress":"","phone":"051-819-3329","foodType":"한식","mainFood":"오리백숙","designatedDate":"","lat":35.1596364,"lng":129.0575943,"region":"부산광역시","source":"goodprice","goodpriceMenus":[{"name":"오리백숙","price":"55000"},{"name":"토종닭백숙","price":"55000"},{"name":"부추전","price":"5000"}]},{"id":"goodprice-busan-195","name":"함흥면옥","address":"부산광역시부산진구새싹로30.경동파크117호(부전동)","jibunAddress":"","phone":"051-987-4326","foodType":"한식","mainFood":"설렁탕","designatedDate":"","lat":35.1596364,"lng":129.0575943,"region":"부산광역시","source":"goodprice","goodpriceMenus":[{"name":"설렁탕","price":"8000"},{"name":"물냉면","price":"9000"},{"name":"비빔냉면","price":"9000"}]},{"id":"goodprice-busan-196","name":"명품학장소갈비찜탕","address":"부산광역시부산진구새싹로29번길10(부전동)","jibunAddress":"","phone":"051-807-8253","foodType":"한식","mainFood":"소갈비찜","designatedDate":"","lat":35.1602124,"lng":129.0564249,"region":"부산광역시","source":"goodprice","goodpriceMenus":[{"name":"소갈비찜","price":"9000"},{"name":"소갈비탕","price":"9000"}]},{"id":"goodprice-busan-197","name":"서울칼국수","address":"부산광역시부산진구동평로418(양정동)","jibunAddress":"","phone":"051-868-6601","foodType":"한식","mainFood":"칼국수","designatedDate":"","lat":35.1745419,"lng":129.0617188,"region":"부산광역시","source":"goodprice","goodpriceMenus":[{"name":"칼국수","price":"3000"},{"name":"비빔칼국수","price":"3500"},{"name":"냉콩칼국수","price":"4000"}]},{"id":"goodprice-busan-198","name":"가야포차선지국밥","address":"부산광역시부산진구가야공원로58(가야동)","jibunAddress":"","phone":"051-894-6921","foodType":"한식","mainFood":"선지국밥","designatedDate":"","lat":35.1440311,"lng":129.0285187,"region":"부산광역시","source":"goodprice","goodpriceMenus":[{"name":"선지국밥","price":"8000"},{"name":"수구레국밥","price":"9000"},{"name":"술국","price":"7000"}]},{"id":"goodprice-busan-199","name":"회국수할매집","address":"부산광역시부산진구서면문화로5(부전동)","jibunAddress":"","phone":"051-817-9260","foodType":"한식","mainFood":"회국수","designatedDate":"","lat":35.1594259,"lng":129.056408,"region":"부산광역시","source":"goodprice","goodpriceMenus":[{"name":"회국수","price":"8000"},{"name":"비빔국수","price":"7000"},{"name":"물국수","price":"6000"}]},{"id":"goodprice-busan-200","name":"나라소머리곰탕","address":"부산광역시부산진구동평로420번길131층(양정동)","jibunAddress":"","phone":"051-865-6336","foodType":"한식","mainFood":"곰탕","designatedDate":"","lat":35.1724656,"lng":129.0699785,"region":"부산광역시","source":"goodprice","goodpriceMenus":[{"name":"곰탕","price":"9000"},{"name":"꼬리곰탕","price":"20000"}]},{"id":"goodprice-busan-201","name":"팔팔대패","address":"부산광역시부산진구새싹로871층101호(부압동)","jibunAddress":"","phone":"051-804-0810","foodType":"한식","mainFood":"대패삼겹","designatedDate":"","lat":35.177619,"lng":129.0481683,"region":"부산광역시","source":"goodprice","goodpriceMenus":[{"name":"대패삼겹","price":"4900"},{"name":"제육볶음정식","price":"9000"}]},{"id":"goodprice-busan-202","name":"우성숯불갈비","address":"부산광역시부산진구새싹로862층(범전동)","jibunAddress":"","phone":"051-817-5432","foodType":"한식","mainFood":"생삼겹살","designatedDate":"","lat":35.1639579,"lng":129.0542726,"region":"부산광역시","source":"goodprice","goodpriceMenus":[{"name":"생삼겹살","price":"10000"},{"name":"불고기정식","price":"9000"},{"name":"김치전골","price":"9000"}]},{"id":"goodprice-busan-203","name":"동두천부대찌개","address":"부산광역시부산진구당감로34번길11(당감동)","jibunAddress":"","phone":"051-898-0279","foodType":"한식","mainFood":"부대찌개","designatedDate":"","lat":35.1650107,"lng":129.0406469,"region":"부산광역시","source":"goodprice","goodpriceMenus":[{"name":"부대찌개","price":"8500"},{"name":"해물부대찌개","price":"10000"}]},{"id":"goodprice-busan-204","name":"황금이네","address":"부산광역시부산진구백양순환로149-1(부암동)","jibunAddress":"","phone":"051-808-2707","foodType":"한식","mainFood":"국수","designatedDate":"","lat":35.1677814,"lng":129.041099,"region":"부산광역시","source":"goodprice","goodpriceMenus":[{"name":"국수","price":"5000"},{"name":"콩나물해장국","price":"6000"}]},{"id":"goodprice-busan-205","name":"장고방","address":"부산광역시부산진구백양순환로44-1(당감동)","jibunAddress":"","phone":"051-898-2488","foodType":"한식","mainFood":"황태구이","designatedDate":"","lat":35.1701023,"lng":129.0357089,"region":"부산광역시","source":"goodprice","goodpriceMenus":[{"name":"황태구이","price":"10000"},{"name":"황태탕","price":"10000"},{"name":"장어탕","price":"10000"}]},{"id":"goodprice-busan-206","name":"삼삼오오","address":"부산광역시부산진구동평로29(당감동)","jibunAddress":"","phone":"051-898-0010","foodType":"한식","mainFood":"동태탕","designatedDate":"","lat":35.1745419,"lng":129.0617188,"region":"부산광역시","source":"goodprice","goodpriceMenus":[{"name":"동태탕","price":"9000"},{"name":"보쌈정식","price":"9000"},{"name":"육전메밀막국수","price":"9000"},{"name":"아귀찜세트2인","price":"19000"}]},{"id":"goodprice-busan-207","name":"부전소머리곰탕","address":"부산광역시부산진구가야대로765번길23(부전동)","jibunAddress":"","phone":"051-809-7676","foodType":"한식","mainFood":"소머리곰탕","designatedDate":"","lat":35.1584204,"lng":129.0552624,"region":"부산광역시","source":"goodprice","goodpriceMenus":[{"name":"소머리곰탕","price":"8500"},{"name":"육회비빔밥","price":"8500"},{"name":"살코기곰탕","price":"8500"},{"name":"불고기비빔밥","price":"8500"}]},{"id":"goodprice-busan-208","name":"옛날짜장","address":"부산광역시부산진구중앙대로755번길28(부전동)","jibunAddress":"","phone":"051-816-7989","foodType":"중식","mainFood":"짜장면","designatedDate":"","lat":35.1602346,"lng":129.0600197,"region":"부산광역시","source":"goodprice","goodpriceMenus":[{"name":"짜장면","price":"2500"},{"name":"짬뽕","price":"4000"},{"name":"탕수육","price":"7000"},{"name":"짜장세트","price":"12000"}]},{"id":"goodprice-busan-209","name":"초원곰탕","address":"부산광역시부산진구부전로152번길551층(부전동)","jibunAddress":"","phone":"051-803-6652","foodType":"한식","mainFood":"(경로우대)곰탕","designatedDate":"","lat":35.1601737,"lng":129.0582774,"region":"부산광역시","source":"goodprice","goodpriceMenus":[{"name":"(경로우대)곰탕","price":"7000"},{"name":"곰탕","price":"8000"}]},{"id":"goodprice-busan-210","name":"부잣집밀면","address":"부산광역시부산진구새싹로8번길32(부전동)","jibunAddress":"","phone":"051-867-0125","foodType":"한식","mainFood":"물밀면","designatedDate":"","lat":35.1602731,"lng":129.0602716,"region":"부산광역시","source":"goodprice","goodpriceMenus":[{"name":"물밀면","price":"5500"},{"name":"비빔밀면","price":"6000"}]},{"id":"goodprice-busan-211","name":"논두렁","address":"부산광역시부산진구연지로241층(연지동)","jibunAddress":"","phone":"051-808-1966","foodType":"한식","mainFood":"야채만두","designatedDate":"","lat":35.1711507,"lng":129.0516768,"region":"부산광역시","source":"goodprice","goodpriceMenus":[{"name":"야채만두","price":"9000"},{"name":"보리밥","price":"8000"}]},{"id":"goodprice-busan-212","name":"엄마손팥칼국수","address":"부산광역시부산진구동평로44번길62-14(당감동)","jibunAddress":"","phone":"051-805-6343","foodType":"한식","mainFood":"팥칼국수","designatedDate":"","lat":35.1639881,"lng":129.034801,"region":"부산광역시","source":"goodprice","goodpriceMenus":[{"name":"팥칼국수","price":"9000"},{"name":"보리밥","price":"8000"}]},{"id":"goodprice-busan-213","name":"대박분식","address":"부산광역시부산진구가야대로482번길14(개금동)","jibunAddress":"","phone":"0507-1412-1654","foodType":"한식","mainFood":"김밥","designatedDate":"","lat":35.1494841,"lng":129.0245462,"region":"부산광역시","source":"goodprice","goodpriceMenus":[{"name":"김밥","price":"2500"},{"name":"떡볶이","price":"2000"},{"name":"칼국수","price":"6000"},{"name":"잔치국수","price":"5000"}]},{"id":"goodprice-busan-214","name":"정담칼국수","address":"부산광역시부산진구범일로148(범천동)","jibunAddress":"","phone":"0507-1312-6992","foodType":"한식","mainFood":"칼국수","designatedDate":"","lat":35.1442945,"lng":129.0592116,"region":"부산광역시","source":"goodprice","goodpriceMenus":[{"name":"칼국수","price":"7000"},{"name":"수육칼국수","price":"8000"},{"name":"낙지파전","price":"10000"}]},{"id":"goodprice-busan-215","name":"부전시장왕뽈떼기","address":"부산광역시부산진구부전로152번길51(부전동)","jibunAddress":"","phone":"051-954-3100","foodType":"한식","mainFood":"대구뽈탕","designatedDate":"","lat":35.1601737,"lng":129.0582774,"region":"부산광역시","source":"goodprice","goodpriceMenus":[{"name":"대구뽈탕","price":"6000"},{"name":"섞어대구뽈탕","price":"9000"},{"name":"대구매운뽈탕","price":"7000"}]},{"id":"goodprice-busan-216","name":"삼한우사골곰탕","address":"부산광역시부산진구동평로420번길5(양정동)","jibunAddress":"","phone":"051-583-3833","foodType":"한식","mainFood":"소머리곰탕","designatedDate":"","lat":35.1724656,"lng":129.0699785,"region":"부산광역시","source":"goodprice","goodpriceMenus":[{"name":"소머리곰탕","price":"8000"},{"name":"한우사골곰탕","price":"9000"}]},{"id":"goodprice-busan-217","name":"양가손만두부전시장점","address":"부산광역시부산진구중앙대로769번길24(부전동)","jibunAddress":"","phone":"051-894-9870","foodType":"한식","mainFood":"고기찐만두(10개)","designatedDate":"","lat":35.1612982,"lng":129.0608199,"region":"부산광역시","source":"goodprice","goodpriceMenus":[{"name":"고기찐만두(10개)","price":"6000"},{"name":"김치찐만두(10개)","price":"6000"}]},{"id":"goodprice-busan-218","name":"대패한상","address":"부산광역시부산진구연수로70(양정동)","jibunAddress":"","phone":"051-921-2757","foodType":"한식","mainFood":"한상대패","designatedDate":"","lat":35.1744337,"lng":129.0751057,"region":"부산광역시","source":"goodprice","goodpriceMenus":[{"name":"한상대패","price":"4000"},{"name":"소대패","price":"4900"},{"name":"차돌박이","price":"7900"}]},{"id":"goodprice-busan-219","name":"반도분식","address":"부산광역시부산진구개금본동로39(개금동)","jibunAddress":"","phone":"051-898-1578","foodType":"한식","mainFood":"김밥","designatedDate":"","lat":35.1587775,"lng":129.0249093,"region":"부산광역시","source":"goodprice","goodpriceMenus":[{"name":"김밥","price":"3000"},{"name":"라면","price":"4000"},{"name":"우동","price":"5000"},{"name":"칼국수","price":"5500"}]},{"id":"goodprice-busan-220","name":"여니네","address":"부산광역시부산진구백양대로232-2(개금동)","jibunAddress":"","phone":"051-897-1232","foodType":"한식","mainFood":"김밥","designatedDate":"","lat":35.1623192,"lng":129.0488238,"region":"부산광역시","source":"goodprice","goodpriceMenus":[{"name":"김밥","price":"3000"},{"name":"잔치국수","price":"5000"},{"name":"칼국수","price":"6000"}]},{"id":"goodprice-busan-221","name":"3000냥국밥집","address":"부산광역시부산진구새싹로16-11층(부전동)","jibunAddress":"","phone":"","foodType":"한식","mainFood":"시레기국밥","designatedDate":"","lat":35.1639579,"lng":129.0542726,"region":"부산광역시","source":"goodprice","goodpriceMenus":[{"name":"시레기국밥","price":"5000"},{"name":"소고기국밥","price":"5000"},{"name":"추어탕","price":"5000"}]},{"id":"goodprice-busan-222","name":"명란김밥","address":"부산광역시부산진구중앙대로783번길23(부전동)","jibunAddress":"","phone":"","foodType":"한식","mainFood":"일반김밥","designatedDate":"","lat":35.1626135,"lng":129.0609059,"region":"부산광역시","source":"goodprice","goodpriceMenus":[{"name":"일반김밥","price":"2500"},{"name":"참치소고기땡초돈까스고추참치김밥","price":"3000"},{"name":"명란명태회톳김밥","price":"3500"}]},{"id":"goodprice-busan-223","name":"지성감족","address":"부산광역시부산진구새싹로14번길52(부전동)","jibunAddress":"","phone":"051-808-8839","foodType":"한식","mainFood":"순살영양족발","designatedDate":"","lat":35.1607223,"lng":129.0594177,"region":"부산광역시","source":"goodprice","goodpriceMenus":[{"name":"순살영양족발","price":"10000"},{"name":"직화매운미니족발","price":"10000"}]},{"id":"goodprice-busan-224","name":"엄마김치야","address":"부산광역시부산진구새싹로253번길10(초읍동)","jibunAddress":"","phone":"051-816-4642","foodType":"한식","mainFood":"김치찌개","designatedDate":"","lat":35.1785498,"lng":129.0473339,"region":"부산광역시","source":"goodprice","goodpriceMenus":[{"name":"김치찌개","price":"8000"},{"name":"돼지김치볶음","price":"8000"}]},{"id":"goodprice-busan-225","name":"특별한식당서면본점","address":"부산광역시부산진구동천로132번길102층(전포동)","jibunAddress":"","phone":"051-803-8580","foodType":"한식","mainFood":"부추덮밥","designatedDate":"","lat":35.1605283,"lng":129.0635455,"region":"부산광역시","source":"goodprice","goodpriceMenus":[{"name":"부추덮밥","price":"6400"},{"name":"부추비빔밥","price":"7400"},{"name":"제육덮밥","price":"7400"},{"name":"불고기덮밥","price":"7400"}]},{"id":"goodprice-busan-227","name":"덕이네집밥","address":"부산광역시부산진구가야대로703번나길341층(당감동)","jibunAddress":"","phone":"051-897-5682","foodType":"한식","mainFood":"정식","designatedDate":"","lat":35.152429,"lng":129.0180579,"region":"부산광역시","source":"goodprice","goodpriceMenus":[{"name":"정식","price":"8000"}]},{"id":"goodprice-busan-228","name":"팔천구이","address":"부산광역시부산진구신천대로62번길321층(부전동)","jibunAddress":"","phone":"051-912-2794","foodType":"한식","mainFood":"김치찌개","designatedDate":"","lat":35.1525823,"lng":129.0584061,"region":"부산광역시","source":"goodprice","goodpriceMenus":[{"name":"김치찌개","price":"8000"},{"name":"된장찌개","price":"8000"},{"name":"두루치기","price":"8000"}]},{"id":"goodprice-busan-229","name":"전원보리밥","address":"부산광역시부산진구개금본동로84-15(개금동)","jibunAddress":"","phone":"051-897-3491","foodType":"한식","mainFood":"보리밥","designatedDate":"","lat":35.159319,"lng":129.0233477,"region":"부산광역시","source":"goodprice","goodpriceMenus":[{"name":"보리밥","price":"8000"}]},{"id":"goodprice-busan-230","name":"분식다방","address":"부산광역시부산진구백양관문로3지하4호(개금동)","jibunAddress":"","phone":"051-711-3337","foodType":"한식","mainFood":"김밥","designatedDate":"","lat":35.170421,"lng":129.0263612,"region":"부산광역시","source":"goodprice","goodpriceMenus":[{"name":"김밥","price":"3000"},{"name":"떡볶이","price":"4000"},{"name":"순대","price":"4000"}]},{"id":"goodprice-busan-231","name":"국시24","address":"부산광역시부산진구동평로405번길1131층(양정동)","jibunAddress":"","phone":"051-853-1215","foodType":"한식","mainFood":"멸치국수","designatedDate":"","lat":35.176443,"lng":129.0714302,"region":"부산광역시","source":"goodprice","goodpriceMenus":[{"name":"멸치국수","price":"5000"},{"name":"비빔국수","price":"6000"},{"name":"어묵국수","price":"6000"},{"name":"멸치국수+수육","price":"8000"}]},{"id":"goodprice-busan-232","name":"양정밀면전문점","address":"부산광역시부산진구중앙대로928번길71층(양정동)","jibunAddress":"","phone":"051-868-1223","foodType":"한식","mainFood":"물밀면","designatedDate":"","lat":35.1721149,"lng":129.0720011,"region":"부산광역시","source":"goodprice","goodpriceMenus":[{"name":"물밀면","price":"7500"},{"name":"비빔밀면","price":"7500"}]},{"id":"goodprice-busan-233","name":"평강한방오리","address":"부산광역시부산진구당감로34번길181층(당감동)","jibunAddress":"","phone":"051-894-5552","foodType":"한식","mainFood":"동태탕","designatedDate":"","lat":35.1650107,"lng":129.0406469,"region":"부산광역시","source":"goodprice","goodpriceMenus":[{"name":"동태탕","price":"8000"},{"name":"오리육계장","price":"8000"},{"name":"전복오리탕","price":"10000"}]},{"id":"goodprice-busan-234","name":"올바로갈비","address":"부산광역시부산진구중앙대로680번가길811층(부전동)","jibunAddress":"","phone":"051-804-7790","foodType":"한식","mainFood":"양념돼지갈비(100g)","designatedDate":"","lat":35.1535107,"lng":129.059516,"region":"부산광역시","source":"goodprice","goodpriceMenus":[{"name":"양념돼지갈비(100g)","price":"3000"},{"name":"생돼지갈비(100g)","price":"3900"}]},{"id":"goodprice-busan-235","name":"삼광보리밥","address":"부산광역시부산진구성지곡로261층(초읍동)","jibunAddress":"","phone":"051-802-4582","foodType":"한식","mainFood":"보리밥","designatedDate":"","lat":35.1837973,"lng":129.0475701,"region":"부산광역시","source":"goodprice","goodpriceMenus":[{"name":"보리밥","price":"7000"},{"name":"선지보리밥","price":"9000"}]},{"id":"goodprice-busan-236","name":"형제기사님식당","address":"부산광역시부산진구거제천로44번길2(양정동)","jibunAddress":"","phone":"051-867-3737","foodType":"한식","mainFood":"갈비탕","designatedDate":"","lat":35.1789504,"lng":129.0722066,"region":"부산광역시","source":"goodprice","goodpriceMenus":[{"name":"갈비탕","price":"9000"},{"name":"추어탕","price":"9000"},{"name":"불고기","price":"9000"},{"name":"김치찌개","price":"8000"}]},{"id":"goodprice-busan-237","name":"논두렁추어탕","address":"부산광역시동래구명륜로139번길42-5(명륜동)","jibunAddress":"","phone":"051-553-5769","foodType":"한식","mainFood":"추어탕","designatedDate":"","lat":35.2064881,"lng":129.0796591,"region":"부산광역시","source":"goodprice","goodpriceMenus":[{"name":"추어탕","price":"6500"}]},{"id":"goodprice-busan-238","name":"송화루","address":"부산광역시동래구아시아드대로207번길9(온천동)","jibunAddress":"","phone":"051-504-5415","foodType":"중식","mainFood":"탕수육정식","designatedDate":"","lat":35.203411,"lng":129.0646838,"region":"부산광역시","source":"goodprice","goodpriceMenus":[{"name":"탕수육정식","price":"10000"},{"name":"라조육정식","price":"10000"}]},{"id":"goodprice-busan-239","name":"만점숯불갈비","address":"부산광역시동래구명륜로98번길18(수안동)","jibunAddress":"","phone":"051-558-2240","foodType":"한식","mainFood":"불고기전골","designatedDate":"","lat":35.2024166,"lng":129.0843933,"region":"부산광역시","source":"goodprice","goodpriceMenus":[{"name":"불고기전골","price":"7000"},{"name":"돼지갈비140g(수입+국내)","price":"9000"}]},{"id":"goodprice-busan-240","name":"작은영토","address":"부산광역시동래구동래로27-7(온천동)","jibunAddress":"","phone":"051-554-3516","foodType":"한식","mainFood":"수제돈까스","designatedDate":"","lat":35.2049303,"lng":129.0865094,"region":"부산광역시","source":"goodprice","goodpriceMenus":[{"name":"수제돈까스","price":"9000"},{"name":"치즈돈까스","price":"10000"},{"name":"고구마돈까스","price":"10000"},{"name":"카레돈까스","price":"10000"}]},{"id":"goodprice-busan-241","name":"참뷔페","address":"부산광역시동래구명륜로112번가길521층(명륜동)","jibunAddress":"","phone":"051-552-2456","foodType":"한식","mainFood":"한식뷔페","designatedDate":"","lat":35.2114586,"lng":129.0823604,"region":"부산광역시","source":"goodprice","goodpriceMenus":[{"name":"한식뷔페","price":"6000"}]},{"id":"goodprice-busan-242","name":"하동각","address":"부산광역시동래구명륜로130-6(명륜동)","jibunAddress":"","phone":"051-556-1081","foodType":"중식","mainFood":"짜장면","designatedDate":"","lat":35.1992446,"lng":129.0846728,"region":"부산광역시","source":"goodprice","goodpriceMenus":[{"name":"짜장면","price":"6000"},{"name":"짬뽕","price":"7000"}]},{"id":"goodprice-busan-243","name":"정동진해돋이횟집","address":"부산광역시동래구반송로240번길16(안락동)","jibunAddress":"","phone":"051-532-8838","foodType":"한식","mainFood":"물회","designatedDate":"","lat":35.2017792,"lng":129.0995343,"region":"부산광역시","source":"goodprice","goodpriceMenus":[{"name":"물회","price":"10000"},{"name":"장어탕","price":"8000"}]},{"id":"goodprice-busan-244","name":"예원한정식","address":"부산광역시동래구삼성대길22(명륜동)","jibunAddress":"","phone":"051-556-1155","foodType":"한식","mainFood":"불고기정식","designatedDate":"","lat":35.2040233,"lng":129.0821124,"region":"부산광역시","source":"goodprice","goodpriceMenus":[{"name":"불고기정식","price":"15000"}]},{"id":"goodprice-busan-245","name":"천일궁","address":"부산광역시동래구차밭골로21번길27(온천동)","jibunAddress":"","phone":"051-554-5515","foodType":"중식","mainFood":"짜장면","designatedDate":"","lat":35.2158981,"lng":129.0789512,"region":"부산광역시","source":"goodprice","goodpriceMenus":[{"name":"짜장면","price":"6000"}]},{"id":"goodprice-busan-246","name":"무진장횟집","address":"부산광역시동래구명륜로98번길41(수안동)","jibunAddress":"","phone":"051-553-2078","foodType":"한식","mainFood":"회덮밥","designatedDate":"","lat":35.2019255,"lng":129.0870373,"region":"부산광역시","source":"goodprice","goodpriceMenus":[{"name":"회덮밥","price":"7000"},{"name":"모듬회(소)","price":"30000"},{"name":"뼈매운탕(2인)","price":"3000"}]},{"id":"goodprice-busan-247","name":"서울칼국수","address":"부산광역시동래구사직북로23-3(사직동)","jibunAddress":"","phone":"051-502-2093","foodType":"한식","mainFood":"칼국수","designatedDate":"","lat":35.2000379,"lng":129.057926,"region":"부산광역시","source":"goodprice","goodpriceMenus":[{"name":"칼국수","price":"4500"},{"name":"비빔칼국수","price":"5000"}]},{"id":"goodprice-busan-248","name":"카페꽃마실","address":"부산광역시동래구여고북로179(온천동)","jibunAddress":"","phone":"051-504-1788","foodType":"기타","mainFood":"아메리카노","designatedDate":"","lat":35.2019595,"lng":129.0736264,"region":"부산광역시","source":"goodprice","goodpriceMenus":[{"name":"아메리카노","price":"2500"},{"name":"카페라떼","price":"3000"}]},{"id":"goodprice-busan-249","name":"초원집식당","address":"부산광역시동래구충렬대로249번길11-3(수안동)","jibunAddress":"","phone":"051-555-4466","foodType":"한식","mainFood":"삼계탕","designatedDate":"","lat":35.202775,"lng":129.0866785,"region":"부산광역시","source":"goodprice","goodpriceMenus":[{"name":"삼계탕","price":"12000"},{"name":"추어탕","price":"7000"}]},{"id":"goodprice-busan-250","name":"장터국밥","address":"부산광역시동래구충렬대로359번길54(안락동)","jibunAddress":"","phone":"051-527-0141","foodType":"한식","mainFood":"소고기국밥","designatedDate":"","lat":35.1993243,"lng":129.09877,"region":"부산광역시","source":"goodprice","goodpriceMenus":[{"name":"소고기국밥","price":"6000"},{"name":"시락국밥","price":"5000"}]},{"id":"goodprice-busan-251","name":"멸치가살아있는국수","address":"부산광역시동래구충렬대로457번길72(안락동)","jibunAddress":"","phone":"051-523-6242","foodType":"한식","mainFood":"멸치국수","designatedDate":"","lat":35.1989957,"lng":129.109274,"region":"부산광역시","source":"goodprice","goodpriceMenus":[{"name":"멸치국수","price":"4500"},{"name":"소고기국밥","price":"6000"},{"name":"떡만두국","price":"7000"}]},{"id":"goodprice-busan-252","name":"온천돈까스","address":"부산광역시동래구금강로124번길18(온천동)","jibunAddress":"","phone":"051-555-0445","foodType":"양식","mainFood":"돈까스","designatedDate":"","lat":35.2194884,"lng":129.0809875,"region":"부산광역시","source":"goodprice","goodpriceMenus":[{"name":"돈까스","price":"8500"},{"name":"생선까스","price":"8500"}]},{"id":"goodprice-busan-253","name":"갈비둥지","address":"부산광역시동래구중앙대로1381번길60(온천동)","jibunAddress":"","phone":"051-558-5767","foodType":"한식","mainFood":"양념목살170g","designatedDate":"","lat":35.2109116,"lng":129.0767621,"region":"부산광역시","source":"goodprice","goodpriceMenus":[{"name":"양념목살170g","price":"9000"},{"name":"삼겹살150g","price":"10000"},{"name":"돼지왕갈비170g","price":"8500"}]},{"id":"goodprice-busan-254","name":"초량화성갈비","address":"부산광역시동래구명륜로129번길20(명륜동)","jibunAddress":"","phone":"051-556-8900","foodType":"한식","mainFood":"김치찌개","designatedDate":"","lat":35.2054821,"lng":129.0812822,"region":"부산광역시","source":"goodprice","goodpriceMenus":[{"name":"김치찌개","price":"7000"},{"name":"된장찌개","price":"7000"},{"name":"불고기백반","price":"8000"}]},{"id":"goodprice-busan-255","name":"뒷통구이","address":"부산광역시동래구사직북로19번길21-4(사직동)","jibunAddress":"","phone":"051-527-7333","foodType":"한식","mainFood":"뒷통구이100g","designatedDate":"","lat":35.1974447,"lng":129.0597251,"region":"부산광역시","source":"goodprice","goodpriceMenus":[{"name":"뒷통구이100g","price":"7500"},{"name":"생삼겹살100g","price":"7000"}]},{"id":"goodprice-busan-256","name":"미남칼국수","address":"부산광역시동래구석사북로99미남아트빌1층(온천동)","jibunAddress":"","phone":"051-507-5278","foodType":"한식","mainFood":"칼국수(공기밥포함)","designatedDate":"","lat":35.2003643,"lng":129.0613755,"region":"부산광역시","source":"goodprice","goodpriceMenus":[{"name":"칼국수(공기밥포함)","price":"7000"},{"name":"팥칼국수","price":"8000"}]},{"id":"goodprice-busan-258","name":"하동녹차팥빙수","address":"부산광역시동래구중앙대로1367번길48-23(온천동)","jibunAddress":"","phone":"051-553-3358","foodType":"기타","mainFood":"팥빙수","designatedDate":"","lat":35.2106688,"lng":129.0752437,"region":"부산광역시","source":"goodprice","goodpriceMenus":[{"name":"팥빙수","price":"6500"},{"name":"단팥죽","price":"6500"}]},{"id":"goodprice-busan-259","name":"원조본가산곰장어집","address":"부산광역시동래구명륜로98번길42(수안동)","jibunAddress":"","phone":"051-553-8377","foodType":"한식","mainFood":"장어탕","designatedDate":"","lat":35.202078,"lng":129.0858041,"region":"부산광역시","source":"goodprice","goodpriceMenus":[{"name":"장어탕","price":"7000"},{"name":"장어탕포장(2인분)","price":"10000"}]},{"id":"goodprice-busan-260","name":"먹을래싸갈래","address":"부산광역시동래구사직북로33번길12(사직동)","jibunAddress":"","phone":"051-501-3134","foodType":"기타","mainFood":"도너츠","designatedDate":"","lat":35.1986392,"lng":129.0593724,"region":"부산광역시","source":"goodprice","goodpriceMenus":[{"name":"도너츠","price":"800"},{"name":"고로케","price":"1000"}]},{"id":"goodprice-busan-261","name":"만복관","address":"부산광역시동래구명장로93(명장동)","jibunAddress":"","phone":"051-502-5759","foodType":"중식","mainFood":"자장면","designatedDate":"","lat":35.202468,"lng":129.1103978,"region":"부산광역시","source":"goodprice","goodpriceMenus":[{"name":"자장면","price":"4000"},{"name":"짬뽕","price":"7000"}]},{"id":"goodprice-busan-262","name":"쭈꾸미국민삼겹","address":"부산광역시동래구명륜로129번길30(명륜동)","jibunAddress":"","phone":"051-523-1114","foodType":"한식","mainFood":"통마리대패100g","designatedDate":"","lat":35.2052993,"lng":129.080843,"region":"부산광역시","source":"goodprice","goodpriceMenus":[{"name":"통마리대패100g","price":"5500"},{"name":"흑돼지대패100g","price":"4500"},{"name":"삼겹살100g","price":"5500"}]},{"id":"goodprice-busan-263","name":"행복순두부","address":"부산광역시동래구명장로48번길121층(명장동)","jibunAddress":"","phone":"","foodType":"한식","mainFood":"순두부","designatedDate":"","lat":35.2033775,"lng":129.1061223,"region":"부산광역시","source":"goodprice","goodpriceMenus":[{"name":"순두부","price":"6000"},{"name":"해물순두부","price":"6000"},{"name":"들깨순두부","price":"6000"}]},{"id":"goodprice-busan-264","name":"부원돼지국밥","address":"부산광역시동래구여고로91번길90(사직동)","jibunAddress":"","phone":"051-505-6345","foodType":"한식","mainFood":"돼지국밥","designatedDate":"","lat":35.1992146,"lng":129.0726127,"region":"부산광역시","source":"goodprice","goodpriceMenus":[{"name":"돼지국밥","price":"8000"},{"name":"순대국밥","price":"8000"},{"name":"내장국밥","price":"8000"}]},{"id":"goodprice-busan-265","name":"아늑한식당","address":"부산광역시동래구중앙대로1493번길28(온천동)","jibunAddress":"","phone":"051-553-9461","foodType":"한식","mainFood":"김치찌개","designatedDate":"","lat":35.2190703,"lng":129.084039,"region":"부산광역시","source":"goodprice","goodpriceMenus":[{"name":"김치찌개","price":"7000"},{"name":"순두부찌개","price":"7000"},{"name":"만두백반","price":"7000"},{"name":"된장찌개","price":"7000"}]},{"id":"goodprice-busan-266","name":"봉평신조막국수","address":"부산광역시동래구동래로147번길21층(복천동)","jibunAddress":"","phone":"051-555-9977","foodType":"한식","mainFood":"막국수","designatedDate":"","lat":35.2050345,"lng":129.0870402,"region":"부산광역시","source":"goodprice","goodpriceMenus":[{"name":"막국수","price":"8500"},{"name":"비빔막국수","price":"9000"},{"name":"고기감자만두","price":"3900"}]},{"id":"goodprice-busan-267","name":"들깨나루","address":"부산광역시동래구명장로22번길28-4(명장동)","jibunAddress":"","phone":"051-523-7799","foodType":"한식","mainFood":"들깨칼국수","designatedDate":"","lat":35.2026694,"lng":129.1025613,"region":"부산광역시","source":"goodprice","goodpriceMenus":[{"name":"들깨칼국수","price":"7000"},{"name":"들깨수제비","price":"7000"},{"name":"손칼국수","price":"6000"}]},{"id":"goodprice-busan-268","name":"소문난손칼국수","address":"부산광역시동래구명안로86번길17(명장동)","jibunAddress":"","phone":"051-524-0419","foodType":"한식","mainFood":"손칼국수","designatedDate":"","lat":35.2038742,"lng":129.1068407,"region":"부산광역시","source":"goodprice","goodpriceMenus":[{"name":"손칼국수","price":"5000"},{"name":"수제비","price":"6000"},{"name":"들깨칼국수","price":"7000"}]},{"id":"goodprice-busan-269","name":"스시몬(몬스시)","address":"부산광역시동래구삼성대길401층(명륜동)","jibunAddress":"","phone":"051-553-0303","foodType":"일식","mainFood":"참치연어(리필)","designatedDate":"","lat":35.2047098,"lng":129.0819638,"region":"부산광역시","source":"goodprice","goodpriceMenus":[{"name":"참치연어(리필)","price":"18000"}]},{"id":"goodprice-busan-270","name":"만나웰빙맛집","address":"부산광역시동래구충렬대로306103호(낙민동)","jibunAddress":"","phone":"051-781-3708","foodType":"한식","mainFood":"국수","designatedDate":"","lat":35.1962857,"lng":129.1065418,"region":"부산광역시","source":"goodprice","goodpriceMenus":[{"name":"국수","price":"5000"},{"name":"김밥","price":"3000"}]},{"id":"goodprice-busan-271","name":"옛날팥빙수","address":"부산광역시동래구아시아드대로161(사직동)","jibunAddress":"","phone":"051-502-9440","foodType":"기타","mainFood":"팥빙수","designatedDate":"","lat":35.1986115,"lng":129.0651892,"region":"부산광역시","source":"goodprice","goodpriceMenus":[{"name":"팥빙수","price":"5000"},{"name":"단팥죽","price":"5000"},{"name":"녹차밭빙수","price":"5500"}]},{"id":"goodprice-busan-272","name":"이수밀면","address":"부산광역시동래구여고로131층(사직동)","jibunAddress":"","phone":"051-502-1009","foodType":"한식","mainFood":"물밀면","designatedDate":"","lat":35.1950895,"lng":129.0655358,"region":"부산광역시","source":"goodprice","goodpriceMenus":[{"name":"물밀면","price":"7500"},{"name":"비밀밀면","price":"8000"},{"name":"칼국수","price":"7000"},{"name":"모듬만두","price":"6000"}]},{"id":"goodprice-busan-273","name":"충렬함박","address":"부산광역시동래구반송로214-11층(안락동)","jibunAddress":"","phone":"051-522-9992","foodType":"양식","mainFood":"충렬함박","designatedDate":"","lat":35.1998188,"lng":129.0978799,"region":"부산광역시","source":"goodprice","goodpriceMenus":[{"name":"충렬함박","price":"6900"},{"name":"땡초함박","price":"7900"}]},{"id":"goodprice-busan-274","name":"순이네","address":"부산광역시동래구낙민로31층(낙민동)","jibunAddress":"","phone":"051-556-8245","foodType":"한식","mainFood":"정식","designatedDate":"","lat":35.199628,"lng":129.0911509,"region":"부산광역시","source":"goodprice","goodpriceMenus":[{"name":"정식","price":"8000"},{"name":"아구탕","price":"10000"},{"name":"동태탕","price":"10000"}]},{"id":"goodprice-busan-275","name":"동천홍","address":"부산광역시동래구온천장로1(온천동)","jibunAddress":"","phone":"051-502-1240","foodType":"중식","mainFood":"자장면","designatedDate":"","lat":35.2200908,"lng":129.0841069,"region":"부산광역시","source":"goodprice","goodpriceMenus":[{"name":"자장면","price":"4000"},{"name":"짬뽕","price":"6000"},{"name":"탕수육(1~2인)","price":"10000"}]},{"id":"goodprice-busan-276","name":"오미자밀면","address":"부산광역시동래구충렬대로410번길31-3(안락동)","jibunAddress":"","phone":"051-781-3070","foodType":"한식","mainFood":"물밀면+돈가스","designatedDate":"","lat":35.1947077,"lng":129.1022763,"region":"부산광역시","source":"goodprice","goodpriceMenus":[{"name":"물밀면+돈가스","price":"7000"},{"name":"비빔밀면+돈가스","price":"7000"},{"name":"생면국수+돈가스","price":"7000"}]},{"id":"goodprice-busan-277","name":"킹부대찌개","address":"부산광역시동래구명륜로103번길14(명륜동)","jibunAddress":"","phone":"051-556-0088","foodType":"한식","mainFood":"부대찌개","designatedDate":"","lat":35.2030246,"lng":129.082591,"region":"부산광역시","source":"goodprice","goodpriceMenus":[{"name":"부대찌개","price":"9000"},{"name":"섞어부대찌개","price":"10000"},{"name":"우삼겹부대찌개","price":"10000"}]},{"id":"goodprice-busan-278","name":"더원카페","address":"부산광역시동래구명안로60-11층(명장동)","jibunAddress":"","phone":"0507-1322-5865","foodType":"기타","mainFood":"아메리카노","designatedDate":"","lat":35.1980516,"lng":129.1043682,"region":"부산광역시","source":"goodprice","goodpriceMenus":[{"name":"아메리카노","price":"2000"},{"name":"카페라떼","price":"3000"},{"name":"수제청에이드","price":"4000"},{"name":"수제잼토스트","price":"2500"}]},{"id":"goodprice-busan-279","name":"최가네칼국수","address":"부산광역시동래구온천장로11102호(온천동관성빌딩)","jibunAddress":"","phone":"051-553-0507","foodType":"한식","mainFood":"칼국수","designatedDate":"","lat":35.2200908,"lng":129.0841069,"region":"부산광역시","source":"goodprice","goodpriceMenus":[{"name":"칼국수","price":"6000"},{"name":"수제돈가스","price":"8000"}]},{"id":"goodprice-busan-280","name":"당미옥","address":"부산광역시동래구온천장로119번길281층(온천동)","jibunAddress":"","phone":"051-558-6767","foodType":"한식","mainFood":"곰탕","designatedDate":"","lat":35.2217269,"lng":129.0829896,"region":"부산광역시","source":"goodprice","goodpriceMenus":[{"name":"곰탕","price":"8800"},{"name":"소국밥","price":"7500"}]},{"id":"goodprice-busan-281","name":"강가네밥상","address":"부산광역시동래구충렬대로245-5(수안동)","jibunAddress":"","phone":"051-638-1515","foodType":"한식","mainFood":"코다리찜(소)","designatedDate":"","lat":35.2045175,"lng":129.0777572,"region":"부산광역시","source":"goodprice","goodpriceMenus":[{"name":"코다리찜(소)","price":"20000"},{"name":"아구찜(소)","price":"25000"}]},{"id":"goodprice-busan-282","name":"홍짬뽕","address":"부산광역시동래구명륜로112번길74(수안동)","jibunAddress":"","phone":"051-552-5006","foodType":"중식","mainFood":"짜장면","designatedDate":"","lat":35.2031153,"lng":129.0859952,"region":"부산광역시","source":"goodprice","goodpriceMenus":[{"name":"짜장면","price":"5500"},{"name":"짬뽕","price":"6500"},{"name":"우동","price":"6000"},{"name":"울면","price":"7000"}]},{"id":"goodprice-busan-283","name":"안락팔도족발","address":"부산광역시동래구명안로9번길79-21층(안락동)","jibunAddress":"","phone":"051-995-8568","foodType":"한식","mainFood":"온족(소)","designatedDate":"","lat":35.1982004,"lng":129.100028,"region":"부산광역시","source":"goodprice","goodpriceMenus":[{"name":"온족(소)","price":"19000"},{"name":"온족(중)","price":"24000"},{"name":"불족(소)","price":"19000"},{"name":"냉채족발(기본)","price":"24000"}]},{"id":"goodprice-busan-284","name":"사직동소문난김밥","address":"부산광역시동래구사직북로28번길601층(사직동)","jibunAddress":"","phone":"051-502-8980","foodType":"한식","mainFood":"원조김밥","designatedDate":"","lat":35.2033935,"lng":129.0656675,"region":"부산광역시","source":"goodprice","goodpriceMenus":[{"name":"원조김밥","price":"1500"},{"name":"참치김밥","price":"2500"},{"name":"소고기김밥","price":"2500"},{"name":"땡초김밥","price":"2500"}]},{"id":"goodprice-busan-285","name":"대흥커피","address":"부산광역시동래구석사로24-1(사직동)1층","jibunAddress":"","phone":"","foodType":"기타","mainFood":"아메리카노","designatedDate":"","lat":35.199138,"lng":129.0625296,"region":"부산광역시","source":"goodprice","goodpriceMenus":[{"name":"아메리카노","price":"2000"},{"name":"카페라떼","price":"2500"}]},{"id":"goodprice-busan-286","name":"코끼리분식","address":"부산광역시동래구충렬대로428번길35(안락동)1층","jibunAddress":"","phone":"051-527-7212","foodType":"한식","mainFood":"칼국수","designatedDate":"","lat":35.1947241,"lng":129.1043248,"region":"부산광역시","source":"goodprice","goodpriceMenus":[{"name":"칼국수","price":"3500"},{"name":"짜장면","price":"3500"},{"name":"국수","price":"3500"},{"name":"우동","price":"3500"}]},{"id":"goodprice-busan-287","name":"주식회사더나아짐","address":"부산광역시동래구명륜로112번길108(수안동)","jibunAddress":"","phone":"051-555-8823","foodType":"교육서비스","mainFood":"합기도","designatedDate":"","lat":35.2015811,"lng":129.0921545,"region":"부산광역시","source":"goodprice","goodpriceMenus":[{"name":"합기도","price":"140000"}]},{"id":"goodprice-busan-288","name":"토이스튜디오","address":"부산광역시동래구충렬대로2112층(명륜동)","jibunAddress":"","phone":"051-553-8878","foodType":"사진","mainFood":"만삭+50일","designatedDate":"","lat":35.1962857,"lng":129.1065418,"region":"부산광역시","source":"goodprice","goodpriceMenus":[{"name":"만삭+50일","price":"무료"},{"name":"백일","price":"140000"},{"name":"돌","price":"250000"},{"name":"성장앨범","price":"390000"}]},{"id":"goodprice-busan-289","name":"정원숯불갈비","address":"부산광역시동래구아시아드대로161(사직동)","jibunAddress":"","phone":"051-501-1698","foodType":"한식","mainFood":"보리밥","designatedDate":"","lat":35.1986115,"lng":129.0651892,"region":"부산광역시","source":"goodprice","goodpriceMenus":[{"name":"보리밥","price":"5900"}]},{"id":"goodprice-busan-290","name":"제철밥상","address":"부산광역시동래구충렬대로319-11층(안락동)","jibunAddress":"","phone":"051-555-3117","foodType":"한식","mainFood":"한식뷔페","designatedDate":"","lat":35.1962857,"lng":129.1065418,"region":"부산광역시","source":"goodprice","goodpriceMenus":[{"name":"한식뷔페","price":"7000"}]},{"id":"goodprice-busan-291","name":"금룡","address":"부산광역시동래구충렬대로108번길571층(온천동)","jibunAddress":"","phone":"051-506-7607","foodType":"중식","mainFood":"자장면","designatedDate":"","lat":35.203888,"lng":129.0732407,"region":"부산광역시","source":"goodprice","goodpriceMenus":[{"name":"자장면","price":"4000"},{"name":"미니탕수육","price":"9000"},{"name":"해물우동","price":"7000"}]},{"id":"goodprice-busan-292","name":"대박돈까스","address":"부산광역시동래구명안로63번길391층(명장동)","jibunAddress":"","phone":"051-711-0447","foodType":"양식","mainFood":"등심돈까스","designatedDate":"","lat":35.2025126,"lng":129.1026218,"region":"부산광역시","source":"goodprice","goodpriceMenus":[{"name":"등심돈까스","price":"7000"},{"name":"치즈돈까스","price":"8000"},{"name":"떡갈비정식","price":"8000"},{"name":"카레덮밥","price":"7000"}]},{"id":"goodprice-busan-293","name":"2층사진관","address":"부산광역시동래구충렬대로237번길96201호(복천동)","jibunAddress":"","phone":"051-556-6893","foodType":"사진","mainFood":"증명사진","designatedDate":"","lat":35.2047325,"lng":129.0843308,"region":"부산광역시","source":"goodprice","goodpriceMenus":[{"name":"증명사진","price":"14000"},{"name":"여권사진","price":"14000"},{"name":"취업사진","price":"20000"}]},{"id":"goodprice-busan-294","name":"신가네호떡김밥","address":"부산광역시동래구충렬대로249번길61(복천동)","jibunAddress":"","phone":"051-552-2644","foodType":"한식","mainFood":"호떡","designatedDate":"","lat":35.202775,"lng":129.0866785,"region":"부산광역시","source":"goodprice","goodpriceMenus":[{"name":"호떡","price":"1000"},{"name":"김밥","price":"3000"},{"name":"만두","price":"3000"},{"name":"떡볶이","price":"4000"}]},{"id":"goodprice-busan-295","name":"산더미소갈비","address":"부산광역시동래구온천천로431번길131층(안락동)","jibunAddress":"","phone":"070-7795-0955","foodType":"한식","mainFood":"산더미생갈비살","designatedDate":"","lat":35.1929725,"lng":129.0998775,"region":"부산광역시","source":"goodprice","goodpriceMenus":[{"name":"산더미생갈비살","price":"8900"},{"name":"산더미양념갈비살","price":"8900"}]},{"id":"goodprice-busan-296","name":"돈바라기","address":"부산광역시동래구여고북로2201층(사직동)","jibunAddress":"","phone":"051-554-3993","foodType":"양식","mainFood":"일본식돈까스","designatedDate":"","lat":35.2019595,"lng":129.0736264,"region":"부산광역시","source":"goodprice","goodpriceMenus":[{"name":"일본식돈까스","price":"7000"},{"name":"옛날돈까스","price":"8000"},{"name":"불고기덮밥","price":"7000"},{"name":"치킨마요동","price":"7000"}]},{"id":"goodprice-busan-297","name":"명동닭한마리","address":"부산광역시남구천제등로41동101호(대연동남산하이빌)","jibunAddress":"","phone":"051-636-2834","foodType":"한식","mainFood":"삼계탕","designatedDate":"","lat":35.132813,"lng":129.0889647,"region":"부산광역시","source":"goodprice","goodpriceMenus":[{"name":"삼계탕","price":"14000"},{"name":"닭한마리","price":"27000"},{"name":"닭양념탕","price":"28000"}]},{"id":"goodprice-busan-298","name":"제일집추어탕","address":"부산광역시남구진남로25번길24(대연동)","jibunAddress":"","phone":"051-612-4748","foodType":"한식","mainFood":"추어탕","designatedDate":"","lat":35.137297,"lng":129.090086,"region":"부산광역시","source":"goodprice","goodpriceMenus":[{"name":"추어탕","price":"10000"},{"name":"미역국","price":"10000"}]},{"id":"goodprice-busan-299","name":"돌고래돼지국밥","address":"부산광역시남구용소로21번길3(대연동)","jibunAddress":"","phone":"051-623-0229","foodType":"한식","mainFood":"돼지국밥","designatedDate":"","lat":35.1364789,"lng":129.1042957,"region":"부산광역시","source":"goodprice","goodpriceMenus":[{"name":"돼지국밥","price":"9000"},{"name":"순대국밥","price":"9000"},{"name":"수육백반","price":"11000"}]},{"id":"goodprice-busan-300","name":"동명식육식당","address":"부산광역시남구유엔평화로153(용당동)","jibunAddress":"","phone":"051-621-5324","foodType":"한식","mainFood":"된장찌개","designatedDate":"","lat":35.1231806,"lng":129.0973038,"region":"부산광역시","source":"goodprice","goodpriceMenus":[{"name":"된장찌개","price":"8000"},{"name":"김치찌개","price":"9000"},{"name":"양념불고기","price":"9000"}]},{"id":"goodprice-busan-301","name":"미담","address":"부산광역시남구우암로154번길48(우암동)","jibunAddress":"","phone":"051-642-4845","foodType":"한식","mainFood":"돈까스","designatedDate":"","lat":35.125214,"lng":129.0816666,"region":"부산광역시","source":"goodprice","goodpriceMenus":[{"name":"돈까스","price":"8000"},{"name":"비빔밥","price":"7500"}]},