[{"id":"safefood-chungbuk-HG260002615","name":"청주공항 투썸플레이스 국내선","address":"충청북도 청주시 청원구 내수읍 오창대로 980(청주국제공항 여객청사 2층)","jibunAddress":"","phone":"","foodType":"","mainFood":"","designatedDate":"2026-03-20","lat":36.648042748,"lng":127.482584946,"region":"충청북도","source":"safefood","safeFoodGrade":"적합","safeFoodCertNo":"HG260002615"},{"id":"safefood-chungbuk-HG260002614","name":"청주공항 투썸플레이스 국제선","address":"충청북도 청주시 청원구 내수읍 오창대로 980(청주국제공항 여객청사 2층)","jibunAddress":"","phone":"","foodType":"","mainFood":"","designatedDate":"2026-03-20","lat":36.648042748,"lng":127.482584946,"region":"충청북도","source":"safefood","safeFoodGrade":"적합","safeFoodCertNo":"HG260002614"},{"id":"safefood-chungbuk-HG260003001","name":"뚜레쥬르 청주가경아이파크점","address":"충청북도 청주시 흥덕구 서현로 68(상가동 B106,B107호 가경동, 청주가경아이파크 2단지)","jibunAddress":"","phone":"","foodType":"","mainFood":"","designatedDate":"2026-03-31","lat":36.62671822,"lng":127.43327635,"region":"충청북도","source":"safefood","safeFoodGrade":"적합","safeFoodCertNo":"HG260003001"},{"id":"safefood-chungbuk-HG260003000","name":"컴포즈커피 청주복대점","address":"충청북도 청주시 흥덕구 진재로 91(1층 101호 복대동)","jibunAddress":"","phone":"","foodType":"","mainFood":"","designatedDate":"2026-03-31","lat":36.62671822,"lng":127.43327635,"region":"충청북도","source":"safefood","safeFoodGrade":"적합","safeFoodCertNo":"HG260003000"},{"id":"safefood-chungbuk-HG260002999","name":"곱이곱다 복대지웰점","address":"충청북도 청주시 흥덕구 대신로73번길 81(1층 복대동)","jibunAddress":"","phone":"","foodType":"","mainFood":"","designatedDate":"2026-03-31","lat":36.62671822,"lng":127.43327635,"region":"충청북도","source":"safefood","safeFoodGrade":"적합","safeFoodCertNo":"HG260002999"},{"id":"safefood-chungbuk-HG260002855","name":"롯데리아 청주강내점","address":"충청북도 청주시 흥덕구 강내면 태성탑연로 451(1층)","jibunAddress":"","phone":"","foodType":"","mainFood":"","designatedDate":"2026-03-26","lat":36.62671822,"lng":127.43327635,"region":"충청북도","source":"safefood","safeFoodGrade":"적합","safeFoodCertNo":"HG260002855"},{"id":"safefood-chungbuk-HG260002627","name":"메가엠지씨커피 충북대캠퍼스점","address":"충청북도 청주시 서원구 충대로 1(1층 개신동, 충북대학교 서고)","jibunAddress":"","phone":"","foodType":"","mainFood":"","designatedDate":"2026-03-20","lat":36.608434883,"lng":127.449013669,"region":"충청북도","source":"safefood","safeFoodGrade":"적합","safeFoodCertNo":"HG260002627"},{"id":"safefood-chungbuk-HG260002626","name":"퐁당 동남지구점","address":"충청북도 청주시 상당구 중고개로141번길 13-21(2층 201-204호 용암동)","jibunAddress":"","phone":"","foodType":"","mainFood":"","designatedDate":"2026-03-20","lat":36.631839774,"lng":127.48782484,"region":"충청북도","source":"safefood","safeFoodGrade":"적합","safeFoodCertNo":"HG260002626"},{"id":"safefood-chungbuk-HG260002616","name":"불닭발땡초동대문엽기떡볶이 증평점","address":"충청북도 증평군 증평읍 중앙로 197","jibunAddress":"","phone":"","foodType":"","mainFood":"","designatedDate":"2026-03-20","lat":36.786374633,"lng":127.583602878,"region":"충청북도","source":"safefood","safeFoodGrade":"적합","safeFoodCertNo":"HG260002616"},{"id":"safefood-chungbuk-HG260002998","name":"스타벅스 충북진천DT점","address":"충청북도 진천군 진천읍 문화로 265","jibunAddress":"","phone":"","foodType":"","mainFood":"","designatedDate":"2026-03-31","lat":36.853453849,"lng":127.441641542,"region":"충청북도","source":"safefood","safeFoodGrade":"적합","safeFoodCertNo":"HG260002998"},{"id":"safefood-chungbuk-HG200005125","name":"옥천(부산방향)휴게소 인생설렁탕, 돈가스, 라면","address":"충청북도 옥천군 옥천읍 서대구일로 265-19","jibunAddress":"","phone":"","foodType":"","mainFood":"","designatedDate":"2024-08-03","lat":36.298231343,"lng":127.574447914,"region":"충청북도","source":"safefood","safeFoodGrade":"매우우수","safeFoodCertNo":"HG200005125"},{"id":"safefood-chungbuk-HG250635455","name":"옥천(부산방향)휴게소(스넥코너)","address":"충청북도 옥천군 옥천읍 서대구일로 265-19","jibunAddress":"","phone":"","foodType":"","mainFood":"","designatedDate":"2025-07-01","lat":36.298231343,"lng":127.574447914,"region":"충청북도","source":"safefood","safeFoodGrade":"매우우수","safeFoodCertNo":"HG250635455"},{"id":"safefood-chungbuk-HG210004224","name":"옥천(부산방향)휴게소 던킨도너츠","address":"충청북도 옥천군 옥천읍 서대구일로 265-19","jibunAddress":"","phone":"","foodType":"","mainFood":"","designatedDate":"2025-05-18","lat":36.298231343,"lng":127.574447914,"region":"충청북도","source":"safefood","safeFoodGrade":"매우우수","safeFoodCertNo":"HG210004224"},{"id":"safefood-chungbuk-HG210004215","name":"옥천(부산방향)휴게소(엔제리너스)","address":"충청북도 옥천군 옥천읍 서대구일로 265-19","jibunAddress":"","phone":"","foodType":"","mainFood":"","designatedDate":"2025-05-18","lat":36.298231343,"lng":127.574447914,"region":"충청북도","source":"safefood","safeFoodGrade":"매우우수","safeFoodCertNo":"HG210004215"},{"id":"safefood-chungbuk-HG200005140","name":"옥천(부산방향)휴게소(놀부부대찌개, 칠보국시)","address":"충청북도 옥천군 옥천읍 서대구일로 265-19","jibunAddress":"","phone":"","foodType":"","mainFood":"","designatedDate":"2024-08-03","lat":36.298231343,"lng":127.574447914,"region":"충청북도","source":"safefood","safeFoodGrade":"매우우수","safeFoodCertNo":"HG200005140"},{"id":"safefood-chungbuk-HG260003079","name":"메가엠지씨커피 옥천역점","address":"충청북도 옥천군 옥천읍 중앙로 5","jibunAddress":"","phone":"","foodType":"","mainFood":"","designatedDate":"2026-04-01","lat":36.298231343,"lng":127.574447914,"region":"충청북도","source":"safefood","safeFoodGrade":"적합","safeFoodCertNo":"HG260003079"},{"id":"safefood-chungbuk-HG260003077","name":"옥천(부산방향)휴게소 (우동)","address":"충청북도 옥천군 옥천읍 서대구일로 265-19(3호)","jibunAddress":"","phone":"","foodType":"","mainFood":"","designatedDate":"2026-04-01","lat":36.298231343,"lng":127.574447914,"region":"충청북도","source":"safefood","safeFoodGrade":"적합","safeFoodCertNo":"HG260003077"},{"id":"safefood-chungbuk-HG260003076","name":"옥천(부산방향)휴게소 제순식당","address":"충청북도 옥천군 옥천읍 서대구일로 265-19(4호)","jibunAddress":"","phone":"","foodType":"","mainFood":"","designatedDate":"2026-04-01","lat":36.298231343,"lng":127.574447914,"region":"충청북도","source":"safefood","safeFoodGrade":"적합","safeFoodCertNo":"HG260003076"},{"id":"safefood-chungbuk-HG260002567","name":"부산어묵","address":"충청북도 제천시 백운면 금봉로 365(클럽하우스동 3층 12호)","jibunAddress":"","phone":"","foodType":"","mainFood":"","designatedDate":"2026-03-19","lat":37.14564821,"lng":128.040900995,"region":"충청북도","source":"safefood","safeFoodGrade":"적합","safeFoodCertNo":"HG260002567"},{"id":"safefood-chungbuk-HG260002625","name":"스파라운지(버거스테이션)","address":"충청북도 제천시 백운면 금봉로 365(클럽하우스동 지하2층)","jibunAddress":"","phone":"","foodType":"","mainFood":"","designatedDate":"2026-03-20","lat":37.14564821,"lng":128.040900995,"region":"충청북도","source":"safefood","safeFoodGrade":"적합","safeFoodCertNo":"HG260002625"},{"id":"safefood-chungbuk-HG260002624","name":"BBQ치킨 포레스트리솜점","address":"충청북도 제천시 백운면 금봉로 365(클럽하우스동 3층 16호)","jibunAddress":"","phone":"","foodType":"","mainFood":"","designatedDate":"2026-03-20","lat":37.14564821,"lng":128.040900995,"region":"충청북도","source":"safefood","safeFoodGrade":"적합","safeFoodCertNo":"HG260002624"},{"id":"safefood-chungbuk-HG260002204","name":"푸라닭 충북영동점","address":"충청북도 영동군 영동읍 영산로 10","jibunAddress":"","phone":"","foodType":"","mainFood":"","designatedDate":"2026-03-10","lat":36.17219812,"lng":127.781870552,"region":"충청북도","source":"safefood","safeFoodGrade":"매우우수","safeFoodCertNo":"HG260002204"},{"id":"safefood-chungbuk-HG220001648","name":"맘스터치우암점","address":"충청북도 청주시 청원구 직지대로 889(우암동)","jibunAddress":"","phone":"","foodType":"","mainFood":"","designatedDate":"2026-03-17","lat":36.648042748,"lng":127.482584946,"region":"충청북도","source":"safefood","safeFoodGrade":"매우우수","safeFoodCertNo":"HG220001648"},{"id":"safefood-chungbuk-HG240000280","name":"홍이김치찜","address":"충청북도 청주시 흥덕구 내수동로45번길 5(1층 일부호 복대동)","jibunAddress":"","phone":"","foodType":"","mainFood":"","designatedDate":"2026-01-22","lat":36.62671822,"lng":127.43327635,"region":"충청북도","source":"safefood","safeFoodGrade":"매우우수","safeFoodCertNo":"HG240000280"},{"id":"safefood-chungbuk-HG240001764","name":"뚜레쥬르 충북금왕중앙","address":"충청북도 음성군 금왕읍 무극로 224(가동 1층)","jibunAddress":"","phone":"","foodType":"","mainFood":"","designatedDate":"2026-03-22","lat":36.984197628,"lng":127.600055259,"region":"충청북도","source":"safefood","safeFoodGrade":"매우우수","safeFoodCertNo":"HG240001764"},{"id":"safefood-chungbuk-HG260002471","name":"이삭토스트 용암점","address":"충청북도 청주시 상당구 월평로 226(1층 용암동)","jibunAddress":"","phone":"","foodType":"","mainFood":"","designatedDate":"2026-03-12","lat":36.631839774,"lng":127.48782484,"region":"충청북도","source":"safefood","safeFoodGrade":"매우우수","safeFoodCertNo":"HG260002471"},{"id":"safefood-chungbuk-HG260002142","name":"롯데리아 청주율량2지구점","address":"충청북도 청주시 청원구 주성로 269(1층 105호 주성동)","jibunAddress":"","phone":"","foodType":"","mainFood":"","designatedDate":"2026-03-10","lat":36.648042748,"lng":127.482584946,"region":"충청북도","source":"safefood","safeFoodGrade":"매우우수","safeFoodCertNo":"HG260002142"},{"id":"safefood-chungbuk-HG260002061","name":"그릭요거트정원","address":"충청북도 청주시 흥덕구 풍년로 16-25(디오스플라자 1층 106호 가경동)","jibunAddress":"","phone":"","foodType":"","mainFood":"","designatedDate":"2026-03-10","lat":36.62671822,"lng":127.43327635,"region":"충청북도","source":"safefood","safeFoodGrade":"매우우수","safeFoodCertNo":"HG260002061"},{"id":"safefood-chungbuk-HG260002470","name":"아라치치킨 용암금천점","address":"충청북도 청주시 상당구 원봉로 78(1층 용암동)","jibunAddress":"","phone":"","foodType":"","mainFood":"","designatedDate":"2026-03-12","lat":36.631839774,"lng":127.48782484,"region":"충청북도","source":"safefood","safeFoodGrade":"매우우수","safeFoodCertNo":"HG260002470"},{"id":"safefood-chungbuk-HG260002057","name":"메가엠지씨커피 오송서한이다음점","address":"충청북도 청주시 흥덕구 오송읍 오송생명14로 217(근린생활시설동 1-101호 오송역 서한이다음 노블리스)","jibunAddress":"","phone":"","foodType":"","mainFood":"","designatedDate":"2026-03-10","lat":36.62671822,"lng":127.43327635,"region":"충청북도","source":"safefood","safeFoodGrade":"매우우수","safeFoodCertNo":"HG260002057"},{"id":"safefood-chungbuk-HG260002040","name":"빽다방 청주복대대농점","address":"충청북도 청주시 흥덕구 대농로 68(1층 101호 복대동)","jibunAddress":"","phone":"","foodType":"","mainFood":"","designatedDate":"2026-03-10","lat":36.62671822,"lng":127.43327635,"region":"충청북도","source":"safefood","safeFoodGrade":"매우우수","safeFoodCertNo":"HG260002040"},{"id":"safefood-chungbuk-HG200000901","name":"양식당","address":"충청북도 청주시 흥덕구 옥산면 경부고속도로 318(A동 1층 청주상휴게소)","jibunAddress":"","phone":"","foodType":"","mainFood":"","designatedDate":"2026-03-25","lat":36.62671822,"lng":127.43327635,"region":"충청북도","source":"safefood","safeFoodGrade":"매우우수","safeFoodCertNo":"HG200000901"},{"id":"safefood-chungbuk-HG200000920","name":"우동코너","address":"충청북도 청주시 흥덕구 옥산면 경부고속도로 318(A동 1층 청주상휴게소)","jibunAddress":"","phone":"","foodType":"","mainFood":"","designatedDate":"2026-03-25","lat":36.62671822,"lng":127.43327635,"region":"충청북도","source":"safefood","safeFoodGrade":"매우우수","safeFoodCertNo":"HG200000920"},{"id":"safefood-chungbuk-HG200000918","name":"나주곰탕","address":"충청북도 청주시 흥덕구 옥산면 경부고속도로 318(청주휴게소 1층)","jibunAddress":"","phone":"","foodType":"","mainFood":"","designatedDate":"2026-03-25","lat":36.62671822,"lng":127.43327635,"region":"충청북도","source":"safefood","safeFoodGrade":"매우우수","safeFoodCertNo":"HG200000918"},{"id":"safefood-chungbuk-HG200000919","name":"라면코너","address":"충청북도 청주시 흥덕구 옥산면 경부고속도로 318(A동 1층 청주상휴게소)","jibunAddress":"","phone":"","foodType":"","mainFood":"","designatedDate":"2026-03-25","lat":36.62671822,"lng":127.43327635,"region":"충청북도","source":"safefood","safeFoodGrade":"매우우수","safeFoodCertNo":"HG200000919"},{"id":"safefood-chungbuk-HG240001547","name":"아로카(ALOCA)","address":"충청북도 단양군 단양읍 도전4길 29","jibunAddress":"","phone":"","foodType":"","mainFood":"","designatedDate":"2026-03-18","lat":36.988545608,"lng":128.382794271,"region":"충청북도","source":"safefood","safeFoodGrade":"매우우수","safeFoodCertNo":"HG240001547"},{"id":"safefood-chungbuk-HG210006887","name":"조리나코너","address":"충청북도 청주시 흥덕구 풍산로 15(가경동,지하1층)","jibunAddress":"","phone":"","foodType":"","mainFood":"","designatedDate":"2025-07-22","lat":36.62671822,"lng":127.43327635,"region":"충청북도","source":"safefood","safeFoodGrade":"매우우수","safeFoodCertNo":"HG210006887"},{"id":"safefood-chungbuk-HG210006879","name":"조리가코너","address":"충청북도 청주시 흥덕구 풍산로 15(가경동,지하1층)","jibunAddress":"","phone":"","foodType":"","mainFood":"","designatedDate":"2025-07-22","lat":36.62671822,"lng":127.43327635,"region":"충청북도","source":"safefood","safeFoodGrade":"매우우수","safeFoodCertNo":"HG210006879"},{"id":"safefood-chungbuk-HG240631313","name":"로켓피자","address":"충청북도 청주시 흥덕구 진재로 38(양지빌딩 102호 복대동)","jibunAddress":"","phone":"","foodType":"","mainFood":"","designatedDate":"2024-11-25","lat":36.62671822,"lng":127.43327635,"region":"충청북도","source":"safefood","safeFoodGrade":"좋음","safeFoodCertNo":"HG240631313"},{"id":"safefood-chungbuk-HG260002024","name":"이디야커피","address":"충청북도 청주시 청원구 내수읍 내수로 609-1","jibunAddress":"","phone":"","foodType":"","mainFood":"","designatedDate":"2026-03-10","lat":36.648042748,"lng":127.482584946,"region":"충청북도","source":"safefood","safeFoodGrade":"매우우수","safeFoodCertNo":"HG260002024"},{"id":"safefood-chungbuk-HG260001641","name":"소보양본가","address":"충청북도 청주시 청원구 주성로 109(1층 사천동)","jibunAddress":"","phone":"","foodType":"","mainFood":"","designatedDate":"2026-02-23","lat":36.648042748,"lng":127.482584946,"region":"충청북도","source":"safefood","safeFoodGrade":"좋음","safeFoodCertNo":"HG260001641"},{"id":"safefood-chungbuk-HG200005898","name":"(주)대청산업개발 괴산(양평)휴게소(로띠번)","address":"충청북도 괴산군 장연면 중부내륙고속도로 204","jibunAddress":"","phone":"","foodType":"","mainFood":"","designatedDate":"2024-08-26","lat":36.83181832,"lng":127.960203168,"region":"충청북도","source":"safefood","safeFoodGrade":"매우우수","safeFoodCertNo":"HG200005898"},{"id":"safefood-chungbuk-HG260002001","name":"명인만두 제천포레스트리솜점","address":"충청북도 제천시 백운면 금봉로 365(리솜포레스트 클럽하우스동 1층 24호)","jibunAddress":"","phone":"","foodType":"","mainFood":"","designatedDate":"2026-03-10","lat":37.14564821,"lng":128.040900995,"region":"충청북도","source":"safefood","safeFoodGrade":"매우우수","safeFoodCertNo":"HG260002001"},{"id":"safefood-chungbuk-HG260000259","name":"메가엠지씨커피 오송생명과학단지점","address":"충청북도 청주시 흥덕구 오송읍 오송생명3로 31(두산위브센티움 판매시설 1층 106호)","jibunAddress":"","phone":"","foodType":"","mainFood":"","designatedDate":"2026-01-13","lat":36.62671822,"lng":127.43327635,"region":"충청북도","source":"safefood","safeFoodGrade":"매우우수","safeFoodCertNo":"HG260000259"},{"id":"safefood-chungbuk-HG240001705","name":"보끔당 청주 강서점","address":"충청북도 청주시 흥덕구 강서로 121(102호 강서동)","jibunAddress":"","phone":"","foodType":"","mainFood":"","designatedDate":"2026-03-21","lat":36.62671822,"lng":127.43327635,"region":"충청북도","source":"safefood","safeFoodGrade":"매우우수","safeFoodCertNo":"HG240001705"},{"id":"safefood-chungbuk-HG240001132","name":"이디야커피 복대사거리점","address":"충청북도 청주시 흥덕구 복대로 180(1층 복대동)","jibunAddress":"","phone":"","foodType":"","mainFood":"","designatedDate":"2026-03-04","lat":36.62671822,"lng":127.43327635,"region":"충청북도","source":"safefood","safeFoodGrade":"매우우수","safeFoodCertNo":"HG240001132"},{"id":"safefood-chungbuk-HG240001143","name":"호식이두마리치킨 청주수곡점","address":"충청북도 청주시 서원구 매봉로76번길 52(1층 101호 수곡동)","jibunAddress":"","phone":"","foodType":"","mainFood":"","designatedDate":"2026-03-04","lat":36.608434883,"lng":127.449013669,"region":"충청북도","source":"safefood","safeFoodGrade":"매우우수","safeFoodCertNo":"HG240001143"},{"id":"safefood-chungbuk-HG260001521","name":"계룡산업(주)죽암하휴게소(빵빵베이커리)","address":"충청북도 청주시 서원구 현도면 경부고속도로 289(죽암휴게소 부산방향 1층)","jibunAddress":"","phone":"","foodType":"","mainFood":"","designatedDate":"2026-02-19","lat":36.608434883,"lng":127.449013669,"region":"충청북도","source":"safefood","safeFoodGrade":"매우우수","safeFoodCertNo":"HG260001521"},{"id":"safefood-chungbuk-HG260001349","name":"노브랜드버거 성안점","address":"충청북도 청주시 상당구 사직대로 371(1층 101,102호 북문로2가)","jibunAddress":"","phone":"","foodType":"","mainFood":"","designatedDate":"2026-02-10","lat":36.631839774,"lng":127.48782484,"region":"충청북도","source":"safefood","safeFoodGrade":"매우우수","safeFoodCertNo":"HG260001349"},{"id":"safefood-chungbuk-HG260001348","name":"스타벅스 청주분평DT","address":"충청북도 청주시 서원구 1순환로 1154(1-2층 분평동)","jibunAddress":"","phone":"","foodType":"","mainFood":"","designatedDate":"2026-02-10","lat":36.608434883,"lng":127.449013669,"region":"충청북도","source":"safefood","safeFoodGrade":"매우우수","safeFoodCertNo":"HG260001348"},{"id":"safefood-chungbuk-HG260000258","name":"파리바게뜨 서현홍골지구점","address":"충청북도 청주시 흥덕구 서현로 60(117, 118호 가경동)","jibunAddress":"","phone":"","foodType":"","mainFood":"","designatedDate":"2026-01-13","lat":36.62671822,"lng":127.43327635,"region":"충청북도","source":"safefood","safeFoodGrade":"매우우수","safeFoodCertNo":"HG260000258"},{"id":"safefood-chungbuk-HG220001135","name":"계룡산업(주)죽암하휴게소(우동)","address":"충청북도 청주시 서원구 현도면 경부고속도로 289(1층)","jibunAddress":"","phone":"","foodType":"","mainFood":"","designatedDate":"2026-02-25","lat":36.608434883,"lng":127.449013669,"region":"충청북도","source":"safefood","safeFoodGrade":"매우우수","safeFoodCertNo":"HG220001135"},{"id":"safefood-chungbuk-HG220001144","name":"계룡산업(주)죽암하휴게소(면날며칠)","address":"충청북도 청주시 서원구 현도면 경부고속도로 289(1층)","jibunAddress":"","phone":"","foodType":"","mainFood":"","designatedDate":"2026-02-25","lat":36.608434883,"lng":127.449013669,"region":"충청북도","source":"safefood","safeFoodGrade":"매우우수","safeFoodCertNo":"HG220001144"},{"id":"safefood-chungbuk-HG220001124","name":"계룡산업(주)죽암하휴게소(죽암왕갈비탕,산뜰애,기사식당)","address":"충청북도 청주시 서원구 현도면 경부고속도로 289(1층)","jibunAddress":"","phone":"","foodType":"","mainFood":"","designatedDate":"2026-02-25","lat":36.608434883,"lng":127.449013669,"region":"충청북도","source":"safefood","safeFoodGrade":"매우우수","safeFoodCertNo":"HG220001124"},{"id":"safefood-chungbuk-HG260001513","name":"60계치킨 충북음성점","address":"충청북도 음성군 음성읍 중앙로50번길 14(104,105,106호)","jibunAddress":"","phone":"","foodType":"","mainFood":"","designatedDate":"2026-02-19","lat":36.936082831,"lng":127.692100185,"region":"충청북도","source":"safefood","safeFoodGrade":"우수","safeFoodCertNo":"HG260001513"},{"id":"safefood-chungbuk-HG260001341","name":"파스쿠찌 용암점","address":"충청북도 청주시 상당구 1순환로1253번길 42(1층 용암동)","jibunAddress":"","phone":"","foodType":"","mainFood":"","designatedDate":"2026-02-10","lat":36.631839774,"lng":127.48782484,"region":"충청북도","source":"safefood","safeFoodGrade":"매우우수","safeFoodCertNo":"HG260001341"},{"id":"safefood-chungbuk-HG260000801","name":"썬데이브리즈","address":"충청북도 제천시 백운면 금봉로 365(클럽하우스동 2층)","jibunAddress":"","phone":"","foodType":"","mainFood":"","designatedDate":"2026-01-27","lat":37.14564821,"lng":128.040900995,"region":"충청북도","source":"safefood","safeFoodGrade":"우수","safeFoodCertNo":"HG260000801"},{"id":"safefood-chungbuk-HG260001510","name":"교촌치킨 장호원 감곡점","address":"충청북도 음성군 감곡면 장감로 154","jibunAddress":"","phone":"","foodType":"","mainFood":"","designatedDate":"2026-02-19","lat":37.075367783,"lng":127.616042662,"region":"충청북도","source":"safefood","safeFoodGrade":"매우우수","safeFoodCertNo":"HG260001510"},{"id":"safefood-chungbuk-HG260000745","name":"파스쿠찌사천점","address":"충청북도 청주시 청원구 사뜸로 95(1층 사천동)","jibunAddress":"","phone":"","foodType":"","mainFood":"","designatedDate":"2026-01-26","lat":36.648042748,"lng":127.482584946,"region":"충청북도","source":"safefood","safeFoodGrade":"매우우수","safeFoodCertNo":"HG260000745"},{"id":"safefood-chungbuk-HG220001087","name":"배스킨라빈스 충북덕산점","address":"충청북도 진천군 덕산읍 시가로 4(108, 109호)","jibunAddress":"","phone":"","foodType":"","mainFood":"","designatedDate":"2026-02-24","lat":36.91594944,"lng":127.51498603,"region":"충청북도","source":"safefood","safeFoodGrade":"매우우수","safeFoodCertNo":"HG220001087"},{"id":"safefood-chungbuk-HG260000744","name":"달리는커피 청주비하복대점","address":"충청북도 청주시 흥덕구 2순환로 1106(302동 지하3층 B115호 비하동, 서청주파크자이)","jibunAddress":"","phone":"","foodType":"","mainFood":"","designatedDate":"2026-01-26","lat":36.62671822,"lng":127.43327635,"region":"충청북도","source":"safefood","safeFoodGrade":"매우우수","safeFoodCertNo":"HG260000744"},{"id":"safefood-chungbuk-HG260000256","name":"인브스키친 청주점","address":"충청북도 청주시 상당구 동남로83번길 2(1층 용암동)","jibunAddress":"","phone":"","foodType":"","mainFood":"","designatedDate":"2026-01-13","lat":36.631839774,"lng":127.48782484,"region":"충청북도","source":"safefood","safeFoodGrade":"매우우수","safeFoodCertNo":"HG260000256"},{"id":"safefood-chungbuk-HG220001309","name":"60계 충북오창과학단지점","address":"충청북도 청주시 청원구 오창읍 주성1길 9(산토리니빌딩 1층 103호)","jibunAddress":"","phone":"","foodType":"","mainFood":"","designatedDate":"2026-03-07","lat":36.648042748,"lng":127.482584946,"region":"충청북도","source":"safefood","safeFoodGrade":"매우우수","safeFoodCertNo":"HG220001309"},{"id":"safefood-chungbuk-HG260001328","name":"가득담","address":"충청북도 청주시 상당구 남사로 95(1층 서문동)","jibunAddress":"","phone":"","foodType":"","mainFood":"","designatedDate":"2026-02-10","lat":36.631839774,"lng":127.48782484,"region":"충청북도","source":"safefood","safeFoodGrade":"매우우수","safeFoodCertNo":"HG260001328"},{"id":"safefood-chungbuk-HG260001568","name":"러브레이크(love lake)","address":"충청북도 청주시 상당구 문의면 문의시내로 3-17(1~3층)","jibunAddress":"","phone":"","foodType":"","mainFood":"","designatedDate":"2026-02-20","lat":36.631839774,"lng":127.48782484,"region":"충청북도","source":"safefood","safeFoodGrade":"매우우수","safeFoodCertNo":"HG260001568"},{"id":"safefood-chungbuk-HG240001129","name":"배스킨라빈스 청주강내점","address":"충청북도 청주시 흥덕구 강내면 가로수로 532(1층)","jibunAddress":"","phone":"","foodType":"","mainFood":"","designatedDate":"2026-03-04","lat":36.62671822,"lng":127.43327635,"region":"충청북도","source":"safefood","safeFoodGrade":"매우우수","safeFoodCertNo":"HG240001129"},{"id":"safefood-chungbuk-HG240000897","name":"청풍명월이천쌀밥집","address":"충청북도 제천시 용두천로 37(명동)","jibunAddress":"","phone":"","foodType":"","mainFood":"","designatedDate":"2026-02-16","lat":37.133388063,"lng":128.20647087,"region":"충청북도","source":"safefood","safeFoodGrade":"매우우수","safeFoodCertNo":"HG240000897"},{"id":"safefood-chungbuk-HG260000740","name":"장날순대국밥 가경터미널점","address":"충청북도 청주시 흥덕구 풍산로 27(1층 일부호 가경동)","jibunAddress":"","phone":"","foodType":"","mainFood":"","designatedDate":"2026-01-26","lat":36.62671822,"lng":127.43327635,"region":"충청북도","source":"safefood","safeFoodGrade":"매우우수","safeFoodCertNo":"HG260000740"},{"id":"safefood-chungbuk-HG260000963","name":"옥산장날순대(오송직영점)","address":"충청북도 청주시 흥덕구 오송읍 오송생명3로 135(1층)","jibunAddress":"","phone":"","foodType":"","mainFood":"","designatedDate":"2026-01-29","lat":36.62671822,"lng":127.43327635,"region":"충청북도","source":"safefood","safeFoodGrade":"매우우수","safeFoodCertNo":"HG260000963"},{"id":"safefood-chungbuk-HG260001319","name":"불닭발 땡초 동대문엽기떡볶이 오창각리점","address":"충청북도 청주시 청원구 오창읍 과학산업5로 118-2(103호)","jibunAddress":"","phone":"","foodType":"","mainFood":"","designatedDate":"2026-02-10","lat":36.648042748,"lng":127.482584946,"region":"충청북도","source":"safefood","safeFoodGrade":"매우우수","safeFoodCertNo":"HG260001319"},{"id":"safefood-chungbuk-HG260000962","name":"컴포즈커피 청주강내점","address":"충청북도 청주시 흥덕구 강내면 가로수로 538(1층 일부호)","jibunAddress":"","phone":"","foodType":"","mainFood":"","designatedDate":"2026-01-29","lat":36.62671822,"lng":127.43327635,"region":"충청북도","source":"safefood","safeFoodGrade":"매우우수","safeFoodCertNo":"HG260000962"},{"id":"safefood-chungbuk-HG260000200","name":"던킨","address":"충청북도 청주시 흥덕구 가경로 9-9(그린프라자 105호 가경동)","jibunAddress":"","phone":"","foodType":"","mainFood":"","designatedDate":"2026-01-12","lat":36.62671822,"lng":127.43327635,"region":"충청북도","source":"safefood","safeFoodGrade":"매우우수","safeFoodCertNo":"HG260000200"},{"id":"safefood-chungbuk-HG260000254","name":"한옥정원","address":"충청북도 청주시 상당구 중고개로141번길 22-23(1층 용암동)","jibunAddress":"","phone":"","foodType":"","mainFood":"","designatedDate":"2026-01-13","lat":36.631839774,"lng":127.48782484,"region":"충청북도","source":"safefood","safeFoodGrade":"매우우수","safeFoodCertNo":"HG260000254"},{"id":"safefood-chungbuk-HG260000065","name":"하이오커피 충북혁신점","address":"충청북도 진천군 덕산읍 연미1길 25(105호)","jibunAddress":"","phone":"","foodType":"","mainFood":"","designatedDate":"2026-01-07","lat":36.91594944,"lng":127.51498603,"region":"충청북도","source":"safefood","safeFoodGrade":"매우우수","safeFoodCertNo":"HG260000065"},{"id":"safefood-chungbuk-HG260000199","name":"파리바게뜨 제이마트점","address":"충청북도 옥천군 옥천읍 관성로 5","jibunAddress":"","phone":"","foodType":"","mainFood":"","designatedDate":"2026-01-12","lat":36.298231343,"lng":127.574447914,"region":"충청북도","source":"safefood","safeFoodGrade":"우수","safeFoodCertNo":"HG260000199"},{"id":"safefood-chungbuk-HG260001253","name":"파리바게뜨연수점","address":"충청북도 충주시 번영대로 119(연수동)","jibunAddress":"","phone":"","foodType":"","mainFood":"","designatedDate":"2026-02-09","lat":36.987110394,"lng":127.919614214,"region":"충청북도","source":"safefood","safeFoodGrade":"매우우수","safeFoodCertNo":"HG260001253"},{"id":"safefood-chungbuk-HG240000687","name":"교촌치킨연수점","address":"충청북도 충주시 갱고개로 154-1(1층 연수동)","jibunAddress":"","phone":"","foodType":"","mainFood":"","designatedDate":"2026-02-05","lat":36.983495037,"lng":127.939243111,"region":"충청북도","source":"safefood","safeFoodGrade":"매우우수","safeFoodCertNo":"HG240000687"},{"id":"safefood-chungbuk-HG260001243","name":"옥된장청주오창점","address":"충청북도 청주시 청원구 오창읍 중심상업로 52-5(1층 101호)","jibunAddress":"","phone":"","foodType":"","mainFood":"","designatedDate":"2026-02-09","lat":36.648042748,"lng":127.482584946,"region":"충청북도","source":"safefood","safeFoodGrade":"우수","safeFoodCertNo":"HG260001243"},{"id":"safefood-chungbuk-HG260001237","name":"백딤채","address":"충청북도 청주시 청원구 오창읍 중심상업로 32-13(엔젤프리존 1층 115호)","jibunAddress":"","phone":"","foodType":"","mainFood":"","designatedDate":"2026-02-09","lat":36.648042748,"lng":127.482584946,"region":"충청북도","source":"safefood","safeFoodGrade":"매우우수","safeFoodCertNo":"HG260001237"},{"id":"safefood-chungbuk-HG240001744","name":"버거킹 청주분평DT점","address":"충청북도 청주시 서원구 청남로 1918(1-2층 미평동)","jibunAddress":"","phone":"","foodType":"","mainFood":"","designatedDate":"2026-03-22","lat":36.608434883,"lng":127.449013669,"region":"충청북도","source":"safefood","safeFoodGrade":"매우우수","safeFoodCertNo":"HG240001744"},{"id":"safefood-chungbuk-HG260000405","name":"도미노피자서충주신도시점","address":"충청북도 충주시 중앙탑면 기업도시로 189(120상가동 1층 105,106호 미진이지비아)","jibunAddress":"","phone":"","foodType":"","mainFood":"","designatedDate":"2026-01-16","lat":37.018103937,"lng":127.864901052,"region":"충청북도","source":"safefood","safeFoodGrade":"매우우수","safeFoodCertNo":"HG260000405"},{"id":"safefood-chungbuk-HG220001071","name":"60계 충북광혜원점","address":"충청북도 진천군 광혜원면 화랑5길 17-1(1층)","jibunAddress":"","phone":"","foodType":"","mainFood":"","designatedDate":"2026-02-24","lat":36.987555129,"lng":127.429795431,"region":"충청북도","source":"safefood","safeFoodGrade":"매우우수","safeFoodCertNo":"HG220001071"},{"id":"safefood-chungbuk-HG260000952","name":"메가엠지씨커피 오송바이오폴리스2단지점","address":"충청북도 청주시 흥덕구 오송읍 오송생명11로 121(1층 102호)","jibunAddress":"","phone":"","foodType":"","mainFood":"","designatedDate":"2026-01-29","lat":36.62671822,"lng":127.43327635,"region":"충청북도","source":"safefood","safeFoodGrade":"매우우수","safeFoodCertNo":"HG260000952"},{"id":"safefood-chungbuk-HG260000196","name":"자담치킨&호프cafe","address":"충청북도 옥천군 이원면 신흥길 14","jibunAddress":"","phone":"","foodType":"","mainFood":"","designatedDate":"2026-01-12","lat":36.244722913,"lng":127.62644882,"region":"충청북도","source":"safefood","safeFoodGrade":"좋음","safeFoodCertNo":"HG260000196"},{"id":"safefood-chungbuk-HG260000730","name":"파스쿠찌 청주테크노폴리스","address":"충청북도 청주시 흥덕구 송화로166번길 20(101, 201호 송절동)","jibunAddress":"","phone":"","foodType":"","mainFood":"","designatedDate":"2026-01-26","lat":36.62671822,"lng":127.43327635,"region":"충청북도","source":"safefood","safeFoodGrade":"매우우수","safeFoodCertNo":"HG260000730"},{"id":"safefood-chungbuk-HG260000727","name":"움버거앤윙스 청주가경점","address":"충청북도 청주시 흥덕구 서현로 32(가경 자이 프라자 1층 103호 가경동)","jibunAddress":"","phone":"","foodType":"","mainFood":"","designatedDate":"2026-01-26","lat":36.62671822,"lng":127.43327635,"region":"충청북도","source":"safefood","safeFoodGrade":"매우우수","safeFoodCertNo":"HG260000727"},{"id":"safefood-chungbuk-HG260000945","name":"노브랜드버거 충북혁신도시점","address":"충청북도 진천군 덕산읍 대하로 133(105,106호)","jibunAddress":"","phone":"","foodType":"","mainFood":"","designatedDate":"2026-01-29","lat":36.91594944,"lng":127.51498603,"region":"충청북도","source":"safefood","safeFoodGrade":"매우우수","safeFoodCertNo":"HG260000945"},{"id":"safefood-chungbuk-HG260000725","name":"빽다방(청주율량9단지점)","address":"충청북도 청주시 청원구 율중로79번길 8(1층 율량동)","jibunAddress":"","phone":"","foodType":"","mainFood":"","designatedDate":"2026-01-26","lat":36.648042748,"lng":127.482584946,"region":"충청북도","source":"safefood","safeFoodGrade":"매우우수","safeFoodCertNo":"HG260000725"},{"id":"safefood-chungbuk-HG260000723","name":"피클피자 복대점","address":"충청북도 청주시 흥덕구 진재로47번길 18-10(1층 102호 복대동)","jibunAddress":"","phone":"","foodType":"","mainFood":"","designatedDate":"2026-01-26","lat":36.62671822,"lng":127.43327635,"region":"충청북도","source":"safefood","safeFoodGrade":"매우우수","safeFoodCertNo":"HG260000723"},{"id":"safefood-chungbuk-HG260000722","name":"이삭토스트 서원대점","address":"충청북도 청주시 서원구 서원남로 47-2(모충동,1층)","jibunAddress":"","phone":"","foodType":"","mainFood":"","designatedDate":"2026-01-26","lat":36.608434883,"lng":127.449013669,"region":"충청북도","source":"safefood","safeFoodGrade":"매우우수","safeFoodCertNo":"HG260000722"},{"id":"safefood-chungbuk-HG240000464","name":"처갓집 양념치킨 용암점","address":"충청북도 청주시 상당구 월평로 209(용암형석아파트 상가2동 101-5호 용암동)","jibunAddress":"","phone":"","foodType":"","mainFood":"","designatedDate":"2026-01-26","lat":36.631839774,"lng":127.48782484,"region":"충청북도","source":"safefood","safeFoodGrade":"매우우수","safeFoodCertNo":"HG240000464"},{"id":"safefood-chungbuk-HG240000276","name":"글로스터호텔","address":"충청북도 청주시 흥덕구 대농로 47-2(3층 복대동)","jibunAddress":"","phone":"","foodType":"","mainFood":"","designatedDate":"2026-01-22","lat":36.62671822,"lng":127.43327635,"region":"충청북도","source":"safefood","safeFoodGrade":"매우우수","safeFoodCertNo":"HG240000276"},{"id":"safefood-chungbuk-HG240000876","name":"투썸플레이스(금왕점)","address":"충청북도 음성군 금왕읍 무극로 216","jibunAddress":"","phone":"","foodType":"","mainFood":"","designatedDate":"2026-02-15","lat":36.984197628,"lng":127.600055259,"region":"충청북도","source":"safefood","safeFoodGrade":"매우우수","safeFoodCertNo":"HG240000876"},{"id":"safefood-chungbuk-HG260000928","name":"파스쿠찌 충북영동점","address":"충청북도 영동군 영동읍 난계로 1110","jibunAddress":"","phone":"","foodType":"","mainFood":"","designatedDate":"2026-01-29","lat":36.17219812,"lng":127.781870552,"region":"충청북도","source":"safefood","safeFoodGrade":"우수","safeFoodCertNo":"HG260000928"},{"id":"safefood-chungbuk-HG240000286","name":"(주)인앤아웃충주(창원)휴게소사과빵","address":"충청북도 충주시 중앙탑면 중부내륙고속도로 231(충주휴게소마산방향)","jibunAddress":"","phone":"","foodType":"","mainFood":"","designatedDate":"2026-01-22","lat":37.018103937,"lng":127.864901052,"region":"충청북도","source":"safefood","safeFoodGrade":"매우우수","safeFoodCertNo":"HG240000286"},{"id":"safefood-chungbuk-HG240001133","name":"명랑시대핫도그성안길점","address":"충청북도 청주시 상당구 성안로 13(1002호 북문로1가, 씨유멀티플렉스)","jibunAddress":"","phone":"","foodType":"","mainFood":"","designatedDate":"2026-03-04","lat":36.631839774,"lng":127.48782484,"region":"충청북도","source":"safefood","safeFoodGrade":"매우우수","safeFoodCertNo":"HG240001133"},{"id":"safefood-chungbuk-HG250642963","name":"메가엠지씨커피 오창읍행정복지센터점","address":"충청북도 청주시 청원구 오창읍 두릉유리로 1133-1(1층)","jibunAddress":"","phone":"","foodType":"","mainFood":"","designatedDate":"2025-12-15","lat":36.648042748,"lng":127.482584946,"region":"충청북도","source":"safefood","safeFoodGrade":"매우우수","safeFoodCertNo":"HG250642963"},{"id":"safefood-chungbuk-HG250642846","name":"메가엠지씨커피 서청주파크자이점","address":"충청북도 청주시 흥덕구 청향로5번길 36(1층 일부호 비하동)","jibunAddress":"","phone":"","foodType":"","mainFood":"","designatedDate":"2025-12-11","lat":36.62671822,"lng":127.43327635,"region":"충청북도","source":"safefood","safeFoodGrade":"매우우수","safeFoodCertNo":"HG250642846"},{"id":"safefood-chungbuk-HG240000352","name":"배스킨라빈스 충북음성점","address":"충청북도 음성군 음성읍 수정로 28(1층)","jibunAddress":"","phone":"","foodType":"","mainFood":"","designatedDate":"2026-01-22","lat":36.936082831,"lng":127.692100185,"region":"충청북도","source":"safefood","safeFoodGrade":"매우우수","safeFoodCertNo":"HG240000352"},{"id":"safefood-chungbuk-HG260000700","name":"쿼드커피 모충 한화포레나점","address":"충청북도 청주시 서원구 매봉로 131(1층 129호 모충동, 한화포레나 청주매봉)","jibunAddress":"","phone":"","foodType":"","mainFood":"","designatedDate":"2026-01-26","lat":36.608434883,"lng":127.449013669,"region":"충청북도","source":"safefood","safeFoodGrade":"매우우수","safeFoodCertNo":"HG260000700"},{"id":"safefood-chungbuk-HG260000098","name":"파리바게뜨테크노폴리스점","address":"충청북도 청주시 흥덕구 송화로 182(1층 송절동)","jibunAddress":"","phone":"","foodType":"","mainFood":"","designatedDate":"2026-01-08","lat":36.62671822,"lng":127.43327635,"region":"충청북도","source":"safefood","safeFoodGrade":"매우우수","safeFoodCertNo":"HG260000098"},{"id":"safefood-chungbuk-HG260000697","name":"파리바게뜨사직캐슬점","address":"충청북도 청주시 서원구 예체로 55(사직동,3공구 상가 114, 115호)","jibunAddress":"","phone":"","foodType":"","mainFood":"","designatedDate":"2026-01-26","lat":36.608434883,"lng":127.449013669,"region":"충청북도","source":"safefood","safeFoodGrade":"우수","safeFoodCertNo":"HG260000697"},{"id":"safefood-chungbuk-HG260000240","name":"파리바게뜨 금천부영점","address":"충청북도 청주시 상당구 금천동 312 장자마을 부영아파트 상가동 103,104호","jibunAddress":"","phone":"","foodType":"","mainFood":"","designatedDate":"2026-01-13","lat":36.631839774,"lng":127.48782484,"region":"충청북도","source":"safefood","safeFoodGrade":"매우우수","safeFoodCertNo":"HG260000240"},{"id":"safefood-chungbuk-HG260000182","name":"파리바게뜨공단오거리점","address":"충청북도 청주시 흥덕구 사직대로 10(1층 복대동)","jibunAddress":"","phone":"","foodType":"","mainFood":"","designatedDate":"2026-01-12","lat":36.62671822,"lng":127.43327635,"region":"충청북도","source":"safefood","safeFoodGrade":"우수","safeFoodCertNo":"HG260000182"},{"id":"safefood-chungbuk-HG240000391","name":"이디야커피 제천그네공원점","address":"충청북도 제천시 청전대로 81(1층 청전동)","jibunAddress":"","phone":"","foodType":"","mainFood":"","designatedDate":"2026-01-25","lat":37.148687051,"lng":128.208145312,"region":"충청북도","source":"safefood","safeFoodGrade":"매우우수","safeFoodCertNo":"HG240000391"},{"id":"safefood-chungbuk-HG250642948","name":"이디야커피 청주개신중앙점","address":"충청북도 청주시 서원구 모충로9번길 3(1층, 2층 개신동)","jibunAddress":"","phone":"","foodType":"","mainFood":"","designatedDate":"2025-12-15","lat":36.608434883,"lng":127.449013669,"region":"충청북도","source":"safefood","safeFoodGrade":"매우우수","safeFoodCertNo":"HG250642948"},{"id":"safefood-chungbuk-HG250642713","name":"파리바게뜨 진천우미린","address":"충청북도 진천군 덕산읍 대하로 151","jibunAddress":"","phone":"","foodType":"","mainFood":"","designatedDate":"2025-12-09","lat":36.91594944,"lng":127.51498603,"region":"충청북도","source":"safefood","safeFoodGrade":"매우우수","safeFoodCertNo":"HG250642713"},{"id":"safefood-chungbuk-HG260000172","name":"파리바게뜨","address":"충청북도 청주시 흥덕구 가경로161번길 2(가경동)","jibunAddress":"","phone":"","foodType":"","mainFood":"","designatedDate":"2026-01-12","lat":36.62671822,"lng":127.43327635,"region":"충청북도","source":"safefood","safeFoodGrade":"매우우수","safeFoodCertNo":"HG260000172"},{"id":"safefood-chungbuk-HG260000092","name":"강촌설렁탕","address":"충청북도 청주시 흥덕구 1순환로 579(1층 봉명동)","jibunAddress":"","phone":"","foodType":"","mainFood":"","designatedDate":"2026-01-08","lat":36.62671822,"lng":127.43327635,"region":"충청북도","source":"safefood","safeFoodGrade":"매우우수","safeFoodCertNo":"HG260000092"},{"id":"safefood-chungbuk-HG250642710","name":"파리바게트신백점","address":"충청북도 제천시 의병대로 242(신백동)","jibunAddress":"","phone":"","foodType":"","mainFood":"","designatedDate":"2025-12-09","lat":37.131975708,"lng":128.227585826,"region":"충청북도","source":"safefood","safeFoodGrade":"매우우수","safeFoodCertNo":"HG250642710"},{"id":"safefood-chungbuk-HG260000482","name":"파리바게뜨","address":"충청북도 단양군 단양읍 삼봉로 298","jibunAddress":"","phone":"","foodType":"","mainFood":"","designatedDate":"2026-01-20","lat":36.988545608,"lng":128.382794271,"region":"충청북도","source":"safefood","safeFoodGrade":"매우우수","safeFoodCertNo":"HG260000482"},{"id":"safefood-chungbuk-HG260000480","name":"파리바게뜨단양매포점","address":"충청북도 단양군 매포읍 평동로 138","jibunAddress":"","phone":"","foodType":"","mainFood":"","designatedDate":"2026-01-20","lat":37.034677718,"lng":128.298574807,"region":"충청북도","source":"safefood","safeFoodGrade":"매우우수","safeFoodCertNo":"HG260000480"},{"id":"safefood-chungbuk-HG250642839","name":"bhc성안점","address":"충청북도 청주시 상당구 용담로 7(주5동 1층 129호, 130호 문화동, 문화동 센트럴칸타빌)","jibunAddress":"","phone":"","foodType":"","mainFood":"","designatedDate":"2025-12-11","lat":36.631839774,"lng":127.48782484,"region":"충청북도","source":"safefood","safeFoodGrade":"매우우수","safeFoodCertNo":"HG250642839"},{"id":"safefood-chungbuk-HG250642838","name":"가마치통닭 청주시청점","address":"충청북도 청주시 상당구 상당로121번길 44(북문로2가)","jibunAddress":"","phone":"","foodType":"","mainFood":"","designatedDate":"2025-12-11","lat":36.631839774,"lng":127.48782484,"region":"충청북도","source":"safefood","safeFoodGrade":"매우우수","safeFoodCertNo":"HG250642838"},{"id":"safefood-chungbuk-HG200000172","name":"(주)신세계푸드이베이커리충주점","address":"충청북도 충주시 중원대로 3420(문화동)","jibunAddress":"","phone":"","foodType":"","mainFood":"","designatedDate":"2026-01-22","lat":36.966764283,"lng":127.92423076,"region":"충청북도","source":"safefood","safeFoodGrade":"매우우수","safeFoodCertNo":"HG200000172"},{"id":"safefood-chungbuk-HG250642931","name":"파스쿠찌청주용평로점","address":"충청북도 청주시 서원구 용평로113번길 17(1층 분평동)","jibunAddress":"","phone":"","foodType":"","mainFood":"","designatedDate":"2025-12-15","lat":36.608434883,"lng":127.449013669,"region":"충청북도","source":"safefood","safeFoodGrade":"좋음","safeFoodCertNo":"HG250642931"},{"id":"safefood-chungbuk-HG260000081","name":"몬카페(Mon Cafe)","address":"충청북도 청주시 흥덕구 봉명로205번길 39(1층 102호 봉명동, 다세대주택)","jibunAddress":"","phone":"","foodType":"","mainFood":"","designatedDate":"2026-01-08","lat":36.62671822,"lng":127.43327635,"region":"충청북도","source":"safefood","safeFoodGrade":"매우우수","safeFoodCertNo":"HG260000081"},{"id":"safefood-chungbuk-HG250642929","name":"파스쿠찌청주하나로점","address":"충청북도 청주시 상당구 무농정로 32(농협청주농산물룰류센타 1층 방서동)","jibunAddress":"","phone":"","foodType":"","mainFood":"","designatedDate":"2025-12-15","lat":36.631839774,"lng":127.48782484,"region":"충청북도","source":"safefood","safeFoodGrade":"매우우수","safeFoodCertNo":"HG250642929"},{"id":"safefood-chungbuk-HG250642694","name":"파스쿠찌 제천장락점","address":"충청북도 제천시 청전대로 216(1층 104호 장락동)","jibunAddress":"","phone":"","foodType":"","mainFood":"","designatedDate":"2025-12-09","lat":37.148687051,"lng":128.208145312,"region":"충청북도","source":"safefood","safeFoodGrade":"매우우수","safeFoodCertNo":"HG250642694"},{"id":"safefood-chungbuk-HG250642928","name":"파리바게뜨 청주용암롯데점","address":"충청북도 청주시 상당구 중고개로 181(용암동,106호,107호)","jibunAddress":"","phone":"","foodType":"","mainFood":"","designatedDate":"2025-12-15","lat":36.631839774,"lng":127.48782484,"region":"충청북도","source":"safefood","safeFoodGrade":"매우우수","safeFoodCertNo":"HG250642928"},{"id":"safefood-chungbuk-HG250641773","name":"뚜레쥬르 충대중문점","address":"충청북도 청주시 서원구 내수동로 112(사창동, 1층)","jibunAddress":"","phone":"","foodType":"","mainFood":"","designatedDate":"2025-11-19","lat":36.608434883,"lng":127.449013669,"region":"충청북도","source":"safefood","safeFoodGrade":"매우우수","safeFoodCertNo":"HG250641773"},{"id":"safefood-chungbuk-HG250642926","name":"파리바게뜨청주용암현대점","address":"충청북도 청주시 상당구 월평로184번길 17(용암동, 1층)","jibunAddress":"","phone":"","foodType":"","mainFood":"","designatedDate":"2025-12-15","lat":36.631839774,"lng":127.48782484,"region":"충청북도","source":"safefood","safeFoodGrade":"매우우수","safeFoodCertNo":"HG250642926"},{"id":"safefood-chungbuk-HG250641770","name":"파리바게뜨분평점2","address":"충청북도 청주시 서원구 분평로 21(상가1동 112호 분평동, 현대대우아파트)","jibunAddress":"","phone":"","foodType":"","mainFood":"","designatedDate":"2025-11-19","lat":36.608434883,"lng":127.449013669,"region":"충청북도","source":"safefood","safeFoodGrade":"매우우수","safeFoodCertNo":"HG250641770"},{"id":"safefood-chungbuk-HG250641769","name":"파리바게뜨분평점1","address":"충청북도 청주시 서원구 월평로 28(상가1동 1층 101호,102호 분평동, 현대대우아파트)","jibunAddress":"","phone":"","foodType":"","mainFood":"","designatedDate":"2025-11-19","lat":36.608434883,"lng":127.449013669,"region":"충청북도","source":"safefood","safeFoodGrade":"매우우수","safeFoodCertNo":"HG250641769"},{"id":"safefood-chungbuk-HG250642369","name":"교촌치킨","address":"충청북도 음성군 금왕읍 무극로244번길 19(102호)","jibunAddress":"","phone":"","foodType":"","mainFood":"","designatedDate":"2025-12-01","lat":36.984197628,"lng":127.600055259,"region":"충청북도","source":"safefood","safeFoodGrade":"매우우수","safeFoodCertNo":"HG250642369"},{"id":"safefood-chungbuk-HG240000662","name":"파스쿠찌 서청주DT점","address":"충청북도 청주시 흥덕구 2순환로 1067-2(2,3,4층 비하동)","jibunAddress":"","phone":"","foodType":"","mainFood":"","designatedDate":"2026-02-05","lat":36.62671822,"lng":127.43327635,"region":"충청북도","source":"safefood","safeFoodGrade":"매우우수","safeFoodCertNo":"HG240000662"},{"id":"safefood-chungbuk-HG250642826","name":"노모어피자 청주율량점","address":"충청북도 청주시 청원구 공항로 126(우양메디타워 1층 108호 율량동)","jibunAddress":"","phone":"","foodType":"","mainFood":"","designatedDate":"2025-12-10","lat":36.648042748,"lng":127.482584946,"region":"충청북도","source":"safefood","safeFoodGrade":"매우우수","safeFoodCertNo":"HG250642826"},{"id":"safefood-chungbuk-HG250642215","name":"파리바게뜨청주동남씨티점","address":"충청북도 청주시 상당구 중고개로142번길 31(상가1동 지하1층 107호 용암동, 시티프라디움 1단지)","jibunAddress":"","phone":"","foodType":"","mainFood":"","designatedDate":"2025-11-27","lat":36.631839774,"lng":127.48782484,"region":"충청북도","source":"safefood","safeFoodGrade":"매우우수","safeFoodCertNo":"HG250642215"},{"id":"safefood-chungbuk-HG250642806","name":"파리바게뜨 청주IP","address":"충청북도 청주시 흥덕구 백봉로223번길 18(봉명동,1층)","jibunAddress":"","phone":"","foodType":"","mainFood":"","designatedDate":"2025-12-10","lat":36.62671822,"lng":127.43327635,"region":"충청북도","source":"safefood","safeFoodGrade":"매우우수","safeFoodCertNo":"HG250642806"},{"id":"safefood-chungbuk-HG250642660","name":"파리바게뜨광혜원점","address":"충청북도 진천군 광혜원면 중리3길 21(옥산빌딩 1층)","jibunAddress":"","phone":"","foodType":"","mainFood":"","designatedDate":"2025-12-09","lat":36.987555129,"lng":127.429795431,"region":"충청북도","source":"safefood","safeFoodGrade":"매우우수","safeFoodCertNo":"HG250642660"},{"id":"safefood-chungbuk-HG250642364","name":"파리바게뜨(음성삼성)","address":"충청북도 음성군 삼성면 덕정로 77","jibunAddress":"","phone":"","foodType":"","mainFood":"","designatedDate":"2025-12-01","lat":37.021997877,"lng":127.484498851,"region":"충청북도","source":"safefood","safeFoodGrade":"매우우수","safeFoodCertNo":"HG250642364"},{"id":"safefood-chungbuk-HG250642214","name":"파리바게뜨 율량점","address":"충청북도 청주시 청원구 율봉로 150(율량동)","jibunAddress":"","phone":"","foodType":"","mainFood":"","designatedDate":"2025-11-27","lat":36.648042748,"lng":127.482584946,"region":"충청북도","source":"safefood","safeFoodGrade":"매우우수","safeFoodCertNo":"HG250642214"},{"id":"safefood-chungbuk-HG250642804","name":"파리바게뜨복대지웰점","address":"충청북도 청주시 흥덕구 대농로 43(101,102호 복대동, 신영지웰시티)","jibunAddress":"","phone":"","foodType":"","mainFood":"","designatedDate":"2025-12-10","lat":36.62671822,"lng":127.43327635,"region":"충청북도","source":"safefood","safeFoodGrade":"우수","safeFoodCertNo":"HG250642804"},{"id":"safefood-chungbuk-HG220000064","name":"한국피자헛 충북대본점","address":"충청북도 청주시 서원구 1순환로 694(1층 사창동)","jibunAddress":"","phone":"","foodType":"","mainFood":"","designatedDate":"2026-01-12","lat":36.608434883,"lng":127.449013669,"region":"충청북도","source":"safefood","safeFoodGrade":"매우우수","safeFoodCertNo":"HG220000064"},{"id":"safefood-chungbuk-HG230010299","name":"한국피자헛분평대로점","address":"충청북도 청주시 서원구 1순환로 1142(주1동 1층 분평동)","jibunAddress":"","phone":"","foodType":"","mainFood":"","designatedDate":"2025-12-18","lat":36.608434883,"lng":127.449013669,"region":"충청북도","source":"safefood","safeFoodGrade":"매우우수","safeFoodCertNo":"HG230010299"},{"id":"safefood-chungbuk-HG250642340","name":"본죽&비빔밥 청주강서점","address":"충청북도 청주시 흥덕구 서현북로 66(가경동,지상1층)","jibunAddress":"","phone":"","foodType":"","mainFood":"","designatedDate":"2025-12-01","lat":36.62671822,"lng":127.43327635,"region":"충청북도","source":"safefood","safeFoodGrade":"매우우수","safeFoodCertNo":"HG250642340"},{"id":"safefood-chungbuk-HG250641737","name":"오송2층 삼송빵집","address":"충청북도 청주시 흥덕구 오송읍 오송가락로 123(오송역 2층 일부호)","jibunAddress":"","phone":"","foodType":"","mainFood":"","designatedDate":"2025-11-19","lat":36.62671822,"lng":127.43327635,"region":"충청북도","source":"safefood","safeFoodGrade":"우수","safeFoodCertNo":"HG250641737"},{"id":"safefood-chungbuk-HG220000818","name":"이디야 제천의림지DI점","address":"충청북도 제천시 의림대로47길 32(1층 모산동)","jibunAddress":"","phone":"","foodType":"","mainFood":"","designatedDate":"2026-02-14","lat":37.177178661,"lng":128.207472611,"region":"충청북도","source":"safefood","safeFoodGrade":"매우우수","safeFoodCertNo":"HG220000818"},{"id":"safefood-chungbuk-HG250642184","name":"불닭발땡초 동대문엽기떡볶이 청주대점","address":"충청북도 청주시 청원구 중앙로 166(영준빌딩 가동 1층 우암동)","jibunAddress":"","phone":"","foodType":"","mainFood":"","designatedDate":"2025-11-27","lat":36.648042748,"lng":127.482584946,"region":"충청북도","source":"safefood","safeFoodGrade":"매우우수","safeFoodCertNo":"HG250642184"},{"id":"safefood-chungbuk-HG250638935","name":"본죽앤비빔밥청주우암점","address":"충청북도 청주시 청원구 상당로 249(우암동, 일진캠퍼스타워, 102호)","jibunAddress":"","phone":"","foodType":"","mainFood":"","designatedDate":"2025-09-08","lat":36.648042748,"lng":127.482584946,"region":"충청북도","source":"safefood","safeFoodGrade":"매우우수","safeFoodCertNo":"HG250638935"},{"id":"safefood-chungbuk-HG250641495","name":"솥내음 청주오송점","address":"충청북도 청주시 흥덕구 오송읍 봉산리 1012 주1동 101호","jibunAddress":"","phone":"","foodType":"","mainFood":"","designatedDate":"2025-11-13","lat":36.62671822,"lng":127.43327635,"region":"충청북도","source":"safefood","safeFoodGrade":"매우우수","safeFoodCertNo":"HG250641495"},{"id":"safefood-chungbuk-HG250642313","name":"빕스 청주커넥트 현대점","address":"충청북도 청주시 흥덕구 2순환로 1225(청주센트럴시티터미널복합 5층 일부호 가경동)","jibunAddress":"","phone":"","foodType":"","mainFood":"","designatedDate":"2025-12-01","lat":36.62671822,"lng":127.43327635,"region":"충청북도","source":"safefood","safeFoodGrade":"매우우수","safeFoodCertNo":"HG250642313"},{"id":"safefood-chungbuk-HG250642304","name":"메가엠지씨커피 청주지웰에스테이트점","address":"충청북도 청주시 흥덕구 진재로 131(1층 105호 복대동, 지웰에스테이트)","jibunAddress":"","phone":"","foodType":"","mainFood":"","designatedDate":"2025-12-01","lat":36.62671822,"lng":127.43327635,"region":"충청북도","source":"safefood","safeFoodGrade":"매우우수","safeFoodCertNo":"HG250642304"},{"id":"safefood-chungbuk-HG240000059","name":"스텔라떡볶이 충북오창점","address":"충청북도 청주시 청원구 오창읍 오창대로 315(105호)","jibunAddress":"","phone":"","foodType":"","mainFood":"","designatedDate":"2026-01-10","lat":36.648042748,"lng":127.482584946,"region":"충청북도","source":"safefood","safeFoodGrade":"매우우수","safeFoodCertNo":"HG240000059"},{"id":"safefood-chungbuk-HG210011475","name":"베스킨라빈스","address":"충청북도 음성군 금왕읍 무극로 277","jibunAddress":"","phone":"","foodType":"","mainFood":"","designatedDate":"2025-12-13","lat":36.984197628,"lng":127.600055259,"region":"충청북도","source":"safefood","safeFoodGrade":"매우우수","safeFoodCertNo":"HG210011475"},{"id":"safefood-chungbuk-HG250641249","name":"본죽 앤 비빔밥 청주지웰시티점","address":"충청북도 청주시 흥덕구 대농로 33(테라스퀘어 1층 108호 복대동)","jibunAddress":"","phone":"","foodType":"","mainFood":"","designatedDate":"2025-11-10","lat":36.62671822,"lng":127.43327635,"region":"충청북도","source":"safefood","safeFoodGrade":"매우우수","safeFoodCertNo":"HG250641249"},{"id":"safefood-chungbuk-HG250640823","name":"피자헛 청주가경본점","address":"충청북도 청주시 흥덕구 서현북로 48(1층 일부호 가경동)","jibunAddress":"","phone":"","foodType":"","mainFood":"","designatedDate":"2025-10-29","lat":36.62671822,"lng":127.43327635,"region":"충청북도","source":"safefood","safeFoodGrade":"매우우수","safeFoodCertNo":"HG250640823"},{"id":"safefood-chungbuk-HG250640881","name":"사계절","address":"충청북도 청주시 상당구 용암북로168번길 5(1층 102호 용암동)","jibunAddress":"","phone":"","foodType":"","mainFood":"","designatedDate":"2025-10-30","lat":36.631839774,"lng":127.48782484,"region":"충청북도","source":"safefood","safeFoodGrade":"매우우수","safeFoodCertNo":"HG250640881"},{"id":"safefood-chungbuk-HG250640880","name":"형의식탁","address":"충청북도 청주시 청원구 율량로202번길 36(1층 율량동)","jibunAddress":"","phone":"","foodType":"","mainFood":"","designatedDate":"2025-10-30","lat":36.648042748,"lng":127.482584946,"region":"충청북도","source":"safefood","safeFoodGrade":"좋음","safeFoodCertNo":"HG250640880"},{"id":"safefood-chungbuk-HG250642849","name":"들꽃이야기","address":"충청북도 청주시 청원구 오창읍 과학산업2로 363(201호 신우에비뉴엘빌딩)","jibunAddress":"","phone":"","foodType":"","mainFood":"","designatedDate":"2025-12-15","lat":36.648042748,"lng":127.482584946,"region":"충청북도","source":"safefood","safeFoodGrade":"우수","safeFoodCertNo":"HG250642849"},{"id":"safefood-chungbuk-HG250641656","name":"교촌치킨","address":"충청북도 청주시 서원구 청남로 1992(1층 분평동)","jibunAddress":"","phone":"","foodType":"","mainFood":"","designatedDate":"2025-11-19","lat":36.608434883,"lng":127.449013669,"region":"충청북도","source":"safefood","safeFoodGrade":"매우우수","safeFoodCertNo":"HG250641656"},{"id":"safefood-chungbuk-HG230009777","name":"빽다방청주성안롯데점","address":"충청북도 청주시 상당구 성안로 13(1층 1004호 북문로1가, 씨유멀티플렉스)","jibunAddress":"","phone":"","foodType":"","mainFood":"","designatedDate":"2025-12-04","lat":36.631839774,"lng":127.48782484,"region":"충청북도","source":"safefood","safeFoodGrade":"매우우수","safeFoodCertNo":"HG230009777"},{"id":"safefood-chungbuk-HG250641487","name":"비비큐(청주오송봉산점)","address":"충청북도 청주시 흥덕구 오송읍 오송생명7로 118(근린생활시설3동 101호 오송역파라곤센트럴시티3차)","jibunAddress":"","phone":"","foodType":"","mainFood":"","designatedDate":"2025-11-13","lat":36.62671822,"lng":127.43327635,"region":"충청북도","source":"safefood","safeFoodGrade":"우수","safeFoodCertNo":"HG250641487"},{"id":"safefood-chungbuk-HG230009764","name":"호식이두마리치킨 용암점","address":"충청북도 청주시 상당구 호미로165번길 73(용암동,1층)","jibunAddress":"","phone":"","foodType":"","mainFood":"","designatedDate":"2025-12-04","lat":36.631839774,"lng":127.48782484,"region":"충청북도","source":"safefood","safeFoodGrade":"매우우수","safeFoodCertNo":"HG230009764"},{"id":"safefood-chungbuk-HG250640879","name":"육거리소문난만두","address":"충청북도 청주시 상당구 상당로1번길 36(1층 석교동)","jibunAddress":"","phone":"","foodType":"","mainFood":"","designatedDate":"2025-10-30","lat":36.631839774,"lng":127.48782484,"region":"충청북도","source":"safefood","safeFoodGrade":"매우우수","safeFoodCertNo":"HG250640879"},{"id":"safefood-chungbuk-HG250641484","name":"맘스피자 청주강내점","address":"충청북도 청주시 흥덕구 강내면 가로수로 550(1층 일부호)","jibunAddress":"","phone":"","foodType":"","mainFood":"","designatedDate":"2025-11-13","lat":36.62671822,"lng":127.43327635,"region":"충청북도","source":"safefood","safeFoodGrade":"매우우수","safeFoodCertNo":"HG250641484"},{"id":"safefood-chungbuk-HG250640878","name":"청남삼겹살","address":"충청북도 청주시 상당구 영운로 43(영운동)","jibunAddress":"","phone":"","foodType":"","mainFood":"","designatedDate":"2025-10-30","lat":36.631839774,"lng":127.48782484,"region":"충청북도","source":"safefood","safeFoodGrade":"좋음","safeFoodCertNo":"HG250640878"},{"id":"safefood-chungbuk-HG250641644","name":"메가엠지씨커피 청주가마교차로점","address":"충청북도 청주시 서원구 남이면 청남로 1825(1층)","jibunAddress":"","phone":"","foodType":"","mainFood":"","designatedDate":"2025-11-19","lat":36.608434883,"lng":127.449013669,"region":"충청북도","source":"safefood","safeFoodGrade":"매우우수","safeFoodCertNo":"HG250641644"},{"id":"safefood-chungbuk-HG250641643","name":"찌개공방 옥산점","address":"충청북도 청주시 흥덕구 옥산면 가락길 32(1층 일부호)","jibunAddress":"","phone":"","foodType":"","mainFood":"","designatedDate":"2025-11-19","lat":36.62671822,"lng":127.43327635,"region":"충청북도","source":"safefood","safeFoodGrade":"매우우수","safeFoodCertNo":"HG250641643"},{"id":"safefood-chungbuk-HG250641479","name":"맘스터치 청주강내점","address":"충청북도 청주시 흥덕구 강내면 가로수로 550(1.층 일부호)","jibunAddress":"","phone":"","foodType":"","mainFood":"","designatedDate":"2025-11-13","lat":36.62671822,"lng":127.43327635,"region":"충청북도","source":"safefood","safeFoodGrade":"매우우수","safeFoodCertNo":"HG250641479"},{"id":"safefood-chungbuk-HG250641640","name":"맘스터치수곡분평점","address":"충청북도 청주시 서원구 청남로 1999(1층 분평동)","jibunAddress":"","phone":"","foodType":"","mainFood":"","designatedDate":"2025-11-19","lat":36.608434883,"lng":127.449013669,"region":"충청북도","source":"safefood","safeFoodGrade":"우수","safeFoodCertNo":"HG250641640"},{"id":"safefood-chungbuk-HG250641233","name":"맘스터치","address":"충청북도 청주시 흥덕구 덕암로108번길 65(1층 2호 봉명동)","jibunAddress":"","phone":"","foodType":"","mainFood":"","designatedDate":"2025-11-10","lat":36.62671822,"lng":127.43327635,"region":"충청북도","source":"safefood","safeFoodGrade":"매우우수","safeFoodCertNo":"HG250641233"},{"id":"safefood-chungbuk-HG250640815","name":"씨유오창구룡점","address":"충청북도 청주시 청원구 오창읍 구룡2길 39","jibunAddress":"","phone":"","foodType":"","mainFood":"","designatedDate":"2025-10-29","lat":36.648042748,"lng":127.482584946,"region":"충청북도","source":"safefood","safeFoodGrade":"매우우수","safeFoodCertNo":"HG250640815"},{"id":"safefood-chungbuk-HG250640853","name":"금천닭갈비.파전(청주본점)","address":"충청북도 청주시 상당구 산성로92번길 13(금천동,1층)","jibunAddress":"","phone":"","foodType":"","mainFood":"","designatedDate":"2025-10-29","lat":36.631839774,"lng":127.48782484,"region":"충청북도","source":"safefood","safeFoodGrade":"좋음","safeFoodCertNo":"HG250640853"},{"id":"safefood-chungbuk-HG250640737","name":"굽네치킨성안점","address":"충청북도 청주시 상당구 용담로 7(1층 118,119호 문화동, 쁘띠칸타빌)","jibunAddress":"","phone":"","foodType":"","mainFood":"","designatedDate":"2025-10-27","lat":36.631839774,"lng":127.48782484,"region":"충청북도","source":"safefood","safeFoodGrade":"매우우수","safeFoodCertNo":"HG250640737"},{"id":"safefood-chungbuk-HG250640851","name":"하마네아구찜 청주점","address":"충청북도 청주시 상당구 중고개로141번길 22-7(1층 용암동)","jibunAddress":"","phone":"","foodType":"","mainFood":"","designatedDate":"2025-10-29","lat":36.631839774,"lng":127.48782484,"region":"충청북도","source":"safefood","safeFoodGrade":"좋음","safeFoodCertNo":"HG250640851"},{"id":"safefood-chungbuk-HG250640736","name":"달콤.앤(N) 충북도청점","address":"충청북도 청주시 상당구 상당로 82(충청북도청 산업장려관 1층 문화동)","jibunAddress":"","phone":"","foodType":"","mainFood":"","designatedDate":"2025-10-27","lat":36.631839774,"lng":127.48782484,"region":"충청북도","source":"safefood","safeFoodGrade":"매우우수","safeFoodCertNo":"HG250640736"},{"id":"safefood-chungbuk-HG240000477","name":"선비꼬마김밥 탑동점","address":"충청북도 청주시 상당구 용담로 50(근생2동 1층 126호 탑동, 청주센트럴 힐데스하임)","jibunAddress":"","phone":"","foodType":"","mainFood":"","designatedDate":"2026-01-26","lat":36.631839774,"lng":127.48782484,"region":"충청북도","source":"safefood","safeFoodGrade":"매우우수","safeFoodCertNo":"HG240000477"},{"id":"safefood-chungbuk-HG200000001","name":"(주)보림로지스틱스죽암(엔제리너스)","address":"충청북도 청주시 서원구 현도면 경부고속도로 290(1층)","jibunAddress":"","phone":"","foodType":"","mainFood":"","designatedDate":"2026-01-02","lat":36.608434883,"lng":127.449013669,"region":"충청북도","source":"safefood","safeFoodGrade":"매우우수","safeFoodCertNo":"HG200000001"},{"id":"safefood-chungbuk-HG200000881","name":"(주)보림로지스틱스죽암(로띠번)","address":"충청북도 청주시 서원구 현도면 경부고속도로 290(1층 죽암상휴게소)","jibunAddress":"","phone":"","foodType":"","mainFood":"","designatedDate":"2026-03-24","lat":36.608434883,"lng":127.449013669,"region":"충청북도","source":"safefood","safeFoodGrade":"매우우수","safeFoodCertNo":"HG200000881"},{"id":"safefood-chungbuk-HG200000895","name":"(주)보림로지스틱스 죽암(탐앤탐스)","address":"충청북도 청주시 서원구 현도면 경부고속도로 290(1층 죽암상휴게소)","jibunAddress":"","phone":"","foodType":"","mainFood":"","designatedDate":"2026-03-24","lat":36.608434883,"lng":127.449013669,"region":"충청북도","source":"safefood","safeFoodGrade":"매우우수","safeFoodCertNo":"HG200000895"},{"id":"safefood-chungbuk-HG200000893","name":"(주)보림로지스틱스 죽암(소미미)","address":"충청북도 청주시 서원구 현도면 경부고속도로 290(1층)","jibunAddress":"","phone":"","foodType":"","mainFood":"","designatedDate":"2026-03-24","lat":36.608434883,"lng":127.449013669,"region":"충청북도","source":"safefood","safeFoodGrade":"매우우수","safeFoodCertNo":"HG200000893"},{"id":"safefood-chungbuk-HG200000002","name":"(주)보림로지스틱스 죽암(라면전문점)","address":"충청북도 청주시 서원구 현도면 경부고속도로 290(1층 죽암상휴게소)","jibunAddress":"","phone":"","foodType":"","mainFood":"","designatedDate":"2026-01-02","lat":36.608434883,"lng":127.449013669,"region":"충청북도","source":"safefood","safeFoodGrade":"매우우수","safeFoodCertNo":"HG200000002"},{"id":"safefood-chungbuk-HG200000894","name":"(주)보림로지스틱스 죽암(분식전문점)","address":"충청북도 청주시 서원구 현도면 경부고속도로 290(1층 죽암상휴게소)","jibunAddress":"","phone":"","foodType":"","mainFood":"","designatedDate":"2026-03-24","lat":36.608434883,"lng":127.449013669,"region":"충청북도","source":"safefood","safeFoodGrade":"매우우수","safeFoodCertNo":"HG200000894"},{"id":"safefood-chungbuk-HG250641596","name":"뚜레쥬르 오창한라점","address":"충청북도 청주시 청원구 오창읍 오창중앙로 94","jibunAddress":"","phone":"","foodType":"","mainFood":"","designatedDate":"2025-11-19","lat":36.648042748,"lng":127.482584946,"region":"충청북도","source":"safefood","safeFoodGrade":"매우우수","safeFoodCertNo":"HG250641596"},{"id":"safefood-chungbuk-HG250641589","name":"버거킹오창호수공원점","address":"충청북도 청주시 청원구 오창읍 중심상업로 31-18(1층)","jibunAddress":"","phone":"","foodType":"","mainFood":"","designatedDate":"2025-11-19","lat":36.648042748,"lng":127.482584946,"region":"충청북도","source":"safefood","safeFoodGrade":"매우우수","safeFoodCertNo":"HG250641589"},{"id":"safefood-chungbuk-HG250640846","name":"버거킹 청주동남점","address":"충청북도 청주시 상당구 중고개로141번길 11-9(1층 101-103호 용암동)","jibunAddress":"","phone":"","foodType":"","mainFood":"","designatedDate":"2025-10-29","lat":36.631839774,"lng":127.48782484,"region":"충청북도","source":"safefood","safeFoodGrade":"매우우수","safeFoodCertNo":"HG250640846"},{"id":"safefood-chungbuk-HG210011526","name":"60계치킨서충주기업도시점","address":"충청북도 충주시 중앙탑면 원앙길 8-5(1층)","jibunAddress":"","phone":"","foodType":"","mainFood":"","designatedDate":"2025-12-16","lat":37.018103937,"lng":127.864901052,"region":"충청북도","source":"safefood","safeFoodGrade":"매우우수","safeFoodCertNo":"HG210011526"},{"id":"safefood-chungbuk-HG250640873","name":"이디야커피청주여고점","address":"충청북도 청주시 청원구 율봉로201번길 16-1(율량동)","jibunAddress":"","phone":"","foodType":"","mainFood":"","designatedDate":"2025-10-30","lat":36.648042748,"lng":127.482584946,"region":"충청북도","source":"safefood","safeFoodGrade":"매우우수","safeFoodCertNo":"HG250640873"},{"id":"safefood-chungbuk-HG230009428","name":"롯데리아충북오송점","address":"충청북도 청주시 흥덕구 오송읍 오송생명로 194(오송랜드 107.108호)","jibunAddress":"","phone":"","foodType":"","mainFood":"","designatedDate":"2025-11-22","lat":36.62671822,"lng":127.43327635,"region":"충청북도","source":"safefood","safeFoodGrade":"우수","safeFoodCertNo":"HG230009428"},{"id":"safefood-chungbuk-HG250640871","name":"달마설렁탕숯불갈비 율량점","address":"충청북도 청주시 청원구 1순환로 142(1층 103,104,105호 율량동)","jibunAddress":"","phone":"","foodType":"","mainFood":"","designatedDate":"2025-10-30","lat":36.648042748,"lng":127.482584946,"region":"충청북도","source":"safefood","safeFoodGrade":"우수","safeFoodCertNo":"HG250640871"},{"id":"safefood-chungbuk-HG250640080","name":"도미노피자충주점","address":"충청북도 충주시 갱고개로 158(1층 연수동)","jibunAddress":"","phone":"","foodType":"","mainFood":"","designatedDate":"2025-10-01","lat":36.983495037,"lng":127.939243111,"region":"충청북도","source":"safefood","safeFoodGrade":"매우우수","safeFoodCertNo":"HG250640080"},{"id":"safefood-chungbuk-HG220000418","name":"이삭토스트청주동남지구점","address":"충청북도 청주시 상당구 중고개로 137(2층 209호 용암동)","jibunAddress":"","phone":"","foodType":"","mainFood":"","designatedDate":"2026-01-25","lat":36.631839774,"lng":127.48782484,"region":"충청북도","source":"safefood","safeFoodGrade":"매우우수","safeFoodCertNo":"HG220000418"},{"id":"safefood-chungbuk-HG250640716","name":"CU청주개신점","address":"충청북도 청주시 서원구 장구봉로 94(상가동 B101호 개신동, 우평 원더라움아파트)","jibunAddress":"","phone":"","foodType":"","mainFood":"","designatedDate":"2025-10-27","lat":36.608434883,"lng":127.449013669,"region":"충청북도","source":"safefood","safeFoodGrade":"매우우수","safeFoodCertNo":"HG250640716"},{"id":"safefood-chungbuk-HG250640715","name":"비비큐청주성화점","address":"충청북도 청주시 서원구 구룡산로51번나길 9(1층 성화동)","jibunAddress":"","phone":"","foodType":"","mainFood":"","designatedDate":"2025-10-27","lat":36.608434883,"lng":127.449013669,"region":"충청북도","source":"safefood","safeFoodGrade":"매우우수","safeFoodCertNo":"HG250640715"},{"id":"safefood-chungbuk-HG250640606","name":"계룡산업(주)죽암하휴게소(알뜰간식)","address":"충청북도 청주시 서원구 현도면 경부고속도로 289(죽암휴게소 부산방향)","jibunAddress":"","phone":"","foodType":"","mainFood":"","designatedDate":"2025-10-22","lat":36.608434883,"lng":127.449013669,"region":"충청북도","source":"safefood","safeFoodGrade":"매우우수","safeFoodCertNo":"HG250640606"},{"id":"safefood-chungbuk-HG230009976","name":"계룡산업(주)죽암하휴게소(생활의국밥)","address":"충청북도 청주시 서원구 현도면 경부고속도로 289(죽암휴게소 부산방향 1층)","jibunAddress":"","phone":"","foodType":"","mainFood":"","designatedDate":"2025-12-11","lat":36.608434883,"lng":127.449013669,"region":"충청북도","source":"safefood","safeFoodGrade":"매우우수","safeFoodCertNo":"HG230009976"},{"id":"safefood-chungbuk-HG230009977","name":"계룡산업(주)죽암하휴게소(다과당)","address":"충청북도 청주시 서원구 현도면 경부고속도로 289(죽암휴게소 부산방향 1층)","jibunAddress":"","phone":"","foodType":"","mainFood":"","designatedDate":"2025-12-11","lat":36.608434883,"lng":127.449013669,"region":"충청북도","source":"safefood","safeFoodGrade":"매우우수","safeFoodCertNo":"HG230009977"},{"id":"safefood-chungbuk-HG250640660","name":"투썸중흥마을점","address":"충청북도 청주시 상당구 중흥로 201(1-2층 용암동)","jibunAddress":"","phone":"","foodType":"","mainFood":"","designatedDate":"2025-10-24","lat":36.631839774,"lng":127.48782484,"region":"충청북도","source":"safefood","safeFoodGrade":"매우우수","safeFoodCertNo":"HG250640660"},{"id":"safefood-chungbuk-HG210011006","name":"이디야커피(EDIYA COFFEE)","address":"충청북도 청주시 흥덕구 진재로 46(1층 복대동)","jibunAddress":"","phone":"","foodType":"","mainFood":"","designatedDate":"2025-11-25","lat":36.62671822,"lng":127.43327635,"region":"충청북도","source":"safefood","safeFoodGrade":"매우우수","safeFoodCertNo":"HG210011006"},{"id":"safefood-chungbuk-HG210011485","name":"60계금왕점","address":"충청북도 음성군 금왕읍 금석로 54-2","jibunAddress":"","phone":"","foodType":"","mainFood":"","designatedDate":"2025-12-13","lat":36.984197628,"lng":127.600055259,"region":"충청북도","source":"safefood","safeFoodGrade":"매우우수","safeFoodCertNo":"HG210011485"},{"id":"safefood-chungbuk-HG230009107","name":"(주)이랜드이츠 애슐리퀸즈 원더아리아 청주점","address":"충청북도 청주시 청원구 상당로 314(원더아리아 1층 내덕동)","jibunAddress":"","phone":"","foodType":"","mainFood":"","designatedDate":"2025-11-20","lat":36.648042748,"lng":127.482584946,"region":"충청북도","source":"safefood","safeFoodGrade":"매우우수","safeFoodCertNo":"HG230009107"},{"id":"safefood-chungbuk-HG250640153","name":"배스킨라빈스 31 충북괴산점","address":"충청북도 괴산군 괴산읍 읍내로11길 14","jibunAddress":"","phone":"","foodType":"","mainFood":"","designatedDate":"2025-10-13","lat":36.805151022,"lng":127.819241465,"region":"충청북도","source":"safefood","safeFoodGrade":"매우우수","safeFoodCertNo":"HG250640153"},{"id":"safefood-chungbuk-HG250641185","name":"베스킨라빈스","address":"충청북도 청주시 흥덕구 서부로 1291(가경동,홈플러스청주가경점1층)","jibunAddress":"","phone":"","foodType":"","mainFood":"","designatedDate":"2025-11-10","lat":36.62671822,"lng":127.43327635,"region":"충청북도","source":"safefood","safeFoodGrade":"매우우수","safeFoodCertNo":"HG250641185"},{"id":"safefood-chungbuk-HG250640656","name":"본죽&비빔밥 용암현대점","address":"충청북도 청주시 상당구 월평로184번길 150(용암동)","jibunAddress":"","phone":"","foodType":"","mainFood":"","designatedDate":"2025-10-23","lat":36.631839774,"lng":127.48782484,"region":"충청북도","source":"safefood","safeFoodGrade":"매우우수","safeFoodCertNo":"HG250640656"},{"id":"safefood-chungbuk-HG250640777","name":"투썸플레이스 청주오창2산단점","address":"충청북도 청주시 청원구 오창읍 2산단로 124(1층 101,102호)","jibunAddress":"","phone":"","foodType":"","mainFood":"","designatedDate":"2025-10-29","lat":36.648042748,"lng":127.482584946,"region":"충청북도","source":"safefood","safeFoodGrade":"매우우수","safeFoodCertNo":"HG250640777"},{"id":"safefood-chungbuk-HG250640152","name":"GS25 제천장락타운","address":"충청북도 제천시 신죽하로 83-11(1층 고암동)","jibunAddress":"","phone":"","foodType":"","mainFood":"","designatedDate":"2025-10-13","lat":37.159967505,"lng":128.226241409,"region":"충청북도","source":"safefood","safeFoodGrade":"매우우수","safeFoodCertNo":"HG250640152"},{"id":"safefood-chungbuk-HG250640497","name":"도미노피자 진천점","address":"충청북도 진천군 진천읍 원덕로 313","jibunAddress":"","phone":"","foodType":"","mainFood":"","designatedDate":"2025-10-20","lat":36.853453849,"lng":127.441641542,"region":"충청북도","source":"safefood","safeFoodGrade":"매우우수","safeFoodCertNo":"HG250640497"},{"id":"safefood-chungbuk-HG210010837","name":"맘스터치용담점","address":"충청북도 청주시 상당구 수영로 299(2층 용담동)","jibunAddress":"","phone":"","foodType":"","mainFood":"","designatedDate":"2025-11-22","lat":36.631839774,"lng":127.48782484,"region":"충청북도","source":"safefood","safeFoodGrade":"매우우수","safeFoodCertNo":"HG210010837"},{"id":"safefood-chungbuk-HG210011218","name":"60계 충북청주수곡개신점","address":"충청북도 청주시 서원구 모충로 9(1층 103호 개신동)","jibunAddress":"","phone":"","foodType":"","mainFood":"","designatedDate":"2025-12-01","lat":36.608434883,"lng":127.449013669,"region":"충청북도","source":"safefood","safeFoodGrade":"우수","safeFoodCertNo":"HG210011218"},{"id":"safefood-chungbuk-HG210010477","name":"호식이두마리치킨내덕점","address":"충청북도 청주시 청원구 내덕로7번길 48(내덕동)","jibunAddress":"","phone":"","foodType":"","mainFood":"","designatedDate":"2025-11-09","lat":36.648042748,"lng":127.482584946,"region":"충청북도","source":"safefood","safeFoodGrade":"매우우수","safeFoodCertNo":"HG210010477"},{"id":"safefood-chungbuk-HG230009127","name":"신전떡볶이 오송점","address":"충청북도 청주시 흥덕구 오송읍 오송생명로 186(1층 103호)","jibunAddress":"","phone":"","foodType":"","mainFood":"","designatedDate":"2025-11-20","lat":36.62671822,"lng":127.43327635,"region":"충청북도","source":"safefood","safeFoodGrade":"매우우수","safeFoodCertNo":"HG230009127"},{"id":"safefood-chungbuk-HG240000062","name":"육거리삼십일미&삼삼오삼","address":"충청북도 청주시 상당구 상당로1번길 36(2층 석교동)","jibunAddress":"","phone":"","foodType":"","mainFood":"","designatedDate":"2026-01-10","lat":36.631839774,"lng":127.48782484,"region":"충청북도","source":"safefood","safeFoodGrade":"매우우수","safeFoodCertNo":"HG240000062"},{"id":"safefood-chungbuk-HG260000113","name":"샌드한끼","address":"충청북도 옥천군 옥천읍 서대구일로 265-19(1호)","jibunAddress":"","phone":"","foodType":"","mainFood":"","designatedDate":"2026-01-12","lat":36.298231343,"lng":127.574447914,"region":"충청북도","source":"safefood","safeFoodGrade":"매우우수","safeFoodCertNo":"HG260000113"},{"id":"safefood-chungbuk-HG250639935","name":"율량점bhc","address":"충청북도 청주시 청원구 율량로 198(1층 율량동)","jibunAddress":"","phone":"","foodType":"","mainFood":"","designatedDate":"2025-09-29","lat":36.648042748,"lng":127.482584946,"region":"충청북도","source":"safefood","safeFoodGrade":"좋음","safeFoodCertNo":"HG250639935"},{"id":"safefood-chungbuk-HG230008483","name":"투썸플레이스 청주주성점","address":"충청북도 청주시 청원구 2순환로 180(1,2층 주성동)","jibunAddress":"","phone":"","foodType":"","mainFood":"","designatedDate":"2025-11-09","lat":36.648042748,"lng":127.482584946,"region":"충청북도","source":"safefood","safeFoodGrade":"매우우수","safeFoodCertNo":"HG230008483"},{"id":"safefood-chungbuk-HG170000663","name":"충주휴게소 한식(상행)","address":"충청북도 충주시 중앙탑면 중부내륙고속도로 230-1","jibunAddress":"","phone":"","foodType":"","mainFood":"","designatedDate":"2025-12-18","lat":37.018103937,"lng":127.864901052,"region":"충청북도","source":"safefood","safeFoodGrade":"매우우수","safeFoodCertNo":"HG170000663"},{"id":"safefood-chungbuk-HG190001938","name":"스타벅스 청주사직DT점","address":"충청북도 청주시 서원구 사직대로 302(1,2층 사직동)","jibunAddress":"","phone":"","foodType":"","mainFood":"","designatedDate":"2025-11-26","lat":36.608434883,"lng":127.449013669,"region":"충청북도","source":"safefood","safeFoodGrade":"매우우수","safeFoodCertNo":"HG190001938"},{"id":"safefood-chungbuk-HG250639934","name":"샌드&커피","address":"충청북도 청주시 흥덕구 오송읍 오송가락로 123(오송역 2층)","jibunAddress":"","phone":"","foodType":"","mainFood":"","designatedDate":"2025-09-29","lat":36.62671822,"lng":127.43327635,"region":"충청북도","source":"safefood","safeFoodGrade":"매우우수","safeFoodCertNo":"HG250639934"},{"id":"safefood-chungbuk-HG230008068","name":"교촌치킨 덕산점","address":"충청북도 진천군 덕산읍 용몽로 106","jibunAddress":"","phone":"","foodType":"","mainFood":"","designatedDate":"2025-10-30","lat":36.91594944,"lng":127.51498603,"region":"충청북도","source":"safefood","safeFoodGrade":"매우우수","safeFoodCertNo":"HG230008068"},{"id":"safefood-chungbuk-HG230010107","name":"스타벅스 청주동남점","address":"충청북도 청주시 상당구 중고개로141번길 13-16(1층 101,102,103호 용암동)","jibunAddress":"","phone":"","foodType":"","mainFood":"","designatedDate":"2025-12-11","lat":36.631839774,"lng":127.48782484,"region":"충청북도","source":"safefood","safeFoodGrade":"매우우수","safeFoodCertNo":"HG230010107"},{"id":"safefood-chungbuk-HG190001989","name":"스타벅스 청주성화점","address":"충청북도 청주시 서원구 복대로 5(1층 개신동)","jibunAddress":"","phone":"","foodType":"","mainFood":"","designatedDate":"2025-11-26","lat":36.608434883,"lng":127.449013669,"region":"충청북도","source":"safefood","safeFoodGrade":"매우우수","safeFoodCertNo":"HG190001989"},{"id":"safefood-chungbuk-HG190001951","name":"스타벅스청주강서점","address":"충청북도 청주시 흥덕구 강서로 121(1층 103,104,105,106호 강서동)","jibunAddress":"","phone":"","foodType":"","mainFood":"","designatedDate":"2025-11-26","lat":36.62671822,"lng":127.43327635,"region":"충청북도","source":"safefood","safeFoodGrade":"매우우수","safeFoodCertNo":"HG190001951"},{"id":"safefood-chungbuk-HG230008181","name":"충주(상)휴게소파스쿠찌","address":"충청북도 충주시 중앙탑면 중부내륙고속도로 230-1(충주휴게소-주유소양평종점)","jibunAddress":"","phone":"","foodType":"","mainFood":"","designatedDate":"2025-10-31","lat":37.018103937,"lng":127.864901052,"region":"충청북도","source":"safefood","safeFoodGrade":"매우우수","safeFoodCertNo":"HG230008181"},{"id":"safefood-chungbuk-HG230008180","name":"충주(상)휴게소돈가스전문점","address":"충청북도 충주시 중앙탑면 중부내륙고속도로 230-1(충주휴게소-주유소양평종점)","jibunAddress":"","phone":"","foodType":"","mainFood":"","designatedDate":"2025-10-31","lat":37.018103937,"lng":127.864901052,"region":"충청북도","source":"safefood","safeFoodGrade":"매우우수","safeFoodCertNo":"HG230008180"},{"id":"safefood-chungbuk-HG230008086","name":"삼삼떡볶이앤꼬마김밥(33떡볶이&꼬마김밥) 용담금천점","address":"충청북도 청주시 상당구 수영로 303-1(1층 용담동)","jibunAddress":"","phone":"","foodType":"","mainFood":"","designatedDate":"2025-10-30","lat":36.631839774,"lng":127.48782484,"region":"충청북도","source":"safefood","safeFoodGrade":"매우우수","safeFoodCertNo":"HG230008086"},{"id":"safefood-chungbuk-HG250639548","name":"투썸플레이스청주동남점","address":"충청북도 청주시 상당구 중고개로125번길 19(1~4층 용암동)","jibunAddress":"","phone":"","foodType":"","mainFood":"","designatedDate":"2025-09-19","lat":36.631839774,"lng":127.48782484,"region":"충청북도","source":"safefood","safeFoodGrade":"매우우수","safeFoodCertNo":"HG250639548"},{"id":"safefood-chungbuk-HG250639546","name":"쿼드커피 청주산남부영점","address":"충청북도 청주시 서원구 원흥로 17(1층 109호 산남동)","jibunAddress":"","phone":"","foodType":"","mainFood":"","designatedDate":"2025-09-19","lat":36.608434883,"lng":127.449013669,"region":"충청북도","source":"safefood","safeFoodGrade":"매우우수","safeFoodCertNo":"HG250639546"},{"id":"safefood-chungbuk-HG190001816","name":"스타벅스 충북증평점","address":"충청북도 증평군 증평읍 광장로 40","jibunAddress":"","phone":"","foodType":"","mainFood":"","designatedDate":"2025-11-22","lat":36.786374633,"lng":127.583602878,"region":"충청북도","source":"safefood","safeFoodGrade":"매우우수","safeFoodCertNo":"HG190001816"},{"id":"safefood-chungbuk-HG250639545","name":"열정국밥","address":"충청북도 청주시 흥덕구 진재로31번길 1(복대동,1층)","jibunAddress":"","phone":"","foodType":"","mainFood":"","designatedDate":"2025-09-19","lat":36.62671822,"lng":127.43327635,"region":"충청북도","source":"safefood","safeFoodGrade":"매우우수","safeFoodCertNo":"HG250639545"},{"id":"safefood-chungbuk-HG250639543","name":"베이커리팩토리 서청주점","address":"충청북도 청주시 흥덕구 2순환로 1004(1층 비하동)","jibunAddress":"","phone":"","foodType":"","mainFood":"","designatedDate":"2025-09-19","lat":36.62671822,"lng":127.43327635,"region":"충청북도","source":"safefood","safeFoodGrade":"매우우수","safeFoodCertNo":"HG250639543"},{"id":"safefood-chungbuk-HG250640588","name":"한솥도시락(충북보은점)","address":"충청북도 보은군 보은읍 삼산남로 35","jibunAddress":"","phone":"","foodType":"","mainFood":"","designatedDate":"2025-10-22","lat":36.485362983,"lng":127.720201072,"region":"충청북도","source":"safefood","safeFoodGrade":"매우우수","safeFoodCertNo":"HG250640588"},{"id":"safefood-chungbuk-HG230010109","name":"스타벅스청주용암DT점","address":"충청북도 청주시 상당구 1순환로 1243(1,2층 용암동)","jibunAddress":"","phone":"","foodType":"","mainFood":"","designatedDate":"2025-12-11","lat":36.631839774,"lng":127.48782484,"region":"충청북도","source":"safefood","safeFoodGrade":"매우우수","safeFoodCertNo":"HG230010109"},{"id":"safefood-chungbuk-HG210004225","name":"(주)인앤아웃충주(창원)휴게소청년고로케","address":"충청북도 충주시 중앙탑면 중부내륙고속도로 231(충주휴게소마산방향)","jibunAddress":"","phone":"","foodType":"","mainFood":"","designatedDate":"2025-05-18","lat":37.018103937,"lng":127.864901052,"region":"충청북도","source":"safefood","safeFoodGrade":"매우우수","safeFoodCertNo":"HG210004225"},{"id":"safefood-chungbuk-HG250639537","name":"던킨도너츠충북도청점","address":"충청북도 청주시 상당구 상당로 73(1층 북문로1가)","jibunAddress":"","phone":"","foodType":"","mainFood":"","designatedDate":"2025-09-19","lat":36.631839774,"lng":127.48782484,"region":"충청북도","source":"safefood","safeFoodGrade":"매우우수","safeFoodCertNo":"HG250639537"},{"id":"safefood-chungbuk-HG250638957","name":"투썸플레이스 충북혁신중앙점","address":"충청북도 음성군 맹동면 장성로 107(1층 101호)","jibunAddress":"","phone":"","foodType":"","mainFood":"","designatedDate":"2025-09-08","lat":36.922916445,"lng":127.534706619,"region":"충청북도","source":"safefood","safeFoodGrade":"매우우수","safeFoodCertNo":"HG250638957"},{"id":"safefood-chungbuk-HG250639920","name":"투썸플레이스 청주오스코점","address":"충청북도 청주시 흥덕구 오송읍 만수리 275-5 오스코 1층 일부호","jibunAddress":"","phone":"","foodType":"","mainFood":"","designatedDate":"2025-09-29","lat":36.62671822,"lng":127.43327635,"region":"충청북도","source":"safefood","safeFoodGrade":"매우우수","safeFoodCertNo":"HG250639920"},{"id":"safefood-chungbuk-HG210010038","name":"이디야커피 증평송산점","address":"충청북도 증평군 증평읍 송산로1길 17-25(1층 101호)","jibunAddress":"","phone":"","foodType":"","mainFood":"","designatedDate":"2025-10-26","lat":36.786374633,"lng":127.583602878,"region":"충청북도","source":"safefood","safeFoodGrade":"매우우수","safeFoodCertNo":"HG210010038"},{"id":"safefood-chungbuk-HG250639533","name":"단토리 충북지사","address":"충청북도 청주시 서원구 내수동로108번길 27(1층 사창동)","jibunAddress":"","phone":"","foodType":"","mainFood":"","designatedDate":"2025-09-19","lat":36.608434883,"lng":127.449013669,"region":"충청북도","source":"safefood","safeFoodGrade":"우수","safeFoodCertNo":"HG250639533"},{"id":"safefood-chungbuk-HG250639914","name":"고깃집일번가","address":"충청북도 청주시 흥덕구 오송읍 오송생명13로 39(1층 일부호)","jibunAddress":"","phone":"","foodType":"","mainFood":"","designatedDate":"2025-09-29","lat":36.62671822,"lng":127.43327635,"region":"충청북도","source":"safefood","safeFoodGrade":"매우우수","safeFoodCertNo":"HG250639914"},{"id":"safefood-chungbuk-HG210010058","name":"롯데리아서충주신도시점","address":"충청북도 충주시 중앙탑면 기업도시로 222(서충주메디컬타워 2층 202,203,204호)","jibunAddress":"","phone":"","foodType":"","mainFood":"","designatedDate":"2025-10-26","lat":37.018103937,"lng":127.864901052,"region":"충청북도","source":"safefood","safeFoodGrade":"매우우수","safeFoodCertNo":"HG210010058"},{"id":"safefood-chungbuk-HG190001858","name":"스타벅스 청주서문점","address":"충청북도 청주시 상당구 무심동로392번길 20(서문동, 1층)","jibunAddress":"","phone":"","foodType":"","mainFood":"","designatedDate":"2025-11-25","lat":36.631839774,"lng":127.48782484,"region":"충청북도","source":"safefood","safeFoodGrade":"매우우수","safeFoodCertNo":"HG190001858"},{"id":"safefood-chungbuk-HG250638946","name":"메가엠지씨커피 청주용담우미린점","address":"충청북도 청주시 상당구 수영로 357(1층 일부호 용담동)","jibunAddress":"","phone":"","foodType":"","mainFood":"","designatedDate":"2025-09-08","lat":36.631839774,"lng":127.48782484,"region":"충청북도","source":"safefood","safeFoodGrade":"매우우수","safeFoodCertNo":"HG250638946"},{"id":"safefood-chungbuk-HG190002015","name":"스타벅스커피 오창호수공원점","address":"충청북도 청주시 청원구 오창읍 중심상업1로 20(101~104호 LK트리플렉스2)","jibunAddress":"","phone":"","foodType":"","mainFood":"","designatedDate":"2025-11-26","lat":36.648042748,"lng":127.482584946,"region":"충청북도","source":"safefood","safeFoodGrade":"매우우수","safeFoodCertNo":"HG190002015"},{"id":"safefood-chungbuk-HG250639886","name":"오송역3층 던킨도너츠","address":"충청북도 청주시 흥덕구 오송읍 오송가락로 123(오송역 3층 일부호)","jibunAddress":"","phone":"","foodType":"","mainFood":"","designatedDate":"2025-09-29","lat":36.62671822,"lng":127.43327635,"region":"충청북도","source":"safefood","safeFoodGrade":"매우우수","safeFoodCertNo":"HG250639886"},{"id":"safefood-chungbuk-HG250638937","name":"명랑핫도그 청주동남지구점","address":"충청북도 청주시 상당구 중고개로142번길 32-30(104호 용암동)","jibunAddress":"","phone":"","foodType":"","mainFood":"","designatedDate":"2025-09-08","lat":36.631839774,"lng":127.48782484,"region":"충청북도","source":"safefood","safeFoodGrade":"매우우수","safeFoodCertNo":"HG250638937"},{"id":"safefood-chungbuk-HG210010067","name":"배스킨라빈스(청주테크노폴리스점)","address":"충청북도 청주시 흥덕구 송화로 180(1층 102,103호 송절동)","jibunAddress":"","phone":"","foodType":"","mainFood":"","designatedDate":"2025-10-26","lat":36.62671822,"lng":127.43327635,"region":"충청북도","source":"safefood","safeFoodGrade":"매우우수","safeFoodCertNo":"HG210010067"},{"id":"safefood-chungbuk-HG250638934","name":"본죽엔비빔밥오창2지구점","address":"충청북도 청주시 청원구 오창읍 2산단로 138(101호)","jibunAddress":"","phone":"","foodType":"","mainFood":"","designatedDate":"2025-09-08","lat":36.648042748,"lng":127.482584946,"region":"충청북도","source":"safefood","safeFoodGrade":"매우우수","safeFoodCertNo":"HG250638934"},{"id":"safefood-chungbuk-HG250638933","name":"본죽&비빔밥(산남법원점)","address":"충청북도 청주시 서원구 산남로 64(1층 108호 산남동)","jibunAddress":"","phone":"","foodType":"","mainFood":"","designatedDate":"2025-09-08","lat":36.608434883,"lng":127.449013669,"region":"충청북도","source":"safefood","safeFoodGrade":"매우우수","safeFoodCertNo":"HG250638933"},{"id":"safefood-chungbuk-HG250640110","name":"맘스터치앤피자 공군사관학교점","address":"충청북도 청주시 상당구 남일면 송암리 245 병사식당 2층","jibunAddress":"","phone":"","foodType":"","mainFood":"","designatedDate":"2025-10-13","lat":36.631839774,"lng":127.48782484,"region":"충청북도","source":"safefood","safeFoodGrade":"매우우수","safeFoodCertNo":"HG250640110"},{"id":"safefood-chungbuk-HG250639645","name":"맘스터치피자앤치킨 오송2지구점","address":"충청북도 청주시 흥덕구 오송읍 봉산2길 19-4(1층 101호 일부호)","jibunAddress":"","phone":"","foodType":"","mainFood":"","designatedDate":"2025-09-23","lat":36.62671822,"lng":127.43327635,"region":"충청북도","source":"safefood","safeFoodGrade":"매우우수","safeFoodCertNo":"HG250639645"},{"id":"safefood-chungbuk-HG250639644","name":"맘스터치 오송2지구점","address":"충청북도 청주시 흥덕구 오송읍 봉산2길 19-4(1층 101호 일부호)","jibunAddress":"","phone":"","foodType":"","mainFood":"","designatedDate":"2025-09-23","lat":36.62671822,"lng":127.43327635,"region":"충청북도","source":"safefood","safeFoodGrade":"매우우수","safeFoodCertNo":"HG250639644"},{"id":"safefood-chungbuk-HG250639524","name":"맘스터치청주동남지구점","address":"충청북도 청주시 상당구 중고개로 129(1층 101,102호 용암동)","jibunAddress":"","phone":"","foodType":"","mainFood":"","designatedDate":"2025-09-19","lat":36.631839774,"lng":127.48782484,"region":"충청북도","source":"safefood","safeFoodGrade":"매우우수","safeFoodCertNo":"HG250639524"},{"id":"safefood-chungbuk-HG210011233","name":"투썸플레이스 청주테크노폴리스점","address":"충청북도 청주시 흥덕구 송화로 136(1,2층 송절동)","jibunAddress":"","phone":"","foodType":"","mainFood":"","designatedDate":"2025-12-01","lat":36.62671822,"lng":127.43327635,"region":"충청북도","source":"safefood","safeFoodGrade":"매우우수","safeFoodCertNo":"HG210011233"},{"id":"safefood-chungbuk-HG230008522","name":"버거킹 청주터미널점","address":"충청북도 청주시 흥덕구 풍산로 15(1층 1A-001호 가경동)","jibunAddress":"","phone":"","foodType":"","mainFood":"","designatedDate":"2025-11-09","lat":36.62671822,"lng":127.43327635,"region":"충청북도","source":"safefood","safeFoodGrade":"매우우수","safeFoodCertNo":"HG230008522"},{"id":"safefood-chungbuk-HG190001979","name":"스타벅스커피오창과학단지점","address":"충청북도 청주시 청원구 오창읍 과학산업2로 385(파크에비뉴1차 103호)","jibunAddress":"","phone":"","foodType":"","mainFood":"","designatedDate":"2025-11-26","lat":36.648042748,"lng":127.482584946,"region":"충청북도","source":"safefood","safeFoodGrade":"매우우수","safeFoodCertNo":"HG190001979"},{"id":"safefood-chungbuk-HG250638651","name":"국밥이랑 순대랑","address":"충청북도 청주시 흥덕구 풍산로25번길 22(1층 가경동)","jibunAddress":"","phone":"","foodType":"","mainFood":"","designatedDate":"2025-09-02","lat":36.62671822,"lng":127.43327635,"region":"충청북도","source":"safefood","safeFoodGrade":"매우우수","safeFoodCertNo":"HG250638651"},{"id":"safefood-chungbuk-HG250638905","name":"한솥도시락(분평점)","address":"충청북도 청주시 서원구 1순환로1107번길 42(대상테마빌딩 102호 분평동)","jibunAddress":"","phone":"","foodType":"","mainFood":"","designatedDate":"2025-09-08","lat":36.608434883,"lng":127.449013669,"region":"충청북도","source":"safefood","safeFoodGrade":"매우우수","safeFoodCertNo":"HG250638905"},{"id":"safefood-chungbuk-HG250638748","name":"메가엠지씨커피 청주서문점","address":"충청북도 청주시 상당구 상당로81번길 70(1층 일부호 서문동)","jibunAddress":"","phone":"","foodType":"","mainFood":"","designatedDate":"2025-09-04","lat":36.631839774,"lng":127.48782484,"region":"충청북도","source":"safefood","safeFoodGrade":"매우우수","safeFoodCertNo":"HG250638748"},{"id":"safefood-chungbuk-HG250638639","name":"비비큐 송절테크노점","address":"충청북도 청주시 흥덕구 송화로166번길 3(1층 103호 송절동)","jibunAddress":"","phone":"","foodType":"","mainFood":"","designatedDate":"2025-09-02","lat":36.62671822,"lng":127.43327635,"region":"충청북도","source":"safefood","safeFoodGrade":"매우우수","safeFoodCertNo":"HG250638639"},{"id":"safefood-chungbuk-HG250638636","name":"본죽&비빔밥개신점","address":"충청북도 청주시 서원구 복대로 27(캐슬타워 1층 106호 개신동)","jibunAddress":"","phone":"","foodType":"","mainFood":"","designatedDate":"2025-09-02","lat":36.608434883,"lng":127.449013669,"region":"충청북도","source":"safefood","safeFoodGrade":"매우우수","safeFoodCertNo":"HG250638636"},{"id":"safefood-chungbuk-HG250638635","name":"본죽&비빔밥 청주사창점","address":"충청북도 청주시 서원구 사직대로 125-1(1층 사창동)","jibunAddress":"","phone":"","foodType":"","mainFood":"","designatedDate":"2025-09-02","lat":36.608434883,"lng":127.449013669,"region":"충청북도","source":"safefood","safeFoodGrade":"매우우수","safeFoodCertNo":"HG250638635"},{"id":"safefood-chungbuk-HG250638634","name":"본죽&비빔밥 청주성화점","address":"충청북도 청주시 서원구 신화로 38(파워프라자 1층 104호 성화동)","jibunAddress":"","phone":"","foodType":"","mainFood":"","designatedDate":"2025-09-02","lat":36.608434883,"lng":127.449013669,"region":"충청북도","source":"safefood","safeFoodGrade":"매우우수","safeFoodCertNo":"HG250638634"},{"id":"safefood-chungbuk-HG250639634","name":"본죽&비빔밥충북오송점","address":"충청북도 청주시 흥덕구 오송읍 오송생명로 186(오송프라자 105호)","jibunAddress":"","phone":"","foodType":"","mainFood":"","designatedDate":"2025-09-23","lat":36.62671822,"lng":127.43327635,"region":"충청북도","source":"safefood","safeFoodGrade":"매우우수","safeFoodCertNo":"HG250639634"},{"id":"safefood-chungbuk-HG250638633","name":"본죽&비빔밥금천용담점","address":"충청북도 청주시 상당구 산성로98번길 35(용담동)","jibunAddress":"","phone":"","foodType":"","mainFood":"","designatedDate":"2025-09-02","lat":36.631839774,"lng":127.48782484,"region":"충청북도","source":"safefood","safeFoodGrade":"매우우수","safeFoodCertNo":"HG250638633"},{"id":"safefood-chungbuk-HG250638587","name":"교촌치킨 청주지웰시티점","address":"충청북도 청주시 흥덕구 대농로 58(1층 104,105호 복대동)","jibunAddress":"","phone":"","foodType":"","mainFood":"","designatedDate":"2025-09-01","lat":36.62671822,"lng":127.43327635,"region":"충청북도","source":"safefood","safeFoodGrade":"매우우수","safeFoodCertNo":"HG250638587"},{"id":"safefood-chungbuk-HG250638895","name":"투썸플레이스 진천터미널점","address":"충청북도 진천군 진천읍 중앙북1길 3","jibunAddress":"","phone":"","foodType":"","mainFood":"","designatedDate":"2025-09-08","lat":36.853453849,"lng":127.441641542,"region":"충청북도","source":"safefood","safeFoodGrade":"매우우수","safeFoodCertNo":"HG250638895"},{"id":"safefood-chungbuk-HG250638211","name":"씨유(CU)충주연수7단지점","address":"충청북도 충주시 갱고개로 230(충주연수휴먼시아7단지아파트 상가동 1층 103,104호 연수동)","jibunAddress":"","phone":"","foodType":"","mainFood":"","designatedDate":"2025-08-26","lat":36.983495037,"lng":127.939243111,"region":"충청북도","source":"safefood","safeFoodGrade":"매우우수","safeFoodCertNo":"HG250638211"},{"id":"safefood-chungbuk-HG250638572","name":"뚜레쥬르율량점","address":"충청북도 청주시 청원구 율봉로 178(1층 율량동)","jibunAddress":"","phone":"","foodType":"","mainFood":"","designatedDate":"2025-09-01","lat":36.648042748,"lng":127.482584946,"region":"충청북도","source":"safefood","safeFoodGrade":"매우우수","safeFoodCertNo":"HG250638572"},{"id":"safefood-chungbuk-HG250638569","name":"카페 더 청남대","address":"충청북도 청주시 상당구 문의면 청남대길 646(청남대관리사업소 대통령기념관 1층)","jibunAddress":"","phone":"","foodType":"","mainFood":"","designatedDate":"2025-09-01","lat":36.631839774,"lng":127.48782484,"region":"충청북도","source":"safefood","safeFoodGrade":"매우우수","safeFoodCertNo":"HG250638569"},{"id":"safefood-chungbuk-HG230009809","name":"스타벅스 충북도청점","address":"충청북도 청주시 상당구 상당로 66(1층 101,112,113호 문화동)","jibunAddress":"","phone":"","foodType":"","mainFood":"","designatedDate":"2025-12-04","lat":36.631839774,"lng":127.48782484,"region":"충청북도","source":"safefood","safeFoodGrade":"매우우수","safeFoodCertNo":"HG230009809"},{"id":"safefood-chungbuk-HG250637891","name":"티엔띠","address":"충청북도 청주시 흥덕구 2순환로 1225(청주센트럴시티터미널복합 1층 일부호 가경동)","jibunAddress":"","phone":"","foodType":"","mainFood":"","designatedDate":"2025-08-20","lat":36.62671822,"lng":127.43327635,"region":"충청북도","source":"safefood","safeFoodGrade":"매우우수","safeFoodCertNo":"HG250637891"},{"id":"safefood-chungbuk-HG250637890","name":"정담솥밥","address":"충청북도 청주시 흥덕구 2순환로 1225(청주센트럴시티터미널복합 1층 일부호 가경동)","jibunAddress":"","phone":"","foodType":"","mainFood":"","designatedDate":"2025-08-20","lat":36.62671822,"lng":127.43327635,"region":"충청북도","source":"safefood","safeFoodGrade":"매우우수","safeFoodCertNo":"HG250637890"},{"id":"safefood-chungbuk-HG250637889","name":"돈까스1985","address":"충청북도 청주시 흥덕구 2순환로 1225(청주센트럴시티터미널복합 1층 일부호 가경동)","jibunAddress":"","phone":"","foodType":"","mainFood":"","designatedDate":"2025-08-20","lat":36.62671822,"lng":127.43327635,"region":"충청북도","source":"safefood","safeFoodGrade":"매우우수","safeFoodCertNo":"HG250637889"},{"id":"safefood-chungbuk-HG250637888","name":"건강밥상","address":"충청북도 청주시 흥덕구 2순환로 1225(청주센트럴시티터미널복합 1층 일부호 가경동)","jibunAddress":"","phone":"","foodType":"","mainFood":"","designatedDate":"2025-08-20","lat":36.62671822,"lng":127.43327635,"region":"충청북도","source":"safefood","safeFoodGrade":"매우우수","safeFoodCertNo":"HG250637888"},{"id":"safefood-chungbuk-HG190001912","name":"스타벅스 현대충청점","address":"충청북도 청주시 흥덕구 직지대로 308(지하1층 복대동, 현대백화점)","jibunAddress":"","phone":"","foodType":"","mainFood":"","designatedDate":"2025-11-26","lat":36.62671822,"lng":127.43327635,"region":"충청북도","source":"safefood","safeFoodGrade":"매우우수","safeFoodCertNo":"HG190001912"},{"id":"safefood-chungbuk-HG250638200","name":"BHC(비에이치씨) 충북혁신도시점","address":"충청북도 음성군 맹동면 대하로 278","jibunAddress":"","phone":"","foodType":"","mainFood":"","designatedDate":"2025-08-26","lat":36.922916445,"lng":127.534706619,"region":"충청북도","source":"safefood","safeFoodGrade":"매우우수","safeFoodCertNo":"HG250638200"},{"id":"safefood-chungbuk-HG210010057","name":"60계 증평점","address":"충청북도 증평군 증평읍 중앙로10길 8","jibunAddress":"","phone":"","foodType":"","mainFood":"","designatedDate":"2025-10-26","lat":36.786374633,"lng":127.583602878,"region":"충청북도","source":"safefood","safeFoodGrade":"매우우수","safeFoodCertNo":"HG210010057"},{"id":"safefood-chungbuk-HG230007244","name":"(주)파리크라상천등산(평택)휴게소브라더꽈배기","address":"충청북도 충주시 산척면 평택제천고속도로 109","jibunAddress":"","phone":"","foodType":"","mainFood":"","designatedDate":"2025-09-26","lat":37.074400202,"lng":127.993549226,"region":"충청북도","source":"safefood","safeFoodGrade":"매우우수","safeFoodCertNo":"HG230007244"},{"id":"safefood-chungbuk-HG250637882","name":"피자몰 nc청주점","address":"충청북도 청주시 흥덕구 2순환로 1233(드림플러스 지하1층 일부호 가경동)","jibunAddress":"","phone":"","foodType":"","mainFood":"","designatedDate":"2025-08-20","lat":36.62671822,"lng":127.43327635,"region":"충청북도","source":"safefood","safeFoodGrade":"매우우수","safeFoodCertNo":"HG250637882"},{"id":"safefood-chungbuk-HG250637881","name":"(주)써브웨이청주율량점","address":"충청북도 청주시 청원구 충청대로 170(주성동, 1층)","jibunAddress":"","phone":"","foodType":"","mainFood":"","designatedDate":"2025-08-20","lat":36.648042748,"lng":127.482584946,"region":"충청북도","source":"safefood","safeFoodGrade":"매우우수","safeFoodCertNo":"HG250637881"},{"id":"safefood-chungbuk-HG200005093","name":"계룡산업(주)죽암(하)휴게소-전주한옥만두","address":"충청북도 청주시 서원구 현도면 경부고속도로 289(1층)","jibunAddress":"","phone":"","foodType":"","mainFood":"","designatedDate":"2024-08-03","lat":36.608434883,"lng":127.449013669,"region":"충청북도","source":"safefood","safeFoodGrade":"매우우수","safeFoodCertNo":"HG200005093"},{"id":"safefood-chungbuk-HG210009218","name":"대보디앤에스(주) 수호토스트&커피","address":"충청북도 청주시 청원구 오창읍 중부고속도로 21(오창휴게소 통영기점)","jibunAddress":"","phone":"","foodType":"","mainFood":"","designatedDate":"2025-09-28","lat":36.648042748,"lng":127.482584946,"region":"충청북도","source":"safefood","safeFoodGrade":"매우우수","safeFoodCertNo":"HG210009218"},{"id":"safefood-chungbuk-HG210009217","name":"대보디앤에스(주) 오창으뜸꽈배기","address":"충청북도 청주시 청원구 오창읍 중부고속도로 21(오창휴게소 통영기점 주1동 1층)","jibunAddress":"","phone":"","foodType":"","mainFood":"","designatedDate":"2025-09-28","lat":36.648042748,"lng":127.482584946,"region":"충청북도","source":"safefood","safeFoodGrade":"매우우수","safeFoodCertNo":"HG210009217"},{"id":"safefood-chungbuk-HG250638042","name":"비에이치씨치킨 청대점","address":"충청북도 청주시 청원구 중앙로 184(1층 내덕동)","jibunAddress":"","phone":"","foodType":"","mainFood":"","designatedDate":"2025-08-22","lat":36.648042748,"lng":127.482584946,"region":"충청북도","source":"safefood","safeFoodGrade":"매우우수","safeFoodCertNo":"HG250638042"},{"id":"safefood-chungbuk-HG250638183","name":"하이오커피충주칠금점","address":"충청북도 충주시 번영대로 36(춘경빌딩 1층 칠금동)","jibunAddress":"","phone":"","foodType":"","mainFood":"","designatedDate":"2025-08-25","lat":36.987110394,"lng":127.919614214,"region":"충청북도","source":"safefood","safeFoodGrade":"매우우수","safeFoodCertNo":"HG250638183"},{"id":"safefood-chungbuk-HG210011207","name":"스타벅스청주율량DT점","address":"충청북도 청주시 청원구 충청대로107번길 8(율량동, 1~2층)","jibunAddress":"","phone":"","foodType":"","mainFood":"","designatedDate":"2025-12-01","lat":36.648042748,"lng":127.482584946,"region":"충청북도","source":"safefood","safeFoodGrade":"매우우수","safeFoodCertNo":"HG210011207"},{"id":"safefood-chungbuk-HG250637872","name":"비에이치씨(BHC) 청주비하점","address":"충청북도 청주시 흥덕구 비하로42번길 2(1층 101호 비하동)","jibunAddress":"","phone":"","foodType":"","mainFood":"","designatedDate":"2025-08-20","lat":36.62671822,"lng":127.43327635,"region":"충청북도","source":"safefood","safeFoodGrade":"매우우수","safeFoodCertNo":"HG250637872"},{"id":"safefood-chungbuk-HG210009136","name":"이디아 단양중앙점","address":"충청북도 단양군 단양읍 삼봉로 292-1","jibunAddress":"","phone":"","foodType":"","mainFood":"","designatedDate":"2025-09-24","lat":36.988545608,"lng":128.382794271,"region":"충청북도","source":"safefood","safeFoodGrade":"매우우수","safeFoodCertNo":"HG210009136"},{"id":"safefood-chungbuk-HG250638174","name":"(주)바이오시스 금왕(제천)휴게소 열린매장5","address":"충청북도 음성군 금왕읍 평택제천고속도로 70","jibunAddress":"","phone":"","foodType":"","mainFood":"","designatedDate":"2025-08-25","lat":36.984197628,"lng":127.600055259,"region":"충청북도","source":"safefood","safeFoodGrade":"매우우수","safeFoodCertNo":"HG250638174"},{"id":"safefood-chungbuk-HG250638492","name":"교촌치킨(하복대점)","address":"충청북도 청주시 흥덕구 진재로 34(1층 102호 복대동)","jibunAddress":"","phone":"","foodType":"","mainFood":"","designatedDate":"2025-09-01","lat":36.62671822,"lng":127.43327635,"region":"충청북도","source":"safefood","safeFoodGrade":"매우우수","safeFoodCertNo":"HG250638492"},{"id":"safefood-chungbuk-HG230008424","name":"금강휴게소 상행 커피","address":"충청북도 옥천군 동이면 금강로 596","jibunAddress":"","phone":"","foodType":"","mainFood":"","designatedDate":"2025-11-03","lat":36.280368607,"lng":127.671587027,"region":"충청북도","source":"safefood","safeFoodGrade":"매우우수","safeFoodCertNo":"HG230008424"},{"id":"safefood-chungbuk-HG250638029","name":"BHC(비에이치씨) 청주모충점","address":"충청북도 청주시 서원구 쌍샘로 21(1층 모충동)","jibunAddress":"","phone":"","foodType":"","mainFood":"","designatedDate":"2025-08-22","lat":36.608434883,"lng":127.449013669,"region":"충청북도","source":"safefood","safeFoodGrade":"매우우수","safeFoodCertNo":"HG250638029"},{"id":"safefood-chungbuk-HG190001841","name":"스타벅스커피청주용담DT점","address":"충청북도 청주시 상당구 산성로 129(1~2층 용담동)","jibunAddress":"","phone":"","foodType":"","mainFood":"","designatedDate":"2025-11-25","lat":36.631839774,"lng":127.48782484,"region":"충청북도","source":"safefood","safeFoodGrade":"매우우수","safeFoodCertNo":"HG190001841"},{"id":"safefood-chungbuk-HG250638354","name":"맘스터치장락점","address":"충청북도 제천시 신죽하로 53(장락동)","jibunAddress":"","phone":"","foodType":"","mainFood":"","designatedDate":"2025-08-28","lat":37.159967505,"lng":128.226241409,"region":"충청북도","source":"safefood","safeFoodGrade":"매우우수","safeFoodCertNo":"HG250638354"},{"id":"safefood-chungbuk-HG250638015","name":"맘스터치용암점","address":"충청북도 청주시 상당구 낙영로24번길 24(1층 용암동)","jibunAddress":"","phone":"","foodType":"","mainFood":"","designatedDate":"2025-08-22","lat":36.631839774,"lng":127.48782484,"region":"충청북도","source":"safefood","safeFoodGrade":"매우우수","safeFoodCertNo":"HG250638015"},{"id":"safefood-chungbuk-HG250637221","name":"타이거릴리","address":"충청북도 청주시 흥덕구 2순환로 1225(청주센트럴시티터미널복합 4층 일부호 가경동)","jibunAddress":"","phone":"","foodType":"","mainFood":"","designatedDate":"2025-08-05","lat":36.62671822,"lng":127.43327635,"region":"충청북도","source":"safefood","safeFoodGrade":"매우우수","safeFoodCertNo":"HG250637221"},{"id":"safefood-chungbuk-HG250638606","name":"휴고스커피(HUGOSS COFFEE)","address":"충청북도 청주시 흥덕구 유성로29번길 32(1,2층 수의동)","jibunAddress":"","phone":"","foodType":"","mainFood":"","designatedDate":"2025-09-02","lat":36.62671822,"lng":127.43327635,"region":"충청북도","source":"safefood","safeFoodGrade":"매우우수","safeFoodCertNo":"HG250638606"},{"id":"safefood-chungbuk-HG210008847","name":"교촌치킨 청주사천점","address":"충청북도 청주시 청원구 사뜸로 29(1층 율량동)","jibunAddress":"","phone":"","foodType":"","mainFood":"","designatedDate":"2025-09-13","lat":36.648042748,"lng":127.482584946,"region":"충청북도","source":"safefood","safeFoodGrade":"매우우수","safeFoodCertNo":"HG210008847"},{"id":"safefood-chungbuk-HG250637726","name":"카페,봄날","address":"충청북도 청주시 상당구 우암산로41번길 21(김수현 드라마 아트홀 2층 수동)","jibunAddress":"","phone":"","foodType":"","mainFood":"","designatedDate":"2025-08-18","lat":36.631839774,"lng":127.48782484,"region":"충청북도","source":"safefood","safeFoodGrade":"매우우수","safeFoodCertNo":"HG250637726"},{"id":"safefood-chungbuk-HG250637210","name":"투썸플레이스 청주오창중부점","address":"충청북도 청주시 청원구 오창읍 양청송대길 5(1~2층 101, 201호)","jibunAddress":"","phone":"","foodType":"","mainFood":"","designatedDate":"2025-08-05","lat":36.648042748,"lng":127.482584946,"region":"충청북도","source":"safefood","safeFoodGrade":"매우우수","safeFoodCertNo":"HG250637210"},{"id":"safefood-chungbuk-HG250637724","name":"여기정","address":"충청북도 청주시 흥덕구 직지대로 649(2~3층 봉명동)","jibunAddress":"","phone":"","foodType":"","mainFood":"","designatedDate":"2025-08-18","lat":36.62671822,"lng":127.43327635,"region":"충청북도","source":"safefood","safeFoodGrade":"좋음","safeFoodCertNo":"HG250637724"},{"id":"safefood-chungbuk-HG250637195","name":"스타벅스 커넥트현대청주","address":"충청북도 청주시 흥덕구 2순환로 1225(청주센트럴시티터미널복합 1층 일부호 가경동)","jibunAddress":"","phone":"","foodType":"","mainFood":"","designatedDate":"2025-08-05","lat":36.62671822,"lng":127.43327635,"region":"충청북도","source":"safefood","safeFoodGrade":"매우우수","safeFoodCertNo":"HG250637195"},{"id":"safefood-chungbuk-HG230007039","name":"투썸플레이스 청주옥산점","address":"충청북도 청주시 흥덕구 옥산면 청주역로 603(1~2층)","jibunAddress":"","phone":"","foodType":"","mainFood":"","designatedDate":"2025-09-19","lat":36.62671822,"lng":127.43327635,"region":"충청북도","source":"safefood","safeFoodGrade":"매우우수","safeFoodCertNo":"HG230007039"},{"id":"safefood-chungbuk-HG210010120","name":"백미당 현대 청주점","address":"충청북도 청주시 흥덕구 직지대로 308(현대백화점 지하1층 복대동)","jibunAddress":"","phone":"","foodType":"","mainFood":"","designatedDate":"2025-10-27","lat":36.62671822,"lng":127.43327635,"region":"충청북도","source":"safefood","safeFoodGrade":"매우우수","safeFoodCertNo":"HG210010120"},{"id":"safefood-chungbuk-HG210009873","name":"브라더 꽈배기","address":"충청북도 청주시 흥덕구 옥산면 경부고속도로 318(청주휴게소 A동 1층 일부호)","jibunAddress":"","phone":"","foodType":"","mainFood":"","designatedDate":"2025-10-20","lat":36.62671822,"lng":127.43327635,"region":"충청북도","source":"safefood","safeFoodGrade":"매우우수","safeFoodCertNo":"HG210009873"},{"id":"safefood-chungbuk-HG210009870","name":"심스커피 청주휴게소점","address":"충청북도 청주시 흥덕구 옥산면 경부고속도로 318(A동 1층 청주상휴게소)","jibunAddress":"","phone":"","foodType":"","mainFood":"","designatedDate":"2025-10-20","lat":36.62671822,"lng":127.43327635,"region":"충청북도","source":"safefood","safeFoodGrade":"매우우수","safeFoodCertNo":"HG210009870"},{"id":"safefood-chungbuk-HG210009864","name":"열린매장(2)","address":"충청북도 청주시 흥덕구 옥산면 경부고속도로 318(청주휴게소 A동 1층 일부호)","jibunAddress":"","phone":"","foodType":"","mainFood":"","designatedDate":"2025-10-20","lat":36.62671822,"lng":127.43327635,"region":"충청북도","source":"safefood","safeFoodGrade":"매우우수","safeFoodCertNo":"HG210009864"},{"id":"safefood-chungbuk-HG210009863","name":"열린매장(1)","address":"충청북도 청주시 흥덕구 옥산면 경부고속도로 318(청주휴게소 A동 1층 일부호)","jibunAddress":"","phone":"","foodType":"","mainFood":"","designatedDate":"2025-10-20","lat":36.62671822,"lng":127.43327635,"region":"충청북도","source":"safefood","safeFoodGrade":"매우우수","safeFoodCertNo":"HG210009863"},{"id":"safefood-chungbuk-HG210009865","name":"한식당","address":"충청북도 청주시 흥덕구 옥산면 경부고속도로 318(A동 1층 청주상휴게소)","jibunAddress":"","phone":"","foodType":"","mainFood":"","designatedDate":"2025-10-20","lat":36.62671822,"lng":127.43327635,"region":"충청북도","source":"safefood","safeFoodGrade":"매우우수","safeFoodCertNo":"HG210009865"},{"id":"safefood-chungbuk-HG230006560","name":"교촌치킨 운천신봉점","address":"충청북도 청주시 흥덕구 사운로 244-1(1층 운천동)","jibunAddress":"","phone":"","foodType":"","mainFood":"","designatedDate":"2025-09-05","lat":36.62671822,"lng":127.43327635,"region":"충청북도","source":"safefood","safeFoodGrade":"매우우수","safeFoodCertNo":"HG230006560"},{"id":"safefood-chungbuk-HG210008606","name":"교촌치킨 충북옥천점","address":"충청북도 옥천군 옥천읍 문장로 93(1층)","jibunAddress":"","phone":"","foodType":"","mainFood":"","designatedDate":"2025-09-06","lat":36.298231343,"lng":127.574447914,"region":"충청북도","source":"safefood","safeFoodGrade":"매우우수","safeFoodCertNo":"HG210008606"},{"id":"safefood-chungbuk-HG230007744","name":"씨유청주개신하나점","address":"충청북도 청주시 서원구 모충로 40(1층 개신동)","jibunAddress":"","phone":"","foodType":"","mainFood":"","designatedDate":"2025-10-18","lat":36.608434883,"lng":127.449013669,"region":"충청북도","source":"safefood","safeFoodGrade":"매우우수","safeFoodCertNo":"HG230007744"},{"id":"safefood-chungbuk-HG230008058","name":"씨유 청주내수로점","address":"충청북도 청주시 청원구 내수읍 내수로 585(1층)","jibunAddress":"","phone":"","foodType":"","mainFood":"","designatedDate":"2025-10-30","lat":36.648042748,"lng":127.482584946,"region":"충청북도","source":"safefood","safeFoodGrade":"매우우수","safeFoodCertNo":"HG230008058"},{"id":"safefood-chungbuk-HG210009316","name":"베스킨라빈스용암점","address":"충청북도 청주시 상당구 중흥로 54(용암동, 1층)","jibunAddress":"","phone":"","foodType":"","mainFood":"","designatedDate":"2025-10-01","lat":36.631839774,"lng":127.48782484,"region":"충청북도","source":"safefood","safeFoodGrade":"매우우수","safeFoodCertNo":"HG210009316"},{"id":"safefood-chungbuk-HG210009144","name":"배스킨라빈스청주동남점","address":"충청북도 청주시 상당구 중고개로 137(2층 216,217호 용암동)","jibunAddress":"","phone":"","foodType":"","mainFood":"","designatedDate":"2025-09-24","lat":36.631839774,"lng":127.48782484,"region":"충청북도","source":"safefood","safeFoodGrade":"매우우수","safeFoodCertNo":"HG210009144"},{"id":"safefood-chungbuk-HG210008613","name":"베스킨라빈스 옥천점","address":"충청북도 옥천군 옥천읍 중앙로 42-1","jibunAddress":"","phone":"","foodType":"","mainFood":"","designatedDate":"2025-09-06","lat":36.298231343,"lng":127.574447914,"region":"충청북도","source":"safefood","safeFoodGrade":"매우우수","safeFoodCertNo":"HG210008613"},{"id":"safefood-chungbuk-HG250638127","name":"빽다방 충북음성점","address":"충청북도 음성군 음성읍 수정로 55","jibunAddress":"","phone":"","foodType":"","mainFood":"","designatedDate":"2025-08-25","lat":36.936082831,"lng":127.692100185,"region":"충청북도","source":"safefood","safeFoodGrade":"매우우수","safeFoodCertNo":"HG250638127"},{"id":"safefood-chungbuk-HG250637147","name":"파리바게뜨용암효성점","address":"충청북도 청주시 상당구 월평로 225(1층 용암동)","jibunAddress":"","phone":"","foodType":"","mainFood":"","designatedDate":"2025-08-05","lat":36.631839774,"lng":127.48782484,"region":"충청북도","source":"safefood","safeFoodGrade":"매우우수","safeFoodCertNo":"HG250637147"},{"id":"safefood-chungbuk-HG250637126","name":"홈플러스(주)청주성안점","address":"충청북도 청주시 상당구 사직대로 346(서문동,지하)","jibunAddress":"","phone":"","foodType":"","mainFood":"","designatedDate":"2025-08-05","lat":36.631839774,"lng":127.48782484,"region":"충청북도","source":"safefood","safeFoodGrade":"매우우수","safeFoodCertNo":"HG250637126"},{"id":"safefood-chungbuk-HG250637113","name":"홈플러스(주)청주성안점","address":"충청북도 청주시 상당구 사직대로 346(서문동,외27필지지하)","jibunAddress":"","phone":"","foodType":"","mainFood":"","designatedDate":"2025-08-05","lat":36.631839774,"lng":127.48782484,"region":"충청북도","source":"safefood","safeFoodGrade":"매우우수","safeFoodCertNo":"HG250637113"},