[{"id":"safefood-incheon-HG260002569","name":"파리바게뜨 신검단사거리점","address":"인천광역시 서구 검단로 488(마전동)","jibunAddress":"","phone":"","foodType":"","mainFood":"","designatedDate":"2026-03-19","lat":37.603355304,"lng":126.660394732,"region":"인천광역시","source":"safefood","safeFoodGrade":"적합","safeFoodCertNo":"HG260002569"},{"id":"safefood-incheon-HG260002511","name":"컴포즈인천청라중앙점","address":"인천광역시 서구 청라커낼로260번길 11(진성프라자 114호 청라동)","jibunAddress":"","phone":"","foodType":"","mainFood":"","designatedDate":"2026-03-17","lat":37.532082386,"lng":126.646369054,"region":"인천광역시","source":"safefood","safeFoodGrade":"적합","safeFoodCertNo":"HG260002511"},{"id":"safefood-incheon-HG260002498","name":"신주옥미 검단점","address":"인천광역시 서구 서곶로 788(홀리랜드 105,106호 당하동)","jibunAddress":"","phone":"","foodType":"","mainFood":"","designatedDate":"2026-03-17","lat":37.544076374,"lng":126.677163032,"region":"인천광역시","source":"safefood","safeFoodGrade":"적합","safeFoodCertNo":"HG260002498"},{"id":"safefood-incheon-HG260002679","name":"컴포즈커피 인천루원지웰시티점","address":"인천광역시 서구 가정로 406(상가 c동 104호 가정동, 루원지웰시티푸르지오)","jibunAddress":"","phone":"","foodType":"","mainFood":"","designatedDate":"2026-03-20","lat":37.504511236,"lng":126.671915038,"region":"인천광역시","source":"safefood","safeFoodGrade":"적합","safeFoodCertNo":"HG260002679"},{"id":"safefood-incheon-HG260002678","name":"넉넉피자 루원시티점","address":"인천광역시 서구 가정로 437(306동 1층 151호 가정동, 루원시티 SK Leaders` VIEW)","jibunAddress":"","phone":"","foodType":"","mainFood":"","designatedDate":"2026-03-20","lat":37.504511236,"lng":126.671915038,"region":"인천광역시","source":"safefood","safeFoodGrade":"적합","safeFoodCertNo":"HG260002678"},{"id":"safefood-incheon-HG260003094","name":"불타는한우","address":"인천광역시 계양구 계양문화로 54(계산동,대산월드프라자 107.108호)","jibunAddress":"","phone":"","foodType":"","mainFood":"","designatedDate":"2026-04-01","lat":37.535801556,"lng":126.736323002,"region":"인천광역시","source":"safefood","safeFoodGrade":"적합","safeFoodCertNo":"HG260003094"},{"id":"safefood-incheon-HG260003093","name":"파파존스계양점","address":"인천광역시 계양구 계양문화로 119(1층 108호 용종동, 인천 계양 코아루 센트럴파크)","jibunAddress":"","phone":"","foodType":"","mainFood":"","designatedDate":"2026-04-01","lat":37.535801556,"lng":126.736323002,"region":"인천광역시","source":"safefood","safeFoodGrade":"적합","safeFoodCertNo":"HG260003093"},{"id":"safefood-incheon-HG260003090","name":"갈비구락부","address":"인천광역시 계양구 도두리로 25(계산동,101,102호)","jibunAddress":"","phone":"","foodType":"","mainFood":"","designatedDate":"2026-04-01","lat":37.534086589,"lng":126.738093471,"region":"인천광역시","source":"safefood","safeFoodGrade":"적합","safeFoodCertNo":"HG260003090"},{"id":"safefood-incheon-HG260003187","name":"파리바게트","address":"인천광역시 부평구 세월천로 44(1층 청천동)","jibunAddress":"","phone":"","foodType":"","mainFood":"","designatedDate":"2026-04-03","lat":37.513235902,"lng":126.705627343,"region":"인천광역시","source":"safefood","safeFoodGrade":"적합","safeFoodCertNo":"HG260003187"},{"id":"safefood-incheon-HG260003113","name":"헬키푸키 부평시장역점","address":"인천광역시 부평구 대정로 7(부평한라비발디 1층 115호 부평동)","jibunAddress":"","phone":"","foodType":"","mainFood":"","designatedDate":"2026-04-01","lat":37.497449839,"lng":126.724000943,"region":"인천광역시","source":"safefood","safeFoodGrade":"적합","safeFoodCertNo":"HG260003113"},{"id":"safefood-incheon-HG260003188","name":"본죽&비빔밥 간석남부역점","address":"인천광역시 남동구 주안로 231(1층 간석동)","jibunAddress":"","phone":"","foodType":"","mainFood":"","designatedDate":"2026-04-03","lat":37.463645877,"lng":126.699646109,"region":"인천광역시","source":"safefood","safeFoodGrade":"적합","safeFoodCertNo":"HG260003188"},{"id":"safefood-incheon-HG260003089","name":"모심갈비","address":"인천광역시 남동구 용천로97번길 3(2층 구월동, 우정프라자)","jibunAddress":"","phone":"","foodType":"","mainFood":"","designatedDate":"2026-04-01","lat":37.458085201,"lng":126.714631644,"region":"인천광역시","source":"safefood","safeFoodGrade":"적합","safeFoodCertNo":"HG260003089"},{"id":"safefood-incheon-HG260002990","name":"고가뫼고쌈냉면","address":"인천광역시 남동구 복개서로89번길 40(구월동, 1층)","jibunAddress":"","phone":"","foodType":"","mainFood":"","designatedDate":"2026-03-31","lat":37.455086135,"lng":126.720989983,"region":"인천광역시","source":"safefood","safeFoodGrade":"적합","safeFoodCertNo":"HG260002990"},{"id":"safefood-incheon-HG260002989","name":"송정가든","address":"인천광역시 남동구 성말로 16(101,102,103호 구월동, 신현파크프라자)","jibunAddress":"","phone":"","foodType":"","mainFood":"","designatedDate":"2026-03-31","lat":37.445133271,"lng":126.702228284,"region":"인천광역시","source":"safefood","safeFoodGrade":"적합","safeFoodCertNo":"HG260002989"},{"id":"safefood-incheon-HG260002965","name":"(주)정정당당 화로구이","address":"인천광역시 남동구 백범로 182(만수동,1층, 2층)","jibunAddress":"","phone":"","foodType":"","mainFood":"","designatedDate":"2026-03-30","lat":37.458699587,"lng":126.72724216,"region":"인천광역시","source":"safefood","safeFoodGrade":"적합","safeFoodCertNo":"HG260002965"},{"id":"safefood-incheon-HG220001993","name":"60계치킨 동춘점","address":"인천광역시 연수구 먼우금로 88(상산빌딩 106호 동춘동)","jibunAddress":"","phone":"","foodType":"","mainFood":"","designatedDate":"2026-03-30","lat":37.41578461,"lng":126.677403821,"region":"인천광역시","source":"safefood","safeFoodGrade":"적합","safeFoodCertNo":"HG220001993"},{"id":"safefood-incheon-HG240002213","name":"호식이두마리치킨 인천학익점","address":"인천광역시 미추홀구 매소홀로 482(대림타운 1층 105호 학익동)","jibunAddress":"","phone":"","foodType":"","mainFood":"","designatedDate":"2026-04-04","lat":37.449405871,"lng":126.634391099,"region":"인천광역시","source":"safefood","safeFoodGrade":"적합","safeFoodCertNo":"HG240002213"},{"id":"safefood-incheon-HG220002163","name":"CAFE HIVE(카페 하이브)","address":"인천광역시 동구 금곡로 32(1층 금곡동)","jibunAddress":"","phone":"","foodType":"","mainFood":"","designatedDate":"2026-04-04","lat":37.473254761,"lng":126.641805902,"region":"인천광역시","source":"safefood","safeFoodGrade":"적합","safeFoodCertNo":"HG220002163"},{"id":"safefood-incheon-HG180000768","name":"온더플레이트(On the plate)","address":"인천광역시 중구 영종해안남로321번길 186(1층 운서동, 파라다이스시티)","jibunAddress":"","phone":"","foodType":"","mainFood":"","designatedDate":"2024-09-27","lat":37.438028,"lng":126.456713,"region":"인천광역시","source":"safefood","safeFoodGrade":"매우우수","safeFoodCertNo":"HG180000768"},{"id":"safefood-incheon-HG220002179","name":"더벤티호구포역점","address":"인천광역시 남동구 호구포로 210(세움프라자 1층 101호 논현동)","jibunAddress":"","phone":"","foodType":"","mainFood":"","designatedDate":"2026-04-04","lat":37.40198551,"lng":126.710070462,"region":"인천광역시","source":"safefood","safeFoodGrade":"매우우수","safeFoodCertNo":"HG220002179"},{"id":"safefood-incheon-HG220005929","name":"스타벅스송도캠퍼스타운역","address":"인천광역시 연수구 송도과학로27번길 55(송도동, 롯데캐슬캠퍼스타운 A-101,102,103,121,122)","jibunAddress":"","phone":"","foodType":"","mainFood":"","designatedDate":"2024-07-22","lat":37.3879630465081,"lng":126.667249614783,"region":"인천광역시","source":"safefood","safeFoodGrade":"매우우수","safeFoodCertNo":"HG220005929"},{"id":"safefood-incheon-HG260002070","name":"투썸플레이스 화도점","address":"인천광역시 강화군 화도면 해안남로 1812-3","jibunAddress":"","phone":"","foodType":"","mainFood":"","designatedDate":"2026-03-10","lat":37.610915137,"lng":126.456385159,"region":"인천광역시","source":"safefood","safeFoodGrade":"매우우수","safeFoodCertNo":"HG260002070"},{"id":"safefood-incheon-HG200008270","name":"롯데쇼핑(주)롯데마트계양점","address":"인천광역시 계양구 장제로 822(2층 계산동, 롯데마트 계양점)","jibunAddress":"","phone":"","foodType":"","mainFood":"","designatedDate":"2024-11-03","lat":37.54508754,"lng":126.738277999,"region":"인천광역시","source":"safefood","safeFoodGrade":"매우우수","safeFoodCertNo":"HG200008270"},{"id":"safefood-incheon-HG220010330","name":"델리","address":"인천광역시 중구 영종해안남로321번길 208(1층 운서동)","jibunAddress":"","phone":"","foodType":"","mainFood":"","designatedDate":"2024-11-24","lat":37.438028,"lng":126.456713,"region":"인천광역시","source":"safefood","safeFoodGrade":"매우우수","safeFoodCertNo":"HG220010330"},{"id":"safefood-incheon-HG220010375","name":"카페 에잇","address":"인천광역시 중구 영종해안남로321번길 208(그랜드하얏트인천 이스트타워 1층 운서동)","jibunAddress":"","phone":"","foodType":"","mainFood":"","designatedDate":"2024-11-24","lat":37.438028,"lng":126.456713,"region":"인천광역시","source":"safefood","safeFoodGrade":"매우우수","safeFoodCertNo":"HG220010375"},{"id":"safefood-incheon-HG220010276","name":"에잇","address":"인천광역시 중구 영종해안남로321번길 208(지상1층,지하1층 운서동)","jibunAddress":"","phone":"","foodType":"","mainFood":"","designatedDate":"2024-11-24","lat":37.438028,"lng":126.456713,"region":"인천광역시","source":"safefood","safeFoodGrade":"매우우수","safeFoodCertNo":"HG220010276"},{"id":"safefood-incheon-HG200000818","name":"이디야커피 인천도화제일점","address":"인천광역시 미추홀구 경인로 314(스타뷰 101,102호 도화동)","jibunAddress":"","phone":"","foodType":"","mainFood":"","designatedDate":"2026-03-16","lat":37.459641901,"lng":126.693298803,"region":"인천광역시","source":"safefood","safeFoodGrade":"매우우수","safeFoodCertNo":"HG200000818"},{"id":"safefood-incheon-HG250642877","name":"자담치킨 도화제일점","address":"인천광역시 미추홀구 제일로 31(삼라마이다스 1층 112호 도화동)","jibunAddress":"","phone":"","foodType":"","mainFood":"","designatedDate":"2025-12-15","lat":37.459335829,"lng":126.673842073,"region":"인천광역시","source":"safefood","safeFoodGrade":"우수","safeFoodCertNo":"HG250642877"},{"id":"safefood-incheon-HG240001630","name":"가회동샤브칼국수(송도컨벤시아점)","address":"인천광역시 연수구 센트럴로 123(송도컨벤시아 1층 M23,24호 송도동)","jibunAddress":"","phone":"","foodType":"","mainFood":"","designatedDate":"2026-03-20","lat":37.386713129,"lng":126.645727213,"region":"인천광역시","source":"safefood","safeFoodGrade":"매우우수","safeFoodCertNo":"HG240001630"},{"id":"safefood-incheon-HG200004181","name":"주식회사 롯데쇼핑","address":"인천광역시 부평구 광장로 16(부평동,롯데마트 3층)","jibunAddress":"","phone":"","foodType":"","mainFood":"","designatedDate":"2024-07-06","lat":37.490392871,"lng":126.72486251,"region":"인천광역시","source":"safefood","safeFoodGrade":"매우우수","safeFoodCertNo":"HG200004181"},{"id":"safefood-incheon-HG260002463","name":"청년피자 루원시티가정점","address":"인천광역시 서구 서곶로 45(제근린생활시설동 제지1층 제비051호 가정동, 루원 린스트라우스 더 린시티)","jibunAddress":"","phone":"","foodType":"","mainFood":"","designatedDate":"2026-03-12","lat":37.544076374,"lng":126.677163032,"region":"인천광역시","source":"safefood","safeFoodGrade":"매우우수","safeFoodCertNo":"HG260002463"},{"id":"safefood-incheon-HG220001948","name":"60계 부평점","address":"인천광역시 부평구 부평문화로 37(에이동 지하5호 부평동, 동아아파트상가)","jibunAddress":"","phone":"","foodType":"","mainFood":"","designatedDate":"2026-03-28","lat":37.494322652,"lng":126.728899009,"region":"인천광역시","source":"safefood","safeFoodGrade":"매우우수","safeFoodCertNo":"HG220001948"},{"id":"safefood-incheon-HG240001800","name":"애슐리퀸즈 루원시티 인천점","address":"인천광역시 서구 서곶로 45(근린생활시설동 B094,B095,B096호 가정동, 루원 린스트라우스 더 린시티)","jibunAddress":"","phone":"","foodType":"","mainFood":"","designatedDate":"2026-03-25","lat":37.544076374,"lng":126.677163032,"region":"인천광역시","source":"safefood","safeFoodGrade":"매우우수","safeFoodCertNo":"HG240001800"},{"id":"safefood-incheon-HG260002267","name":"파리바게트(숭의점)","address":"인천광역시 미추홀구 독배로 433(103호 용현동)","jibunAddress":"","phone":"","foodType":"","mainFood":"","designatedDate":"2026-03-11","lat":37.455935743,"lng":126.649556299,"region":"인천광역시","source":"safefood","safeFoodGrade":"매우우수","safeFoodCertNo":"HG260002267"},{"id":"safefood-incheon-HG260001093","name":"국화호수","address":"인천광역시 강화군 강화읍 강화대로440번길 5(1층)","jibunAddress":"","phone":"","foodType":"","mainFood":"","designatedDate":"2026-02-02","lat":37.747843903,"lng":126.484888264,"region":"인천광역시","source":"safefood","safeFoodGrade":"매우우수","safeFoodCertNo":"HG260001093"},{"id":"safefood-incheon-HG260001923","name":"햄버거 대마왕 선원면점","address":"인천광역시 강화군 선원면 중앙로 218(1층)","jibunAddress":"","phone":"","foodType":"","mainFood":"","designatedDate":"2026-03-10","lat":37.721621012,"lng":126.512918295,"region":"인천광역시","source":"safefood","safeFoodGrade":"매우우수","safeFoodCertNo":"HG260001923"},{"id":"safefood-incheon-HG260001904","name":"메가엠지씨커피 간석스카이타운점","address":"인천광역시 남동구 남동대로916번길 6(1층 103-1호 간석동, 스카이타운)","jibunAddress":"","phone":"","foodType":"","mainFood":"","designatedDate":"2026-03-10","lat":37.463590793,"lng":126.711262583,"region":"인천광역시","source":"safefood","safeFoodGrade":"매우우수","safeFoodCertNo":"HG260001904"},{"id":"safefood-incheon-HG220002091","name":"배스킨라빈스 학익 신동아점","address":"인천광역시 미추홀구 매소홀로 470(1층 103,104호 학익동)","jibunAddress":"","phone":"","foodType":"","mainFood":"","designatedDate":"2026-04-04","lat":37.449405871,"lng":126.634391099,"region":"인천광역시","source":"safefood","safeFoodGrade":"매우우수","safeFoodCertNo":"HG220002091"},{"id":"safefood-incheon-HG260002224","name":"컴포즈커피 월미짱랜드점","address":"인천광역시 중구 월미문화로 81(1층 101호 북성동1가)","jibunAddress":"","phone":"","foodType":"","mainFood":"","designatedDate":"2026-03-11","lat":37.474473094,"lng":126.597440388,"region":"인천광역시","source":"safefood","safeFoodGrade":"매우우수","safeFoodCertNo":"HG260002224"},{"id":"safefood-incheon-HG260001854","name":"메가엠지씨커피 인천동춘사거리점","address":"인천광역시 연수구 먼우금로 126(상가동 지상1층 116호 동춘동, 현대대림2차아파트)","jibunAddress":"","phone":"","foodType":"","mainFood":"","designatedDate":"2026-03-10","lat":37.41578461,"lng":126.677403821,"region":"인천광역시","source":"safefood","safeFoodGrade":"매우우수","safeFoodCertNo":"HG260001854"},{"id":"safefood-incheon-HG260001807","name":"청년피자 인천도화점","address":"인천광역시 미추홀구 경인로 306(올레오 1층 105호 도화동)","jibunAddress":"","phone":"","foodType":"","mainFood":"","designatedDate":"2026-03-10","lat":37.459641901,"lng":126.693298803,"region":"인천광역시","source":"safefood","safeFoodGrade":"매우우수","safeFoodCertNo":"HG260001807"},{"id":"safefood-incheon-HG220000849","name":"신선설농탕 부평점","address":"인천광역시 부평구 장제로 206(부평동)","jibunAddress":"","phone":"","foodType":"","mainFood":"","designatedDate":"2026-02-15","lat":37.503790091,"lng":126.731298309,"region":"인천광역시","source":"safefood","safeFoodGrade":"매우우수","safeFoodCertNo":"HG220000849"},{"id":"safefood-incheon-HG260001562","name":"컴포즈커피 인천서구청점","address":"인천광역시 서구 서곶로315번길 13(심곡동)","jibunAddress":"","phone":"","foodType":"","mainFood":"","designatedDate":"2026-02-20","lat":37.545970056,"lng":126.675277105,"region":"인천광역시","source":"safefood","safeFoodGrade":"매우우수","safeFoodCertNo":"HG260001562"},{"id":"safefood-incheon-HG260001678","name":"스타벅스 인천장제로점","address":"인천광역시 계양구 장제로 736(1층 102호 작전동)","jibunAddress":"","phone":"","foodType":"","mainFood":"","designatedDate":"2026-02-26","lat":37.54508754,"lng":126.738277999,"region":"인천광역시","source":"safefood","safeFoodGrade":"매우우수","safeFoodCertNo":"HG260001678"},{"id":"safefood-incheon-HG260001384","name":"파리바게뜨구월점","address":"인천광역시 남동구 구월로 278-1(구월동, 1층일부, 2층전체)","jibunAddress":"","phone":"","foodType":"","mainFood":"","designatedDate":"2026-02-12","lat":37.45625372,"lng":126.718041188,"region":"인천광역시","source":"safefood","safeFoodGrade":"매우우수","safeFoodCertNo":"HG260001384"},{"id":"safefood-incheon-HG260001233","name":"파리바게트","address":"인천광역시 서구 가정로 204(석남동,1층 2호)","jibunAddress":"","phone":"","foodType":"","mainFood":"","designatedDate":"2026-02-09","lat":37.504511236,"lng":126.671915038,"region":"인천광역시","source":"safefood","safeFoodGrade":"매우우수","safeFoodCertNo":"HG260001233"},{"id":"safefood-incheon-HG250642977","name":"파리바게트 송림점","address":"인천광역시 동구 샛골로 159(1층 1호 송림동)","jibunAddress":"","phone":"","foodType":"","mainFood":"","designatedDate":"2025-12-15","lat":37.477860942,"lng":126.644753383,"region":"인천광역시","source":"safefood","safeFoodGrade":"매우우수","safeFoodCertNo":"HG250642977"},{"id":"safefood-incheon-HG260001231","name":"파리바게뜨","address":"인천광역시 미추홀구 매소홀로 71(용현동)","jibunAddress":"","phone":"","foodType":"","mainFood":"","designatedDate":"2026-02-09","lat":37.449405871,"lng":126.634391099,"region":"인천광역시","source":"safefood","safeFoodGrade":"매우우수","safeFoodCertNo":"HG260001231"},{"id":"safefood-incheon-HG260001442","name":"컴포즈커피 부평아이즈빌점","address":"인천광역시 부평구 마장로 489(아이즈빌아울렛 1동 1층 1106호 청천동)","jibunAddress":"","phone":"","foodType":"","mainFood":"","designatedDate":"2026-02-13","lat":37.500610042,"lng":126.702451826,"region":"인천광역시","source":"safefood","safeFoodGrade":"우수","safeFoodCertNo":"HG260001442"},{"id":"safefood-incheon-HG260001230","name":"삼미당 주안점","address":"인천광역시 미추홀구 경인로 372(201동 1층 1006호 주안동, 포레나 미추홀)","jibunAddress":"","phone":"","foodType":"","mainFood":"","designatedDate":"2026-02-09","lat":37.459641901,"lng":126.693298803,"region":"인천광역시","source":"safefood","safeFoodGrade":"매우우수","safeFoodCertNo":"HG260001230"},{"id":"safefood-incheon-HG220000785","name":"송도센트럴파크점 파리바게뜨","address":"인천광역시 연수구 센트럴로 194(C동 1층 122,123호 송도동, 더샵센트럴파크)","jibunAddress":"","phone":"","foodType":"","mainFood":"","designatedDate":"2026-02-11","lat":37.386713129,"lng":126.645727213,"region":"인천광역시","source":"safefood","safeFoodGrade":"매우우수","safeFoodCertNo":"HG220000785"},{"id":"safefood-incheon-HG260001077","name":"조 커피 랩(JOE COFFEE LAB)","address":"인천광역시 강화군 강화읍 동문안길 23(1층)","jibunAddress":"","phone":"","foodType":"","mainFood":"","designatedDate":"2026-02-02","lat":37.747843903,"lng":126.484888264,"region":"인천광역시","source":"safefood","safeFoodGrade":"매우우수","safeFoodCertNo":"HG260001077"},{"id":"safefood-incheon-HG240001425","name":"강화질시루 떡카페","address":"인천광역시 강화군 양도면 강화남로 445(3동 1층)","jibunAddress":"","phone":"","foodType":"","mainFood":"","designatedDate":"2026-03-13","lat":37.652008524,"lng":126.46795796,"region":"인천광역시","source":"safefood","safeFoodGrade":"매우우수","safeFoodCertNo":"HG240001425"},{"id":"safefood-incheon-HG260001072","name":"블랙이슈","address":"인천광역시 강화군 강화읍 동문안길 24(1층)","jibunAddress":"","phone":"","foodType":"","mainFood":"","designatedDate":"2026-02-02","lat":37.747843903,"lng":126.484888264,"region":"인천광역시","source":"safefood","safeFoodGrade":"매우우수","safeFoodCertNo":"HG260001072"},{"id":"safefood-incheon-HG260001216","name":"불닭발땡초동대문엽기떡볶이 인천부개점","address":"인천광역시 부평구 동수천로 132(부개빌딩 1층 101호, 102호, 103호 부개동)","jibunAddress":"","phone":"","foodType":"","mainFood":"","designatedDate":"2026-02-09","lat":37.494041152,"lng":126.736955974,"region":"인천광역시","source":"safefood","safeFoodGrade":"매우우수","safeFoodCertNo":"HG260001216"},{"id":"safefood-incheon-HG260001065","name":"버문스버거 주안시민공원역점","address":"인천광역시 미추홀구 경인로 372(201동 1층 1035호 주안동, 포레나 미추홀)","jibunAddress":"","phone":"","foodType":"","mainFood":"","designatedDate":"2026-02-02","lat":37.459641901,"lng":126.693298803,"region":"인천광역시","source":"safefood","safeFoodGrade":"매우우수","safeFoodCertNo":"HG260001065"},{"id":"safefood-incheon-HG260001422","name":"영커피 인천송도디에트르점","address":"인천광역시 연수구 인천타워대로 393(디에트르 송도 시그니처뷰 305동 A-113호 송도동, 디에트르 송도 시그니처뷰)","jibunAddress":"","phone":"","foodType":"","mainFood":"","designatedDate":"2026-02-13","lat":37.3937818483729,"lng":126.633289319826,"region":"인천광역시","source":"safefood","safeFoodGrade":"매우우수","safeFoodCertNo":"HG260001422"},{"id":"safefood-incheon-HG260000720","name":"메가엠지씨커피 모래내시장남문점","address":"인천광역시 남동구 구월남로 278(1층 일부호 구월동)","jibunAddress":"","phone":"","foodType":"","mainFood":"","designatedDate":"2026-01-26","lat":37.453374772,"lng":126.706279052,"region":"인천광역시","source":"safefood","safeFoodGrade":"매우우수","safeFoodCertNo":"HG260000720"},{"id":"safefood-incheon-HG260000931","name":"백년손님서서갈비 무한리필 구월점","address":"인천광역시 남동구 인주대로 513(GM빌딩 1층 전체호 구월동)","jibunAddress":"","phone":"","foodType":"","mainFood":"","designatedDate":"2026-01-29","lat":37.448768487,"lng":126.730298919,"region":"인천광역시","source":"safefood","safeFoodGrade":"우수","safeFoodCertNo":"HG260000931"},{"id":"safefood-incheon-HG260001184","name":"계양명가 부대찌개","address":"인천광역시 서구 이음대로 378(로뎀타워 112호 원당동)","jibunAddress":"","phone":"","foodType":"","mainFood":"","designatedDate":"2026-02-09","lat":37.538202285,"lng":126.737539071,"region":"인천광역시","source":"safefood","safeFoodGrade":"매우우수","safeFoodCertNo":"HG260001184"},{"id":"safefood-incheon-HG240001481","name":"뚜레쥬르 호구포역점","address":"인천광역시 남동구 호구포로 219(세중프라자 1층 일부호 논현동)","jibunAddress":"","phone":"","foodType":"","mainFood":"","designatedDate":"2026-03-14","lat":37.40198551,"lng":126.710070462,"region":"인천광역시","source":"safefood","safeFoodGrade":"매우우수","safeFoodCertNo":"HG240001481"},{"id":"safefood-incheon-HG260001270","name":"푸디스트(주)쉴낙원인천장례식장점식당","address":"인천광역시 계양구 아나지로 552(지하1층 일부호 서운동)","jibunAddress":"","phone":"","foodType":"","mainFood":"","designatedDate":"2026-02-10","lat":37.525492067,"lng":126.711463466,"region":"인천광역시","source":"safefood","safeFoodGrade":"매우우수","safeFoodCertNo":"HG260001270"},{"id":"safefood-incheon-HG260001117","name":"파리바게뜨 서구경서점","address":"인천광역시 서구 도요지로 17(경서동)","jibunAddress":"","phone":"","foodType":"","mainFood":"","designatedDate":"2026-02-04","lat":37.561917218,"lng":126.653637566,"region":"인천광역시","source":"safefood","safeFoodGrade":"매우우수","safeFoodCertNo":"HG260001117"},{"id":"safefood-incheon-HG260001114","name":"진교동 송도랜드마크점","address":"인천광역시 연수구 센트럴로 313(송도씨워크인테라스한라 지상1층 A108호 송도동)","jibunAddress":"","phone":"","foodType":"","mainFood":"","designatedDate":"2026-02-04","lat":37.386713129,"lng":126.645727213,"region":"인천광역시","source":"safefood","safeFoodGrade":"매우우수","safeFoodCertNo":"HG260001114"},{"id":"safefood-incheon-HG260001031","name":"미소로","address":"인천광역시 미추홀구 미추홀대로 661(1층 주안동)","jibunAddress":"","phone":"","foodType":"","mainFood":"","designatedDate":"2026-02-02","lat":37.458856692,"lng":126.680400372,"region":"인천광역시","source":"safefood","safeFoodGrade":"매우우수","safeFoodCertNo":"HG260001031"},{"id":"safefood-incheon-HG260001029","name":"이준호커피로스터스(Leejunho coffee roasters)","address":"인천광역시 강화군 길상면 해안남로 925(2층)","jibunAddress":"","phone":"","foodType":"","mainFood":"","designatedDate":"2026-02-02","lat":37.609882244,"lng":126.520134457,"region":"인천광역시","source":"safefood","safeFoodGrade":"우수","safeFoodCertNo":"HG260001029"},{"id":"safefood-incheon-HG260001028","name":"매헌 1935","address":"인천광역시 강화군 강화읍 신문길 25","jibunAddress":"","phone":"","foodType":"","mainFood":"","designatedDate":"2026-02-02","lat":37.747843903,"lng":126.484888264,"region":"인천광역시","source":"safefood","safeFoodGrade":"매우우수","safeFoodCertNo":"HG260001028"},{"id":"safefood-incheon-HG260000812","name":"두찜 인천청천점","address":"인천광역시 부평구 안남로 440(1층 일부호 청천동)","jibunAddress":"","phone":"","foodType":"","mainFood":"","designatedDate":"2026-01-27","lat":37.506168998,"lng":126.708585398,"region":"인천광역시","source":"safefood","safeFoodGrade":"매우우수","safeFoodCertNo":"HG260000812"},{"id":"safefood-incheon-HG250643065","name":"춘천토박이집","address":"인천광역시 연수구 앵고개로264번길 10-3(동춘동, 동서빌딩 101,102호)","jibunAddress":"","phone":"","foodType":"","mainFood":"","designatedDate":"2025-12-16","lat":37.407245023,"lng":126.672148591,"region":"인천광역시","source":"safefood","safeFoodGrade":"매우우수","safeFoodCertNo":"HG250643065"},{"id":"safefood-incheon-HG260001102","name":"주식김밥(酒食)","address":"인천광역시 계양구 아나지로 332(201동 1층 114-1호 작전동, 계양 우림카이저팰리스)","jibunAddress":"","phone":"","foodType":"","mainFood":"","designatedDate":"2026-02-04","lat":37.525492067,"lng":126.711463466,"region":"인천광역시","source":"safefood","safeFoodGrade":"매우우수","safeFoodCertNo":"HG260001102"},{"id":"safefood-incheon-HG240000564","name":"메가후르츠 인천주안점","address":"인천광역시 미추홀구 경인로 372(201동 1065호 주안동, 포레나 미추홀)","jibunAddress":"","phone":"","foodType":"","mainFood":"","designatedDate":"2026-01-30","lat":37.459641901,"lng":126.693298803,"region":"인천광역시","source":"safefood","safeFoodGrade":"매우우수","safeFoodCertNo":"HG240000564"},{"id":"safefood-incheon-HG260000893","name":"파리바게뜨","address":"인천광역시 미추홀구 소성로 328(1층 문학동)","jibunAddress":"","phone":"","foodType":"","mainFood":"","designatedDate":"2026-01-29","lat":37.440541427,"lng":126.669513001,"region":"인천광역시","source":"safefood","safeFoodGrade":"매우우수","safeFoodCertNo":"HG260000893"},{"id":"safefood-incheon-HG260000810","name":"파리바게뜨부평동아점","address":"인천광역시 부평구 부흥로 247(부평동,1층)","jibunAddress":"","phone":"","foodType":"","mainFood":"","designatedDate":"2026-01-27","lat":37.498161045,"lng":126.733190852,"region":"인천광역시","source":"safefood","safeFoodGrade":"매우우수","safeFoodCertNo":"HG260000810"},{"id":"safefood-incheon-HG260000500","name":"파리바게트갈산마을","address":"인천광역시 부평구 주부토로 179(갈산동,101호, 102호 1층)","jibunAddress":"","phone":"","foodType":"","mainFood":"","designatedDate":"2026-01-20","lat":37.49768079,"lng":126.724732244,"region":"인천광역시","source":"safefood","safeFoodGrade":"매우우수","safeFoodCertNo":"HG260000500"},{"id":"safefood-incheon-HG240000991","name":"스타벅스 인천검단DT점","address":"인천광역시 서구 검단로 812(1,2층 불로동)","jibunAddress":"","phone":"","foodType":"","mainFood":"","designatedDate":"2026-02-21","lat":37.603355304,"lng":126.660394732,"region":"인천광역시","source":"safefood","safeFoodGrade":"매우우수","safeFoodCertNo":"HG240000991"},{"id":"safefood-incheon-HG260001006","name":"먹소","address":"인천광역시 연수구 컨벤시아대로 80(401동 지상1층 120,121,122호 송도동, 인천송도힐스테이트)","jibunAddress":"","phone":"","foodType":"","mainFood":"","designatedDate":"2026-02-02","lat":37.39606427,"lng":126.649034031,"region":"인천광역시","source":"safefood","safeFoodGrade":"좋음","safeFoodCertNo":"HG260001006"},{"id":"safefood-incheon-HG260000885","name":"파리바게뜨 송도캠퍼스타운점","address":"인천광역시 연수구 송도과학로27번길 55(송도동, 롯데캐슬 캠퍼스타운 302동 D-115,116호)","jibunAddress":"","phone":"","foodType":"","mainFood":"","designatedDate":"2026-01-29","lat":37.3879630465081,"lng":126.667249614783,"region":"인천광역시","source":"safefood","safeFoodGrade":"매우우수","safeFoodCertNo":"HG260000885"},{"id":"safefood-incheon-HG260000884","name":"파리바게트 숭의로터리점","address":"인천광역시 미추홀구 독배로 494(숭의동)","jibunAddress":"","phone":"","foodType":"","mainFood":"","designatedDate":"2026-01-29","lat":37.455935743,"lng":126.649556299,"region":"인천광역시","source":"safefood","safeFoodGrade":"매우우수","safeFoodCertNo":"HG260000884"},{"id":"safefood-incheon-HG260000883","name":"파리바게트서구신현점","address":"인천광역시 서구 가정로 374(가정동)","jibunAddress":"","phone":"","foodType":"","mainFood":"","designatedDate":"2026-01-29","lat":37.504511236,"lng":126.671915038,"region":"인천광역시","source":"safefood","safeFoodGrade":"매우우수","safeFoodCertNo":"HG260000883"},{"id":"safefood-incheon-HG260000881","name":"파리바게뜨 루원SK","address":"인천광역시 서구 가정로 437(302동 B233,B234호 가정동, 루원시티 SK Leaders` VIEW)","jibunAddress":"","phone":"","foodType":"","mainFood":"","designatedDate":"2026-01-29","lat":37.504511236,"lng":126.671915038,"region":"인천광역시","source":"safefood","safeFoodGrade":"매우우수","safeFoodCertNo":"HG260000881"},{"id":"safefood-incheon-HG260000111","name":"메가엠지씨커피 인천부평북초점","address":"인천광역시 부평구 주부토로 279-1(1층 일부 갈산동)","jibunAddress":"","phone":"","foodType":"","mainFood":"","designatedDate":"2026-01-09","lat":37.49768079,"lng":126.724732244,"region":"인천광역시","source":"safefood","safeFoodGrade":"매우우수","safeFoodCertNo":"HG260000111"},{"id":"safefood-incheon-HG260000878","name":"메가엠지씨커피 인천숭의제니스점","address":"인천광역시 미추홀구 독정이로 82(근린생활시설1동 1층 15호 숭의동)","jibunAddress":"","phone":"","foodType":"","mainFood":"","designatedDate":"2026-01-29","lat":37.465448093,"lng":126.649983946,"region":"인천광역시","source":"safefood","safeFoodGrade":"매우우수","safeFoodCertNo":"HG260000878"},{"id":"safefood-incheon-HG260000976","name":"호식이두마리치킨 용현중앙점","address":"인천광역시 미추홀구 독정이로 42(용궁빌딩 1층 101호 용현동)","jibunAddress":"","phone":"","foodType":"","mainFood":"","designatedDate":"2026-01-30","lat":37.465448093,"lng":126.649983946,"region":"인천광역시","source":"safefood","safeFoodGrade":"매우우수","safeFoodCertNo":"HG260000976"},{"id":"safefood-incheon-HG260000991","name":"강화샌드 & 갤러리카페602","address":"인천광역시 강화군 화도면 해안남로1184번길 7(1층)","jibunAddress":"","phone":"","foodType":"","mainFood":"","designatedDate":"2026-02-02","lat":37.610915137,"lng":126.456385159,"region":"인천광역시","source":"safefood","safeFoodGrade":"매우우수","safeFoodCertNo":"HG260000991"},{"id":"safefood-incheon-HG260000990","name":"바닷","address":"인천광역시 강화군 화도면 해안남로 2799(1, 2층)","jibunAddress":"","phone":"","foodType":"","mainFood":"","designatedDate":"2026-02-02","lat":37.610915137,"lng":126.456385159,"region":"인천광역시","source":"safefood","safeFoodGrade":"우수","safeFoodCertNo":"HG260000990"},{"id":"safefood-incheon-HG260000989","name":"안다미로","address":"인천광역시 강화군 선원면 시리미로 56-1(1층)","jibunAddress":"","phone":"","foodType":"","mainFood":"","designatedDate":"2026-02-02","lat":37.721621012,"lng":126.512918295,"region":"인천광역시","source":"safefood","safeFoodGrade":"매우우수","safeFoodCertNo":"HG260000989"},{"id":"safefood-incheon-HG260000988","name":"햄버거 대마왕 본점","address":"인천광역시 강화군 강화읍 청하동길 8","jibunAddress":"","phone":"","foodType":"","mainFood":"","designatedDate":"2026-02-02","lat":37.747843903,"lng":126.484888264,"region":"인천광역시","source":"safefood","safeFoodGrade":"매우우수","safeFoodCertNo":"HG260000988"},{"id":"safefood-incheon-HG240000846","name":"돈통마늘보쌈 동춘점","address":"인천광역시 연수구 앵고개로264번길 10-3(정오빌딩 2층 동춘동)","jibunAddress":"","phone":"","foodType":"","mainFood":"","designatedDate":"2026-02-14","lat":37.407245023,"lng":126.672148591,"region":"인천광역시","source":"safefood","safeFoodGrade":"매우우수","safeFoodCertNo":"HG240000846"},{"id":"safefood-incheon-HG260000874","name":"60계치킨&맥주 인천루원시티점","address":"인천광역시 서구 가정로 406(C동 105호 가정동, 루원지웰시티푸르지오)","jibunAddress":"","phone":"","foodType":"","mainFood":"","designatedDate":"2026-01-29","lat":37.504511236,"lng":126.671915038,"region":"인천광역시","source":"safefood","safeFoodGrade":"매우우수","safeFoodCertNo":"HG260000874"},{"id":"safefood-incheon-HG260000649","name":"파리바게트 구월힐캐슬점","address":"인천광역시 남동구 용천로 70(지하2층,1층,2층 구월동, 동호프라자)","jibunAddress":"","phone":"","foodType":"","mainFood":"","designatedDate":"2026-01-26","lat":37.462954,"lng":126.714296,"region":"인천광역시","source":"safefood","safeFoodGrade":"매우우수","safeFoodCertNo":"HG260000649"},{"id":"safefood-incheon-HG240000034","name":"이디야 남동공단점","address":"인천광역시 남동구 남동대로 217(1층 고잔동)","jibunAddress":"","phone":"","foodType":"","mainFood":"","designatedDate":"2026-01-09","lat":37.451951111,"lng":126.708434514,"region":"인천광역시","source":"safefood","safeFoodGrade":"매우우수","safeFoodCertNo":"HG240000034"},{"id":"safefood-incheon-HG260000805","name":"비에치씨 계양구청점","address":"인천광역시 계양구 오조산로57번길 7(1층 104호 계산동, 성림프라자)","jibunAddress":"","phone":"","foodType":"","mainFood":"","designatedDate":"2026-01-27","lat":37.535931256,"lng":126.737286772,"region":"인천광역시","source":"safefood","safeFoodGrade":"매우우수","safeFoodCertNo":"HG260000805"},{"id":"safefood-incheon-HG250642937","name":"현대물텀벙이","address":"인천광역시 동구 샛골로 140(송림동)","jibunAddress":"","phone":"","foodType":"","mainFood":"","designatedDate":"2025-12-15","lat":37.477860942,"lng":126.644753383,"region":"인천광역시","source":"safefood","safeFoodGrade":"좋음","safeFoodCertNo":"HG250642937"},{"id":"safefood-incheon-HG260000366","name":"비비큐 인천송도센트럴파크점","address":"인천광역시 연수구 컨벤시아대로 116(7단지 지상1층 162,163,164호 송도동, 푸르지오월드마크)","jibunAddress":"","phone":"","foodType":"","mainFood":"","designatedDate":"2026-01-16","lat":37.39606427,"lng":126.649034031,"region":"인천광역시","source":"safefood","safeFoodGrade":"매우우수","safeFoodCertNo":"HG260000366"},{"id":"safefood-incheon-HG260000277","name":"버거킹 인천학익점","address":"인천광역시 미추홀구 소성로 150(우성메디토피아 1층 104호 학익동)","jibunAddress":"","phone":"","foodType":"","mainFood":"","designatedDate":"2026-01-14","lat":37.440541427,"lng":126.669513001,"region":"인천광역시","source":"safefood","safeFoodGrade":"매우우수","safeFoodCertNo":"HG260000277"},{"id":"safefood-incheon-HG260000357","name":"파리바게뜨 연수로얄점","address":"인천광역시 연수구 앵고개로264번길 30-4(영남프라자 지상1층 일부호 동춘동)","jibunAddress":"","phone":"","foodType":"","mainFood":"","designatedDate":"2026-01-16","lat":37.407245023,"lng":126.672148591,"region":"인천광역시","source":"safefood","safeFoodGrade":"매우우수","safeFoodCertNo":"HG260000357"},{"id":"safefood-incheon-HG200000576","name":"파스쿠찌 송도컨벤시아점","address":"인천광역시 연수구 센트럴로 123(송도컨벤시아 M18호 송도동)","jibunAddress":"","phone":"","foodType":"","mainFood":"","designatedDate":"2026-02-21","lat":37.386713129,"lng":126.645727213,"region":"인천광역시","source":"safefood","safeFoodGrade":"매우우수","safeFoodCertNo":"HG200000576"},{"id":"safefood-incheon-HG260000349","name":"KFC가정역","address":"인천광역시 서구 가정로 437(지2층 B207, B208, B209호 가정동, 루원시티 SK Leaders` VIEW)","jibunAddress":"","phone":"","foodType":"","mainFood":"","designatedDate":"2026-01-16","lat":37.504511236,"lng":126.671915038,"region":"인천광역시","source":"safefood","safeFoodGrade":"매우우수","safeFoodCertNo":"HG260000349"},{"id":"safefood-incheon-HG260000003","name":"커스텀커피 인천논현점","address":"인천광역시 남동구 앵고개로847번길 72(논현시티 1층 103호 논현동)","jibunAddress":"","phone":"","foodType":"","mainFood":"","designatedDate":"2026-01-06","lat":37.399034909,"lng":126.724505281,"region":"인천광역시","source":"safefood","safeFoodGrade":"매우우수","safeFoodCertNo":"HG260000003"},{"id":"safefood-incheon-HG260000002","name":"라이시디저트(RICEY DESSERT)","address":"인천광역시 남동구 앵고개로847번길 50(토브 타워 2층 203호 일부호 논현동)","jibunAddress":"","phone":"","foodType":"","mainFood":"","designatedDate":"2026-01-06","lat":37.399034909,"lng":126.724505281,"region":"인천광역시","source":"safefood","safeFoodGrade":"매우우수","safeFoodCertNo":"HG260000002"},{"id":"safefood-incheon-HG240000103","name":"불닭발땡초동대문엽기떡볶이 인천동춘점","address":"인천광역시 연수구 앵고개로264번길 20(논현빌딩 지상1층 일부호 동춘동)","jibunAddress":"","phone":"","foodType":"","mainFood":"","designatedDate":"2026-01-11","lat":37.407245023,"lng":126.672148591,"region":"인천광역시","source":"safefood","safeFoodGrade":"매우우수","safeFoodCertNo":"HG240000103"},{"id":"safefood-incheon-HG240000421","name":"빽다방인천효성유승점","address":"인천광역시 계양구 아나지로 75(효성다섬프라자 1층 106호 효성동)","jibunAddress":"","phone":"","foodType":"","mainFood":"","designatedDate":"2026-01-25","lat":37.525492067,"lng":126.711463466,"region":"인천광역시","source":"safefood","safeFoodGrade":"매우우수","safeFoodCertNo":"HG240000421"},{"id":"safefood-incheon-HG260000423","name":"우지커피 송도센트럴파크점","address":"인천광역시 연수구 센트럴로 232(E동 177호 송도동, 더샵센트럴파크1)","jibunAddress":"","phone":"","foodType":"","mainFood":"","designatedDate":"2026-01-19","lat":37.386713129,"lng":126.645727213,"region":"인천광역시","source":"safefood","safeFoodGrade":"매우우수","safeFoodCertNo":"HG260000423"},{"id":"safefood-incheon-HG220000897","name":"베스킨라빈스","address":"인천광역시 강화군 강화읍 강화대로404번길 4","jibunAddress":"","phone":"","foodType":"","mainFood":"","designatedDate":"2026-02-16","lat":37.747843903,"lng":126.484888264,"region":"인천광역시","source":"safefood","safeFoodGrade":"매우우수","safeFoodCertNo":"HG220000897"},{"id":"safefood-incheon-HG260000262","name":"파리바게트 아인병원","address":"인천광역시 미추홀구 경인로 372(지하 2층 2009,2010,2011호 주안동, 포레나 미추홀)","jibunAddress":"","phone":"","foodType":"","mainFood":"","designatedDate":"2026-01-14","lat":37.459641901,"lng":126.693298803,"region":"인천광역시","source":"safefood","safeFoodGrade":"매우우수","safeFoodCertNo":"HG260000262"},{"id":"safefood-incheon-HG260000117","name":"파리바게뜨 구월팬더점","address":"인천광역시 남동구 인주대로 661(1층 구월동)","jibunAddress":"","phone":"","foodType":"","mainFood":"","designatedDate":"2026-01-12","lat":37.448768487,"lng":126.730298919,"region":"인천광역시","source":"safefood","safeFoodGrade":"매우우수","safeFoodCertNo":"HG260000117"},{"id":"safefood-incheon-HG250642912","name":"파리바게뜨","address":"인천광역시 남동구 구월로 79(간석동,1층일부)","jibunAddress":"","phone":"","foodType":"","mainFood":"","designatedDate":"2025-12-15","lat":37.45625372,"lng":126.718041188,"region":"인천광역시","source":"safefood","safeFoodGrade":"매우우수","safeFoodCertNo":"HG250642912"},{"id":"safefood-incheon-HG260000337","name":"파리바게뜨 부개주공점","address":"인천광역시 부평구 부흥로 414(모아빌딩 1층 101호 부개동)","jibunAddress":"","phone":"","foodType":"","mainFood":"","designatedDate":"2026-01-16","lat":37.498161045,"lng":126.733190852,"region":"인천광역시","source":"safefood","safeFoodGrade":"매우우수","safeFoodCertNo":"HG260000337"},{"id":"safefood-incheon-HG260000210","name":"파리바게뜨경인여대점","address":"인천광역시 계양구 경명대로 1051-1(계산동,1층)","jibunAddress":"","phone":"","foodType":"","mainFood":"","designatedDate":"2026-01-13","lat":37.543415296,"lng":126.731269942,"region":"인천광역시","source":"safefood","safeFoodGrade":"매우우수","safeFoodCertNo":"HG260000210"},{"id":"safefood-incheon-HG250642900","name":"주니아 인천아인병원점","address":"인천광역시 미추홀구 경인로 372(201동 지하1층 B1005호 주안동, 포레나 미추홀)","jibunAddress":"","phone":"","foodType":"","mainFood":"","designatedDate":"2025-12-15","lat":37.459641901,"lng":126.693298803,"region":"인천광역시","source":"safefood","safeFoodGrade":"매우우수","safeFoodCertNo":"HG250642900"},{"id":"safefood-incheon-HG250641876","name":"뚜레쥬르 부평청천점","address":"인천광역시 부평구 세월천로 51(산곡동, 1층일부)","jibunAddress":"","phone":"","foodType":"","mainFood":"","designatedDate":"2025-11-20","lat":37.513235902,"lng":126.705627343,"region":"인천광역시","source":"safefood","safeFoodGrade":"매우우수","safeFoodCertNo":"HG250641876"},{"id":"safefood-incheon-HG240000102","name":"스타벅스 쉐라톤그랜드인천점","address":"인천광역시 연수구 컨벤시아대로 153(쉐라톤인천호텔 1층 일부호 송도동)","jibunAddress":"","phone":"","foodType":"","mainFood":"","designatedDate":"2026-01-11","lat":37.39606427,"lng":126.649034031,"region":"인천광역시","source":"safefood","safeFoodGrade":"매우우수","safeFoodCertNo":"HG240000102"},{"id":"safefood-incheon-HG250642418","name":"컴포즈커피 인천청학용담공원점","address":"인천광역시 연수구 용담로 44(지상1층 일부호 청학동)","jibunAddress":"","phone":"","foodType":"","mainFood":"","designatedDate":"2025-12-02","lat":37.419344352,"lng":126.672715283,"region":"인천광역시","source":"safefood","safeFoodGrade":"매우우수","safeFoodCertNo":"HG250642418"},{"id":"safefood-incheon-HG220001036","name":"베스킨라빈스31","address":"인천광역시 연수구 컨벤시아대로 55(송도동,송도이안상가 123지상1층)","jibunAddress":"","phone":"","foodType":"","mainFood":"","designatedDate":"2026-02-22","lat":37.39606427,"lng":126.649034031,"region":"인천광역시","source":"safefood","safeFoodGrade":"우수","safeFoodCertNo":"HG220001036"},{"id":"safefood-incheon-HG190001824","name":"스타벅스 주안역점","address":"인천광역시 미추홀구 주안로 100(주안동)","jibunAddress":"","phone":"","foodType":"","mainFood":"","designatedDate":"2025-11-25","lat":37.464394783,"lng":126.679242477,"region":"인천광역시","source":"safefood","safeFoodGrade":"매우우수","safeFoodCertNo":"HG190001824"},{"id":"safefood-incheon-HG250642857","name":"롯데리아 인천루원시티점","address":"인천광역시 서구 서곶로 50(판매7동 지1층 E103,104호 가정동, 루원시티 대성베르힐 더 센트로)","jibunAddress":"","phone":"","foodType":"","mainFood":"","designatedDate":"2025-12-15","lat":37.544076374,"lng":126.677163032,"region":"인천광역시","source":"safefood","safeFoodGrade":"매우우수","safeFoodCertNo":"HG250642857"},{"id":"safefood-incheon-HG250642472","name":"샐러디 주안역점","address":"인천광역시 미추홀구 미추홀대로 735(103호 주안동)","jibunAddress":"","phone":"","foodType":"","mainFood":"","designatedDate":"2025-12-08","lat":37.458856692,"lng":126.680400372,"region":"인천광역시","source":"safefood","safeFoodGrade":"매우우수","safeFoodCertNo":"HG250642472"},{"id":"safefood-incheon-HG210011427","name":"배스킨라빈스인천계산점","address":"인천광역시 계양구 도두리로 33(계산동,상산빌딩 106,107호)","jibunAddress":"","phone":"","foodType":"","mainFood":"","designatedDate":"2025-12-09","lat":37.534086589,"lng":126.738093471,"region":"인천광역시","source":"safefood","safeFoodGrade":"매우우수","safeFoodCertNo":"HG210011427"},{"id":"safefood-incheon-HG220000131","name":"할리스 인천한옥마을점","address":"인천광역시 연수구 테크노파크로 180(다동 지상1층 송도동)","jibunAddress":"","phone":"","foodType":"","mainFood":"","designatedDate":"2026-01-14","lat":37.388092,"lng":126.640783,"region":"인천광역시","source":"safefood","safeFoodGrade":"매우우수","safeFoodCertNo":"HG220000131"},{"id":"safefood-incheon-HG250641410","name":"컴포즈커피 인천주안힐스테이트푸르지오점","address":"인천광역시 미추홀구 남주길 150(근린생활시설-2 1층 114호 주안동)","jibunAddress":"","phone":"","foodType":"","mainFood":"","designatedDate":"2025-11-12","lat":37.454462417,"lng":126.669851118,"region":"인천광역시","source":"safefood","safeFoodGrade":"매우우수","safeFoodCertNo":"HG250641410"},{"id":"safefood-incheon-HG250642594","name":"제주은희네해장국 인천시청점","address":"인천광역시 남동구 예술로192번길 39(우신빌딩 1층 구월동)","jibunAddress":"","phone":"","foodType":"","mainFood":"","designatedDate":"2025-12-09","lat":37.451277627,"lng":126.703236232,"region":"인천광역시","source":"safefood","safeFoodGrade":"매우우수","safeFoodCertNo":"HG250642594"},{"id":"safefood-incheon-HG250642071","name":"맘스터치신현점","address":"인천광역시 서구 가정로 359(1층 신현동)","jibunAddress":"","phone":"","foodType":"","mainFood":"","designatedDate":"2025-11-26","lat":37.504511236,"lng":126.671915038,"region":"인천광역시","source":"safefood","safeFoodGrade":"매우우수","safeFoodCertNo":"HG250642071"},{"id":"safefood-incheon-HG250642457","name":"준스이","address":"인천광역시 계양구 계산새로 89(대림프라자 1층 105호 용종동)","jibunAddress":"","phone":"","foodType":"","mainFood":"","designatedDate":"2025-12-08","lat":37.538202285,"lng":126.737539071,"region":"인천광역시","source":"safefood","safeFoodGrade":"매우우수","safeFoodCertNo":"HG250642457"},{"id":"safefood-incheon-HG240000167","name":"CGV인천가정","address":"인천광역시 서구 가정로 406(지하1층 일부호 가정동, 루원지웰시티푸르지오)","jibunAddress":"","phone":"","foodType":"","mainFood":"","designatedDate":"2026-01-15","lat":37.504511236,"lng":126.671915038,"region":"인천광역시","source":"safefood","safeFoodGrade":"매우우수","safeFoodCertNo":"HG240000167"},{"id":"safefood-incheon-HG230010004","name":"본죽&비빔밥인천계산역점","address":"인천광역시 계양구 경명대로 1096(계산동,계산메디칼센타 106호)","jibunAddress":"","phone":"","foodType":"","mainFood":"","designatedDate":"2025-12-11","lat":37.543415296,"lng":126.731269942,"region":"인천광역시","source":"safefood","safeFoodGrade":"매우우수","safeFoodCertNo":"HG230010004"},{"id":"safefood-incheon-HG250642404","name":"한솥도시락 연수롯데마트앞점","address":"인천광역시 연수구 먼우금로 197(이리옴프라자 지상1층 106호 청학동)","jibunAddress":"","phone":"","foodType":"","mainFood":"","designatedDate":"2025-12-02","lat":37.41578461,"lng":126.677403821,"region":"인천광역시","source":"safefood","safeFoodGrade":"매우우수","safeFoodCertNo":"HG250642404"},{"id":"safefood-incheon-HG190001972","name":"스타벅스부평사거리점","address":"인천광역시 부평구 부평문화로 52(1층,2층 부평동)","jibunAddress":"","phone":"","foodType":"","mainFood":"","designatedDate":"2025-11-26","lat":37.494322652,"lng":126.728899009,"region":"인천광역시","source":"safefood","safeFoodGrade":"매우우수","safeFoodCertNo":"HG190001972"},{"id":"safefood-incheon-HG250641809","name":"브리사 디 마르(Brisa de mar)","address":"인천광역시 연수구 인천타워대로 257(송도 아트포레 푸르지오 시티 A동 A-133호,A-134호 송도동)","jibunAddress":"","phone":"","foodType":"","mainFood":"","designatedDate":"2025-11-20","lat":37.3937818483729,"lng":126.633289319826,"region":"인천광역시","source":"safefood","safeFoodGrade":"매우우수","safeFoodCertNo":"HG250641809"},{"id":"safefood-incheon-HG250642424","name":"달빛에구운고등어 인천계양구청점","address":"인천광역시 계양구 오조산로57번길 7(성림프라자 2층 일부호 계산동)","jibunAddress":"","phone":"","foodType":"","mainFood":"","designatedDate":"2025-12-05","lat":37.535931256,"lng":126.737286772,"region":"인천광역시","source":"safefood","safeFoodGrade":"매우우수","safeFoodCertNo":"HG250642424"},{"id":"safefood-incheon-HG250642399","name":"한국맥도날드 부평역점","address":"인천광역시 부평구 광장로 16(부평동,1층)","jibunAddress":"","phone":"","foodType":"","mainFood":"","designatedDate":"2025-12-02","lat":37.490392871,"lng":126.72486251,"region":"인천광역시","source":"safefood","safeFoodGrade":"매우우수","safeFoodCertNo":"HG250642399"},{"id":"safefood-incheon-HG250641803","name":"투썸플레이스 호구포역점","address":"인천광역시 남동구 호구포로 220(명진프라자 1층 108호~110호 논현동)","jibunAddress":"","phone":"","foodType":"","mainFood":"","designatedDate":"2025-11-20","lat":37.40198551,"lng":126.710070462,"region":"인천광역시","source":"safefood","safeFoodGrade":"매우우수","safeFoodCertNo":"HG250641803"},{"id":"safefood-incheon-HG250642423","name":"천주채관","address":"인천광역시 계양구 도두리로 33(계산동,상산프라자 205.206호)","jibunAddress":"","phone":"","foodType":"","mainFood":"","designatedDate":"2025-12-04","lat":37.534086589,"lng":126.738093471,"region":"인천광역시","source":"safefood","safeFoodGrade":"매우우수","safeFoodCertNo":"HG250642423"},{"id":"safefood-incheon-HG220000513","name":"컴포즈커피(간석벽산점)","address":"인천광역시 남동구 호구포로 897(대성빌딩 1층 101호,106호 간석동)","jibunAddress":"","phone":"","foodType":"","mainFood":"","designatedDate":"2026-01-28","lat":37.40198551,"lng":126.710070462,"region":"인천광역시","source":"safefood","safeFoodGrade":"매우우수","safeFoodCertNo":"HG220000513"},{"id":"safefood-incheon-HG250641801","name":"야키토리 키키","address":"인천광역시 연수구 컨벤시아대로 126(8단지동 지상1층 174호 송도동, 푸르지오월드마크)","jibunAddress":"","phone":"","foodType":"","mainFood":"","designatedDate":"2025-11-20","lat":37.39606427,"lng":126.649034031,"region":"인천광역시","source":"safefood","safeFoodGrade":"매우우수","safeFoodCertNo":"HG250641801"},{"id":"safefood-incheon-HG190001834","name":"스타벅스 인천학익DT점","address":"인천광역시 미추홀구 매소홀로 368(학익동)","jibunAddress":"","phone":"","foodType":"","mainFood":"","designatedDate":"2025-11-25","lat":37.449405871,"lng":126.634391099,"region":"인천광역시","source":"safefood","safeFoodGrade":"매우우수","safeFoodCertNo":"HG190001834"},{"id":"safefood-incheon-HG250641562","name":"컴포즈커피 인천송도유원지점","address":"인천광역시 연수구 인권로 11(1층 일부호 옥련동)","jibunAddress":"","phone":"","foodType":"","mainFood":"","designatedDate":"2025-11-19","lat":37.418209439,"lng":126.651366593,"region":"인천광역시","source":"safefood","safeFoodGrade":"매우우수","safeFoodCertNo":"HG250641562"},{"id":"safefood-incheon-HG240629867","name":"불닭발땡초 동대문 엽기떡볶이 인천송도점","address":"인천광역시 연수구 신송로125번길 13(아크리아1 지상1층 114,115호 송도동)","jibunAddress":"","phone":"","foodType":"","mainFood":"","designatedDate":"2024-10-21","lat":37.394948256,"lng":126.651558873,"region":"인천광역시","source":"safefood","safeFoodGrade":"매우우수","safeFoodCertNo":"HG240629867"},{"id":"safefood-incheon-HG250641308","name":"메가엠지씨커피 인천대찬병원점","address":"인천광역시 남동구 인주대로 588(대암빌딩 1층 일부102호호 구월동)","jibunAddress":"","phone":"","foodType":"","mainFood":"","designatedDate":"2025-11-11","lat":37.448768487,"lng":126.730298919,"region":"인천광역시","source":"safefood","safeFoodGrade":"매우우수","safeFoodCertNo":"HG250641308"},{"id":"safefood-incheon-HG230009330","name":"비비큐(BBQ) 검단사거리점","address":"인천광역시 서구 검단로 470(202호 왕길동)","jibunAddress":"","phone":"","foodType":"","mainFood":"","designatedDate":"2025-11-21","lat":37.603355304,"lng":126.660394732,"region":"인천광역시","source":"safefood","safeFoodGrade":"우수","safeFoodCertNo":"HG230009330"},{"id":"safefood-incheon-HG230009135","name":"여부초밥","address":"인천광역시 부평구 주부토로 52(102호 부평동)","jibunAddress":"","phone":"","foodType":"","mainFood":"","designatedDate":"2025-11-20","lat":37.49768079,"lng":126.724732244,"region":"인천광역시","source":"safefood","safeFoodGrade":"우수","safeFoodCertNo":"HG230009135"},{"id":"safefood-incheon-HG210010599","name":"투썸플레이스 인천계양구청점","address":"인천광역시 계양구 계양문화로 58(1,2층 계산동)","jibunAddress":"","phone":"","foodType":"","mainFood":"","designatedDate":"2025-11-12","lat":37.535801556,"lng":126.736323002,"region":"인천광역시","source":"safefood","safeFoodGrade":"매우우수","safeFoodCertNo":"HG210010599"},{"id":"safefood-incheon-HG250641300","name":"교촌치킨 주안2호점","address":"인천광역시 미추홀구 경인로 306(올레오 1층 101.102호 도화동)","jibunAddress":"","phone":"","foodType":"","mainFood":"","designatedDate":"2025-11-11","lat":37.459641901,"lng":126.693298803,"region":"인천광역시","source":"safefood","safeFoodGrade":"우수","safeFoodCertNo":"HG250641300"},{"id":"safefood-incheon-HG250640483","name":"버거킹 인천계산점","address":"인천광역시 계양구 경명대로 1074(삼환1빌딩 1층 105,106호 계산동)","jibunAddress":"","phone":"","foodType":"","mainFood":"","designatedDate":"2025-10-20","lat":37.543415296,"lng":126.731269942,"region":"인천광역시","source":"safefood","safeFoodGrade":"매우우수","safeFoodCertNo":"HG250640483"},{"id":"safefood-incheon-HG250641781","name":"아바이왕순대","address":"인천광역시 연수구 청명로3번길 11(청학동, 지상1층)","jibunAddress":"","phone":"","foodType":"","mainFood":"","designatedDate":"2025-11-20","lat":37.416669751,"lng":126.673521007,"region":"인천광역시","source":"safefood","safeFoodGrade":"매우우수","safeFoodCertNo":"HG250641781"},{"id":"safefood-incheon-HG250641516","name":"한국맥도날드연희DT점","address":"인천광역시 서구 서곶로 265(1,2층 심곡동, 맥도날드 인천연희점)","jibunAddress":"","phone":"","foodType":"","mainFood":"","designatedDate":"2025-11-19","lat":37.544076374,"lng":126.677163032,"region":"인천광역시","source":"safefood","safeFoodGrade":"매우우수","safeFoodCertNo":"HG250641516"},{"id":"safefood-incheon-HG250640645","name":"뚝심장어 송도 본점","address":"인천광역시 연수구 센트럴로 194(B동 지상1층 102,103,117호 송도동, 더샵 센트럴파크2)","jibunAddress":"","phone":"","foodType":"","mainFood":"","designatedDate":"2025-10-23","lat":37.386713129,"lng":126.645727213,"region":"인천광역시","source":"safefood","safeFoodGrade":"매우우수","safeFoodCertNo":"HG250640645"},{"id":"safefood-incheon-HG190002473","name":"스타벅스인천서구청DT점","address":"인천광역시 서구 서곶로 277(심곡동, 외 1필지)","jibunAddress":"","phone":"","foodType":"","mainFood":"","designatedDate":"2025-12-13","lat":37.544076374,"lng":126.677163032,"region":"인천광역시","source":"safefood","safeFoodGrade":"매우우수","safeFoodCertNo":"HG190002473"},{"id":"safefood-incheon-HG190002530","name":"스타벅스 인천송도점","address":"인천광역시 연수구 컨벤시아대로 55(113,114,115호 송도동, 송도이안)","jibunAddress":"","phone":"","foodType":"","mainFood":"","designatedDate":"2025-12-13","lat":37.39606427,"lng":126.649034031,"region":"인천광역시","source":"safefood","safeFoodGrade":"매우우수","safeFoodCertNo":"HG190002530"},{"id":"safefood-incheon-HG250640451","name":"이태리마담 직영점","address":"인천광역시 계양구 오조산로45번길 8(2층 202호 계산동, 현해아이빌)","jibunAddress":"","phone":"","foodType":"","mainFood":"","designatedDate":"2025-10-20","lat":37.534639172,"lng":126.737168611,"region":"인천광역시","source":"safefood","safeFoodGrade":"매우우수","safeFoodCertNo":"HG250640451"},{"id":"safefood-incheon-HG250640753","name":"처갓집 양념치킨 논현점","address":"인천광역시 남동구 앵고개로847번길 64(골든프라자 1층 107호 논현동)","jibunAddress":"","phone":"","foodType":"","mainFood":"","designatedDate":"2025-10-28","lat":37.399034909,"lng":126.724505281,"region":"인천광역시","source":"safefood","safeFoodGrade":"매우우수","safeFoodCertNo":"HG250640753"},{"id":"safefood-incheon-HG190001835","name":"스타벅스인천간석DT점","address":"인천광역시 남동구 경원대로 974(1층~2층 간석동)","jibunAddress":"","phone":"","foodType":"","mainFood":"","designatedDate":"2025-11-25","lat":37.468107192,"lng":126.690593189,"region":"인천광역시","source":"safefood","safeFoodGrade":"매우우수","safeFoodCertNo":"HG190001835"},{"id":"safefood-incheon-HG250639441","name":"충무면가","address":"인천광역시 부평구 대정로 7(1층 116호 부평동)","jibunAddress":"","phone":"","foodType":"","mainFood":"","designatedDate":"2025-09-18","lat":37.497449839,"lng":126.724000943,"region":"인천광역시","source":"safefood","safeFoodGrade":"매우우수","safeFoodCertNo":"HG250639441"},{"id":"safefood-incheon-HG250639489","name":"메가엠지씨커피 강화동막해수욕장점","address":"인천광역시 강화군 화도면 해안남로 1482(1층)","jibunAddress":"","phone":"","foodType":"","mainFood":"","designatedDate":"2025-09-18","lat":37.610915137,"lng":126.456385159,"region":"인천광역시","source":"safefood","safeFoodGrade":"매우우수","safeFoodCertNo":"HG250639489"},{"id":"safefood-incheon-HG250639922","name":"신포순대","address":"인천광역시 중구 제2터미널대로 446(인천국제공항제2여객터미널 교통센터 지하1층 한식소담길 운서동)","jibunAddress":"","phone":"","foodType":"","mainFood":"","designatedDate":"2025-09-29","lat":37.471484,"lng":126.62625,"region":"인천광역시","source":"safefood","safeFoodGrade":"매우우수","safeFoodCertNo":"HG250639922"},{"id":"safefood-incheon-HG250639836","name":"국밥스토리","address":"인천광역시 남동구 인주대로681번길 19(1층 일부호 구월동)","jibunAddress":"","phone":"","foodType":"","mainFood":"","designatedDate":"2025-09-26","lat":37.4511446,"lng":126.7128868,"region":"인천광역시","source":"safefood","safeFoodGrade":"우수","safeFoodCertNo":"HG250639836"},{"id":"safefood-incheon-HG190002259","name":"스타벅스 인천용현DT점","address":"인천광역시 미추홀구 아암대로 107(1~2층 용현동)","jibunAddress":"","phone":"","foodType":"","mainFood":"","designatedDate":"2025-12-09","lat":37.453193959,"lng":126.633171271,"region":"인천광역시","source":"safefood","safeFoodGrade":"매우우수","safeFoodCertNo":"HG190002259"},{"id":"safefood-incheon-HG250639300","name":"이치도라멘(송도점)","address":"인천광역시 연수구 센트럴로 313(송도씨워크인테라스한라 지상2층 제B251호 송도동)","jibunAddress":"","phone":"","foodType":"","mainFood":"","designatedDate":"2025-09-17","lat":37.386713129,"lng":126.645727213,"region":"인천광역시","source":"safefood","safeFoodGrade":"매우우수","safeFoodCertNo":"HG250639300"},{"id":"safefood-incheon-HG230008945","name":"컴포즈커피 계양구청점","address":"인천광역시 계양구 계양문화로 96(강북프라자 1층 101호 용종동)","jibunAddress":"","phone":"","foodType":"","mainFood":"","designatedDate":"2025-11-13","lat":37.535801556,"lng":126.736323002,"region":"인천광역시","source":"safefood","safeFoodGrade":"매우우수","safeFoodCertNo":"HG230008945"},{"id":"safefood-incheon-HG250639478","name":"메가엠지씨커피 청천푸르지오점","address":"인천광역시 부평구 세월천로 17(청천1차 뷰그리안 106호 청천동)","jibunAddress":"","phone":"","foodType":"","mainFood":"","designatedDate":"2025-09-18","lat":37.513235902,"lng":126.705627343,"region":"인천광역시","source":"safefood","safeFoodGrade":"매우우수","safeFoodCertNo":"HG250639478"},{"id":"safefood-incheon-HG250639470","name":"맘스터치 강화도점","address":"인천광역시 강화군 강화읍 강화대로 398","jibunAddress":"","phone":"","foodType":"","mainFood":"","designatedDate":"2025-09-18","lat":37.747843903,"lng":126.484888264,"region":"인천광역시","source":"safefood","safeFoodGrade":"매우우수","safeFoodCertNo":"HG250639470"},{"id":"safefood-incheon-HG250639825","name":"맘스터치인천길병원점","address":"인천광역시 남동구 구월남로 182(106호 구월동, 명일프라자)","jibunAddress":"","phone":"","foodType":"","mainFood":"","designatedDate":"2025-09-26","lat":37.453374772,"lng":126.706279052,"region":"인천광역시","source":"safefood","safeFoodGrade":"매우우수","safeFoodCertNo":"HG250639825"},{"id":"safefood-incheon-HG230008386","name":"즐거운돈까스 부평역점","address":"인천광역시 부평구 광장로 16(부평민자역사 본건물 나호 지하1층 24,25호 부평동)","jibunAddress":"","phone":"","foodType":"","mainFood":"","designatedDate":"2025-11-02","lat":37.490392871,"lng":126.72486251,"region":"인천광역시","source":"safefood","safeFoodGrade":"매우우수","safeFoodCertNo":"HG230008386"},{"id":"safefood-incheon-HG230008857","name":"본죽&비빔밥 인천구월힐캐슬점","address":"인천광역시 남동구 용천로 82(다옴프라자 1층 109호 구월동)","jibunAddress":"","phone":"","foodType":"","mainFood":"","designatedDate":"2025-11-13","lat":37.462954,"lng":126.714296,"region":"인천광역시","source":"safefood","safeFoodGrade":"매우우수","safeFoodCertNo":"HG230008857"},{"id":"safefood-incheon-HG250639050","name":"투썸플레이스 인천문학점","address":"인천광역시 미추홀구 매소홀로 590(1~2층 문학동)","jibunAddress":"","phone":"","foodType":"","mainFood":"","designatedDate":"2025-09-11","lat":37.449405871,"lng":126.634391099,"region":"인천광역시","source":"safefood","safeFoodGrade":"매우우수","safeFoodCertNo":"HG250639050"},{"id":"safefood-incheon-HG230009199","name":"버거킹 부평역점","address":"인천광역시 부평구 부평대로 5(대신빌딩 1층 부평동)","jibunAddress":"","phone":"","foodType":"","mainFood":"","designatedDate":"2025-11-20","lat":37.493133557,"lng":126.722483332,"region":"인천광역시","source":"safefood","safeFoodGrade":"매우우수","safeFoodCertNo":"HG230009199"},{"id":"safefood-incheon-HG230009043","name":"경복궁계산점","address":"인천광역시 계양구 도두리로 31(계산동,,6 나동)","jibunAddress":"","phone":"","foodType":"","mainFood":"","designatedDate":"2025-11-15","lat":37.534086589,"lng":126.738093471,"region":"인천광역시","source":"safefood","safeFoodGrade":"매우우수","safeFoodCertNo":"HG230009043"},{"id":"safefood-incheon-HG250638671","name":"사과당 루원SK점","address":"인천광역시 서구 가정로 437(302동 B228호 가정동, 루원시티 SK Leaders` VIEW)","jibunAddress":"","phone":"","foodType":"","mainFood":"","designatedDate":"2025-09-02","lat":37.504511236,"lng":126.671915038,"region":"인천광역시","source":"safefood","safeFoodGrade":"매우우수","safeFoodCertNo":"HG250638671"},{"id":"safefood-incheon-HG230007462","name":"차돌풍 계양구청점","address":"인천광역시 계양구 계양문화로 44(계산동,라이즈빌 103호의1/2)","jibunAddress":"","phone":"","foodType":"","mainFood":"","designatedDate":"2025-10-06","lat":37.535801556,"lng":126.736323002,"region":"인천광역시","source":"safefood","safeFoodGrade":"매우우수","safeFoodCertNo":"HG230007462"},{"id":"safefood-incheon-HG230007772","name":"비비큐(BBQ)계양스타점","address":"인천광역시 계양구 계양문화로 119(1층 117호 용종동, 인천 계양 코아루 센트럴파크)","jibunAddress":"","phone":"","foodType":"","mainFood":"","designatedDate":"2025-10-18","lat":37.535801556,"lng":126.736323002,"region":"인천광역시","source":"safefood","safeFoodGrade":"매우우수","safeFoodCertNo":"HG230007772"},{"id":"safefood-incheon-HG250638660","name":"샌드레코","address":"인천광역시 서구 가정로 451(153호 가정동)","jibunAddress":"","phone":"","foodType":"","mainFood":"","designatedDate":"2025-09-02","lat":37.504511236,"lng":126.671915038,"region":"인천광역시","source":"safefood","safeFoodGrade":"매우우수","safeFoodCertNo":"HG250638660"},{"id":"safefood-incheon-HG250638648","name":"씨유 만수새롬점","address":"인천광역시 남동구 구월로 334(1층 일부호 만수동)","jibunAddress":"","phone":"","foodType":"","mainFood":"","designatedDate":"2025-09-02","lat":37.45625372,"lng":126.718041188,"region":"인천광역시","source":"safefood","safeFoodGrade":"매우우수","safeFoodCertNo":"HG250638648"},{"id":"safefood-incheon-HG250639576","name":"교촌치킨 송도8공구점","address":"인천광역시 연수구 센트럴로 415(힐스테이트 송도 더테라스 판매시설동 116호 송도동)","jibunAddress":"","phone":"","foodType":"","mainFood":"","designatedDate":"2025-09-22","lat":37.386713129,"lng":126.645727213,"region":"인천광역시","source":"safefood","safeFoodGrade":"매우우수","safeFoodCertNo":"HG250639576"},{"id":"safefood-incheon-HG250638747","name":"메가엠지씨커피 당하청마사거리점","address":"인천광역시 서구 서곶로 782(106, 107호 당하동, 한양프라자)","jibunAddress":"","phone":"","foodType":"","mainFood":"","designatedDate":"2025-09-04","lat":37.544076374,"lng":126.677163032,"region":"인천광역시","source":"safefood","safeFoodGrade":"매우우수","safeFoodCertNo":"HG250638747"},{"id":"safefood-incheon-HG250638641","name":"우지커피 간석올리브점","address":"인천광역시 남동구 남동대로 899(이젠성형외과빌딩 1층 2호 간석동)","jibunAddress":"","phone":"","foodType":"","mainFood":"","designatedDate":"2025-09-02","lat":37.451951111,"lng":126.708434514,"region":"인천광역시","source":"safefood","safeFoodGrade":"매우우수","safeFoodCertNo":"HG250638641"},{"id":"safefood-incheon-HG250639225","name":"교촌치킨 검단1호점","address":"인천광역시 서구 검단로 453(정풍빌딩 101,102호 왕길동)","jibunAddress":"","phone":"","foodType":"","mainFood":"","designatedDate":"2025-09-17","lat":37.603355304,"lng":126.660394732,"region":"인천광역시","source":"safefood","safeFoodGrade":"매우우수","safeFoodCertNo":"HG250639225"},{"id":"safefood-incheon-HG250638742","name":"본죽엔비빔밥작전동점","address":"인천광역시 계양구 효서로 233(1층 103호 작전동)","jibunAddress":"","phone":"","foodType":"","mainFood":"","designatedDate":"2025-09-04","lat":37.527835943,"lng":126.7257637,"region":"인천광역시","source":"safefood","safeFoodGrade":"매우우수","safeFoodCertNo":"HG250638742"},{"id":"safefood-incheon-HG250638567","name":"스타벅스 송도센트럴파크점","address":"인천광역시 연수구 센트럴로 194(송도동, A동 101,102,103호)","jibunAddress":"","phone":"","foodType":"","mainFood":"","designatedDate":"2025-09-01","lat":37.386713129,"lng":126.645727213,"region":"인천광역시","source":"safefood","safeFoodGrade":"매우우수","safeFoodCertNo":"HG250638567"},{"id":"safefood-incheon-HG190002008","name":"스타벅스부평시장역점","address":"인천광역시 부평구 부평대로 60(1층 부평동, 현대해상부평사옥)","jibunAddress":"","phone":"","foodType":"","mainFood":"","designatedDate":"2025-11-26","lat":37.493133557,"lng":126.722483332,"region":"인천광역시","source":"safefood","safeFoodGrade":"매우우수","safeFoodCertNo":"HG190002008"},{"id":"safefood-incheon-HG250638842","name":"백채김치찌개 강화점","address":"인천광역시 강화군 강화읍 충렬사로 25(107~108호)","jibunAddress":"","phone":"","foodType":"","mainFood":"","designatedDate":"2025-09-05","lat":37.747843903,"lng":126.484888264,"region":"인천광역시","source":"safefood","safeFoodGrade":"매우우수","safeFoodCertNo":"HG250638842"},{"id":"safefood-incheon-HG230007876","name":"스타벅스 시민공원역점","address":"인천광역시 미추홀구 경인로 372(201동 1층 1001,1002,1003호 주안동, 포레나 미추홀)","jibunAddress":"","phone":"","foodType":"","mainFood":"","designatedDate":"2025-10-20","lat":37.459641901,"lng":126.693298803,"region":"인천광역시","source":"safefood","safeFoodGrade":"매우우수","safeFoodCertNo":"HG230007876"},{"id":"safefood-incheon-HG250638288","name":"메가엠지씨커피인천구월중앙점","address":"인천광역시 남동구 남동대로 728(1층 일부호 구월동)","jibunAddress":"","phone":"","foodType":"","mainFood":"","designatedDate":"2025-08-26","lat":37.451951111,"lng":126.708434514,"region":"인천광역시","source":"safefood","safeFoodGrade":"매우우수","safeFoodCertNo":"HG250638288"},{"id":"safefood-incheon-HG250639401","name":"원할머니보쌈 계산점","address":"인천광역시 계양구 계양문화로 55(계산동,1층)","jibunAddress":"","phone":"","foodType":"","mainFood":"","designatedDate":"2025-09-18","lat":37.535801556,"lng":126.736323002,"region":"인천광역시","source":"safefood","safeFoodGrade":"매우우수","safeFoodCertNo":"HG250639401"},{"id":"safefood-incheon-HG250638187","name":"장호덕손만두(계산점)","address":"인천광역시 계양구 도두리로 25-1(대양나이스빌 1층 101호 계산동)","jibunAddress":"","phone":"","foodType":"","mainFood":"","designatedDate":"2025-08-25","lat":37.534086589,"lng":126.738093471,"region":"인천광역시","source":"safefood","safeFoodGrade":"매우우수","safeFoodCertNo":"HG250638187"},{"id":"safefood-incheon-HG250637875","name":"별꽃가배","address":"인천광역시 부평구 부평대로32번길 27(1,2층 및 연접한 외부 장소3층 옥상 부평동)","jibunAddress":"","phone":"","foodType":"","mainFood":"","designatedDate":"2025-08-20","lat":37.494263,"lng":126.723941,"region":"인천광역시","source":"safefood","safeFoodGrade":"매우우수","safeFoodCertNo":"HG250637875"},{"id":"safefood-incheon-HG250637768","name":"헬키푸키계양구청점","address":"인천광역시 계양구 계산새로 71(하이베라스빌딩 A동 118호 계산동)","jibunAddress":"","phone":"","foodType":"","mainFood":"","designatedDate":"2025-08-18","lat":37.538202285,"lng":126.737539071,"region":"인천광역시","source":"safefood","safeFoodGrade":"매우우수","safeFoodCertNo":"HG250637768"},{"id":"safefood-incheon-HG250636796","name":"다이닝(Dining) 송","address":"인천광역시 연수구 테크노파크로 200(송도동, 식당동 지상1층,지하1층, 국제관 지하1층)","jibunAddress":"","phone":"","foodType":"","mainFood":"","designatedDate":"2025-07-29","lat":37.388092,"lng":126.640783,"region":"인천광역시","source":"safefood","safeFoodGrade":"매우우수","safeFoodCertNo":"HG250636796"},{"id":"safefood-incheon-HG230009522","name":"프랭크버거작전점","address":"인천광역시 계양구 장제로 718(상록메디컬센타 1층 104호 작전동)","jibunAddress":"","phone":"","foodType":"","mainFood":"","designatedDate":"2025-11-24","lat":37.54508754,"lng":126.738277999,"region":"인천광역시","source":"safefood","safeFoodGrade":"우수","safeFoodCertNo":"HG230009522"},{"id":"safefood-incheon-HG230007001","name":"뚜레쥬르(인천시청점)","address":"인천광역시 남동구 구월로 81(간석동, 1층)","jibunAddress":"","phone":"","foodType":"","mainFood":"","designatedDate":"2025-09-18","lat":37.45625372,"lng":126.718041188,"region":"인천광역시","source":"safefood","safeFoodGrade":"매우우수","safeFoodCertNo":"HG230007001"},{"id":"safefood-incheon-HG250637866","name":"버거킹 인천간석사거리점","address":"인천광역시 남동구 호구포로 878(1층 구월동)","jibunAddress":"","phone":"","foodType":"","mainFood":"","designatedDate":"2025-08-20","lat":37.40198551,"lng":126.710070462,"region":"인천광역시","source":"safefood","safeFoodGrade":"매우우수","safeFoodCertNo":"HG250637866"},{"id":"safefood-incheon-HG250637944","name":"감성커피 부평점","address":"인천광역시 부평구 장제로 88(아레테뷰 104호 부평동)","jibunAddress":"","phone":"","foodType":"","mainFood":"","designatedDate":"2025-08-20","lat":37.503790091,"lng":126.731298309,"region":"인천광역시","source":"safefood","safeFoodGrade":"매우우수","safeFoodCertNo":"HG250637944"},{"id":"safefood-incheon-HG250639399","name":"컴포즈커피 부평구청점","address":"인천광역시 부평구 부평대로 164(현대펠리스 101호1층 부평동)","jibunAddress":"","phone":"","foodType":"","mainFood":"","designatedDate":"2025-09-18","lat":37.493133557,"lng":126.722483332,"region":"인천광역시","source":"safefood","safeFoodGrade":"매우우수","safeFoodCertNo":"HG250639399"},{"id":"safefood-incheon-HG250638173","name":"배스킨라빈스인천호구포역","address":"인천광역시 남동구 호구포로 221(논현동, 남동메디컬센터 106호)","jibunAddress":"","phone":"","foodType":"","mainFood":"","designatedDate":"2025-08-25","lat":37.40198551,"lng":126.710070462,"region":"인천광역시","source":"safefood","safeFoodGrade":"매우우수","safeFoodCertNo":"HG250638173"},{"id":"safefood-incheon-HG230007477","name":"배스킨라빈스 루원중앙점","address":"인천광역시 서구 가정로 406(A동 101호 일부,102호 가정동, 루원지웰시티푸르지오)","jibunAddress":"","phone":"","foodType":"","mainFood":"","designatedDate":"2025-10-06","lat":37.504511236,"lng":126.671915038,"region":"인천광역시","source":"safefood","safeFoodGrade":"매우우수","safeFoodCertNo":"HG230007477"},{"id":"safefood-incheon-HG250637476","name":"컴포즈커피 인천계산역점","address":"인천광역시 계양구 경명대로 1084(1층 일부호 계산동)","jibunAddress":"","phone":"","foodType":"","mainFood":"","designatedDate":"2025-08-11","lat":37.543415296,"lng":126.731269942,"region":"인천광역시","source":"safefood","safeFoodGrade":"매우우수","safeFoodCertNo":"HG250637476"},{"id":"safefood-incheon-HG250638355","name":"맘스터치 월미짱랜드점","address":"인천광역시 중구 월미문화로 81(1층 103호 북성동1가)","jibunAddress":"","phone":"","foodType":"","mainFood":"","designatedDate":"2025-08-28","lat":37.474473094,"lng":126.597440388,"region":"인천광역시","source":"safefood","safeFoodGrade":"매우우수","safeFoodCertNo":"HG250638355"},{"id":"safefood-incheon-HG210010209","name":"talkraphy","address":"인천광역시 강화군 화도면 해안남로1691번길 43-12(1,2동)","jibunAddress":"","phone":"","foodType":"","mainFood":"","designatedDate":"2025-11-01","lat":37.610915137,"lng":126.456385159,"region":"인천광역시","source":"safefood","safeFoodGrade":"매우우수","safeFoodCertNo":"HG210010209"},{"id":"safefood-incheon-HG250638474","name":"곤드레밥집 서구점","address":"인천광역시 서구 서곶로 253(1층 일부, 2층 심곡동)","jibunAddress":"","phone":"","foodType":"","mainFood":"","designatedDate":"2025-09-01","lat":37.544076374,"lng":126.677163032,"region":"인천광역시","source":"safefood","safeFoodGrade":"매우우수","safeFoodCertNo":"HG250638474"},{"id":"safefood-incheon-HG250637589","name":"메가엠지씨커피 부광초사거리점","address":"인천광역시 부평구 부흥로 393(1층 일부호 부개동)","jibunAddress":"","phone":"","foodType":"","mainFood":"","designatedDate":"2025-08-12","lat":37.498161045,"lng":126.733190852,"region":"인천광역시","source":"safefood","safeFoodGrade":"매우우수","safeFoodCertNo":"HG250637589"},{"id":"safefood-incheon-HG250638467","name":"하남돼지집계양구청점","address":"인천광역시 계양구 오조산로45번길 3(계산동,계양구청길 41-1 유진빌딩 1층일부)","jibunAddress":"","phone":"","foodType":"","mainFood":"","designatedDate":"2025-09-01","lat":37.534639172,"lng":126.737168611,"region":"인천광역시","source":"safefood","safeFoodGrade":"매우우수","safeFoodCertNo":"HG250638467"},{"id":"safefood-incheon-HG250638460","name":"굽네치킨 계양구청점","address":"인천광역시 계양구 오조산로45번길 12(유연프라자 2층 202호 계산동)","jibunAddress":"","phone":"","foodType":"","mainFood":"","designatedDate":"2025-09-01","lat":37.534639172,"lng":126.737168611,"region":"인천광역시","source":"safefood","safeFoodGrade":"매우우수","safeFoodCertNo":"HG250638460"},{"id":"safefood-incheon-HG210009031","name":"배스킨라빈스 부평삼산사거리점","address":"인천광역시 부평구 평천로 392(선우프라자 1층 101,102호 삼산동)","jibunAddress":"","phone":"","foodType":"","mainFood":"","designatedDate":"2025-09-16","lat":37.51732764,"lng":126.732677844,"region":"인천광역시","source":"safefood","safeFoodGrade":"매우우수","safeFoodCertNo":"HG210009031"},{"id":"safefood-incheon-HG250638151","name":"돈이야 돈","address":"인천광역시 계양구 효서로 137(효성동,외7필지)","jibunAddress":"","phone":"","foodType":"","mainFood":"","designatedDate":"2025-08-25","lat":37.527835943,"lng":126.7257637,"region":"인천광역시","source":"safefood","safeFoodGrade":"우수","safeFoodCertNo":"HG250638151"},{"id":"safefood-incheon-HG250637927","name":"비에치씨(BHC)치킨(갈산역점)","address":"인천광역시 부평구 주부토로 236(인천테크노밸리 U1센터 B동 1층 160호, 161호 갈산동)","jibunAddress":"","phone":"","foodType":"","mainFood":"","designatedDate":"2025-08-20","lat":37.49768079,"lng":126.724732244,"region":"인천광역시","source":"safefood","safeFoodGrade":"매우우수","safeFoodCertNo":"HG250637927"},{"id":"safefood-incheon-HG250638716","name":"신대청마루","address":"인천광역시 동구 방축로 105(송림동,산업용품유통센타 편익 C동 지하 21호)","jibunAddress":"","phone":"","foodType":"","mainFood":"","designatedDate":"2025-09-04","lat":37.4803896,"lng":126.6635622,"region":"인천광역시","source":"safefood","safeFoodGrade":"우수","safeFoodCertNo":"HG250638716"},{"id":"safefood-incheon-HG230007209","name":"카페개러지(cafe garage)부평산곡점","address":"인천광역시 부평구 마장로 183(1층 일부호 산곡동)","jibunAddress":"","phone":"","foodType":"","mainFood":"","designatedDate":"2025-09-25","lat":37.500610042,"lng":126.702451826,"region":"인천광역시","source":"safefood","safeFoodGrade":"매우우수","safeFoodCertNo":"HG230007209"},{"id":"safefood-incheon-HG250637832","name":"투썸플레이스부평시장역점","address":"인천광역시 부평구 부평대로 65(부평동, 1층)","jibunAddress":"","phone":"","foodType":"","mainFood":"","designatedDate":"2025-08-19","lat":37.493133557,"lng":126.722483332,"region":"인천광역시","source":"safefood","safeFoodGrade":"매우우수","safeFoodCertNo":"HG250637832"},{"id":"safefood-incheon-HG210008862","name":"던킨도너츠 부평동아점","address":"인천광역시 부평구 부평문화로 42(부평동,102호)","jibunAddress":"","phone":"","foodType":"","mainFood":"","designatedDate":"2025-09-13","lat":37.494322652,"lng":126.728899009,"region":"인천광역시","source":"safefood","safeFoodGrade":"매우우수","safeFoodCertNo":"HG210008862"},{"id":"safefood-incheon-HG210008673","name":"던킨(DUNKIN) 송도센트럴점","address":"인천광역시 연수구 센트럴로 160(판매시설동 125호 송도동, 송도센트럴파크푸르지오)","jibunAddress":"","phone":"","foodType":"","mainFood":"","designatedDate":"2025-09-07","lat":37.386713129,"lng":126.645727213,"region":"인천광역시","source":"safefood","safeFoodGrade":"매우우수","safeFoodCertNo":"HG210008673"},{"id":"safefood-incheon-HG250637689","name":"삼락유황오리","address":"인천광역시 계양구 오조산로45번길 12(계산동,,5  유연프라자 201호)","jibunAddress":"","phone":"","foodType":"","mainFood":"","designatedDate":"2025-08-18","lat":37.534639172,"lng":126.737168611,"region":"인천광역시","source":"safefood","safeFoodGrade":"매우우수","safeFoodCertNo":"HG250637689"},{"id":"safefood-incheon-HG250637688","name":"만월","address":"인천광역시 계양구 오조산로57번길 15(계산동, 102호,103호)","jibunAddress":"","phone":"","foodType":"","mainFood":"","designatedDate":"2025-08-18","lat":37.535931256,"lng":126.737286772,"region":"인천광역시","source":"safefood","safeFoodGrade":"매우우수","safeFoodCertNo":"HG250637688"},{"id":"safefood-incheon-HG210008623","name":"카페와안(cafe WAAN)","address":"인천광역시 연수구 인천타워대로132번길 24(지상1,2층 송도동, 모아프라자 102호일부,103호,104호,202호)","jibunAddress":"","phone":"","foodType":"","mainFood":"","designatedDate":"2025-09-07","lat":37.38599150946484,"lng":126.6435586122863,"region":"인천광역시","source":"safefood","safeFoodGrade":"매우우수","safeFoodCertNo":"HG210008623"},{"id":"safefood-incheon-HG230007002","name":"BBQ 인천신포사거리점","address":"인천광역시 중구 제물량로166번길 1-21(1층 신생동)","jibunAddress":"","phone":"","foodType":"","mainFood":"","designatedDate":"2025-09-18","lat":37.471484,"lng":126.62625,"region":"인천광역시","source":"safefood","safeFoodGrade":"우수","safeFoodCertNo":"HG230007002"},{"id":"safefood-incheon-HG250637081","name":"할리스커피 인천대입구역점","address":"인천광역시 연수구 인천타워대로132번길 34(라이크홈메디컬센터 1동 104,105호 송도동)","jibunAddress":"","phone":"","foodType":"","mainFood":"","designatedDate":"2025-08-05","lat":37.38599150946484,"lng":126.6435586122863,"region":"인천광역시","source":"safefood","safeFoodGrade":"매우우수","safeFoodCertNo":"HG250637081"},{"id":"safefood-incheon-HG230006519","name":"비비큐치킨부평백운역점","address":"인천광역시 부평구 마장로 78(1층 일부 십정동)","jibunAddress":"","phone":"","foodType":"","mainFood":"","designatedDate":"2025-09-01","lat":37.500610042,"lng":126.702451826,"region":"인천광역시","source":"safefood","safeFoodGrade":"매우우수","safeFoodCertNo":"HG230006519"},{"id":"safefood-incheon-HG250637293","name":"투썸플레이스인천갈산역점","address":"인천광역시 부평구 평천로 286(갈산동, 1,2층 일부)","jibunAddress":"","phone":"","foodType":"","mainFood":"","designatedDate":"2025-08-06","lat":37.51732764,"lng":126.732677844,"region":"인천광역시","source":"safefood","safeFoodGrade":"우수","safeFoodCertNo":"HG250637293"},{"id":"safefood-incheon-HG250636471","name":"투썸플레이스간석점","address":"인천광역시 남동구 남동대로 894(1층 일부호 간석동, 강남빌딩)","jibunAddress":"","phone":"","foodType":"","mainFood":"","designatedDate":"2025-07-23","lat":37.451951111,"lng":126.708434514,"region":"인천광역시","source":"safefood","safeFoodGrade":"매우우수","safeFoodCertNo":"HG250636471"},{"id":"safefood-incheon-HG250637059","name":"본죽 & 비빔밥 카페 인천 주안점","address":"인천광역시 미추홀구 미추홀대로 716(주안동, 106호,108호)","jibunAddress":"","phone":"","foodType":"","mainFood":"","designatedDate":"2025-08-05","lat":37.458856692,"lng":126.680400372,"region":"인천광역시","source":"safefood","safeFoodGrade":"매우우수","safeFoodCertNo":"HG250637059"},{"id":"safefood-incheon-HG250637053","name":"누구나홀딱반한닭 부개점","address":"인천광역시 부평구 부평문화로 188(1층 일부 부개동)","jibunAddress":"","phone":"","foodType":"","mainFood":"","designatedDate":"2025-08-05","lat":37.494322652,"lng":126.728899009,"region":"인천광역시","source":"safefood","safeFoodGrade":"매우우수","safeFoodCertNo":"HG250637053"},{"id":"safefood-incheon-HG250637423","name":"본죽","address":"인천광역시 서구 가정로 187(석남동)","jibunAddress":"","phone":"","foodType":"","mainFood":"","designatedDate":"2025-08-11","lat":37.504511236,"lng":126.671915038,"region":"인천광역시","source":"safefood","safeFoodGrade":"매우우수","safeFoodCertNo":"HG250637423"},{"id":"safefood-incheon-HG250637040","name":"맘스터치 인천주안역점","address":"인천광역시 미추홀구 미추홀대로 715(1층 2호 주안동)","jibunAddress":"","phone":"","foodType":"","mainFood":"","designatedDate":"2025-08-05","lat":37.458856692,"lng":126.680400372,"region":"인천광역시","source":"safefood","safeFoodGrade":"매우우수","safeFoodCertNo":"HG250637040"},{"id":"safefood-incheon-HG250635873","name":"삼교리동치미막국수 송도점","address":"인천광역시 연수구 센트럴로 123(송도컨벤시아 1층 M01,M02호 송도동)","jibunAddress":"","phone":"","foodType":"","mainFood":"","designatedDate":"2025-07-09","lat":37.386713129,"lng":126.645727213,"region":"인천광역시","source":"safefood","safeFoodGrade":"우수","safeFoodCertNo":"HG250635873"},{"id":"safefood-incheon-HG250635872","name":"레인보우차이홍","address":"인천광역시 연수구 센트럴로 123(송도컨벤시아 1층 M19,20,21호 송도동)","jibunAddress":"","phone":"","foodType":"","mainFood":"","designatedDate":"2025-07-09","lat":37.386713129,"lng":126.645727213,"region":"인천광역시","source":"safefood","safeFoodGrade":"우수","safeFoodCertNo":"HG250635872"},{"id":"safefood-incheon-HG250636692","name":"맘스피자 인천 영흥도점","address":"인천광역시 옹진군 영흥면 영흥로144번길 4(1층 일부호)","jibunAddress":"","phone":"","foodType":"","mainFood":"","designatedDate":"2025-07-28","lat":37.254230358,"lng":126.463755369,"region":"인천광역시","source":"safefood","safeFoodGrade":"매우우수","safeFoodCertNo":"HG250636692"},{"id":"safefood-incheon-HG250636691","name":"맘스터치 인천 영흥도점","address":"인천광역시 옹진군 영흥면 영흥로144번길 4(1층 일부호)","jibunAddress":"","phone":"","foodType":"","mainFood":"","designatedDate":"2025-07-28","lat":37.254230358,"lng":126.463755369,"region":"인천광역시","source":"safefood","safeFoodGrade":"매우우수","safeFoodCertNo":"HG250636691"},{"id":"safefood-incheon-HG250636688","name":"맘스터치","address":"인천광역시 중구 개항로 28-3(신포동, 1,2층)","jibunAddress":"","phone":"","foodType":"","mainFood":"","designatedDate":"2025-07-28","lat":37.472559862,"lng":126.628569566,"region":"인천광역시","source":"safefood","safeFoodGrade":"매우우수","safeFoodCertNo":"HG250636688"},{"id":"safefood-incheon-HG230006749","name":"참나무골한우곱창","address":"인천광역시 부평구 마장로 380(1층 일부 청천동)","jibunAddress":"","phone":"","foodType":"","mainFood":"","designatedDate":"2025-09-11","lat":37.500610042,"lng":126.702451826,"region":"인천광역시","source":"safefood","safeFoodGrade":"좋음","safeFoodCertNo":"HG230006749"},{"id":"safefood-incheon-HG250637268","name":"메가엠지씨 커피 인천 주안남초점","address":"인천광역시 미추홀구 동주길 4(1층 주안동)","jibunAddress":"","phone":"","foodType":"","mainFood":"","designatedDate":"2025-08-06","lat":37.456786266,"lng":126.684785064,"region":"인천광역시","source":"safefood","safeFoodGrade":"매우우수","safeFoodCertNo":"HG250637268"},{"id":"safefood-incheon-HG230006999","name":"할리스커피","address":"인천광역시 남동구 남동대로 931(1층 일부호 간석동)","jibunAddress":"","phone":"","foodType":"","mainFood":"","designatedDate":"2025-09-18","lat":37.451951111,"lng":126.708434514,"region":"인천광역시","source":"safefood","safeFoodGrade":"매우우수","safeFoodCertNo":"HG230006999"},{"id":"safefood-incheon-HG230006478","name":"비노이노체(Vino y Noche)","address":"인천광역시 연수구 청량로70번길 40-12(3층 동춘동)","jibunAddress":"","phone":"","foodType":"","mainFood":"","designatedDate":"2025-09-01","lat":37.416445808,"lng":126.658932103,"region":"인천광역시","source":"safefood","safeFoodGrade":"매우우수","safeFoodCertNo":"HG230006478"},{"id":"safefood-incheon-HG230006479","name":"라비스타(La Vista)","address":"인천광역시 연수구 청량로70번길 40-12(2층 동춘동)","jibunAddress":"","phone":"","foodType":"","mainFood":"","designatedDate":"2025-09-01","lat":37.416445808,"lng":126.658932103,"region":"인천광역시","source":"safefood","safeFoodGrade":"매우우수","safeFoodCertNo":"HG230006479"},{"id":"safefood-incheon-HG210008262","name":"롯데쇼핑(주)롯데마트 송도점","address":"인천광역시 연수구 컨벤시아대로 177(지상2층 송도동, 롯데마트 송도점)","jibunAddress":"","phone":"","foodType":"","mainFood":"","designatedDate":"2025-08-30","lat":37.39606427,"lng":126.649034031,"region":"인천광역시","source":"safefood","safeFoodGrade":"매우우수","safeFoodCertNo":"HG210008262"},{"id":"safefood-incheon-HG250636952","name":"메가엠지씨커피 부평에스케이뷰해모로점","address":"인천광역시 부평구 부평문화로 186-1(1층 부개동)","jibunAddress":"","phone":"","foodType":"","mainFood":"","designatedDate":"2025-08-05","lat":37.494322652,"lng":126.728899009,"region":"인천광역시","source":"safefood","safeFoodGrade":"매우우수","safeFoodCertNo":"HG250636952"},{"id":"safefood-incheon-HG210008887","name":"교촌","address":"인천광역시 연수구 독배로 35(지상1층 101,113,115,118호 옥련동)","jibunAddress":"","phone":"","foodType":"","mainFood":"","designatedDate":"2025-09-13","lat":37.422240218,"lng":126.645508103,"region":"인천광역시","source":"safefood","safeFoodGrade":"매우우수","safeFoodCertNo":"HG210008887"},{"id":"safefood-incheon-HG250636450","name":"동대문엽기떡볶이 인천송도캠퍼스타운점","address":"인천광역시 연수구 송도과학로27번길 55(송도동, 롯데캐슬캠퍼스타운301동 A-202호)","jibunAddress":"","phone":"","foodType":"","mainFood":"","designatedDate":"2025-07-22","lat":37.3879630465081,"lng":126.667249614783,"region":"인천광역시","source":"safefood","safeFoodGrade":"매우우수","safeFoodCertNo":"HG250636450"},{"id":"safefood-incheon-HG250636324","name":"인브스 키친","address":"인천광역시 연수구 센트럴로 160(판매시설동 지상1층 128,129호 송도동, 송도센트럴파크푸르지오)","jibunAddress":"","phone":"","foodType":"","mainFood":"","designatedDate":"2025-07-18","lat":37.386713129,"lng":126.645727213,"region":"인천광역시","source":"safefood","safeFoodGrade":"매우우수","safeFoodCertNo":"HG250636324"},{"id":"safefood-incheon-HG250636614","name":"온육집부평점","address":"인천광역시 부평구 장제로 214(1층 일부 부평동)","jibunAddress":"","phone":"","foodType":"","mainFood":"","designatedDate":"2025-07-28","lat":37.503790091,"lng":126.731298309,"region":"인천광역시","source":"safefood","safeFoodGrade":"좋음","safeFoodCertNo":"HG250636614"},{"id":"safefood-incheon-HG250636609","name":"자담치킨(루원시티점)","address":"인천광역시 서구 가정로 437(308동 177호 가정동, 루원시티 SK Leaders` VIEW)","jibunAddress":"","phone":"","foodType":"","mainFood":"","designatedDate":"2025-07-28","lat":37.504511236,"lng":126.671915038,"region":"인천광역시","source":"safefood","safeFoodGrade":"매우우수","safeFoodCertNo":"HG250636609"},{"id":"safefood-incheon-HG250636050","name":"베이커리코너롯데마트부평역사점","address":"인천광역시 부평구 광장로 16(부평민자역사 본건물 나호 3층 일부호 부평동)","jibunAddress":"","phone":"","foodType":"","mainFood":"","designatedDate":"2025-07-14","lat":37.490392871,"lng":126.72486251,"region":"인천광역시","source":"safefood","safeFoodGrade":"매우우수","safeFoodCertNo":"HG250636050"},{"id":"safefood-incheon-HG230006484","name":"뚜레쥬르(계양 작전점)","address":"인천광역시 계양구 장제로 672(1층 109호 작전동)","jibunAddress":"","phone":"","foodType":"","mainFood":"","designatedDate":"2025-09-01","lat":37.54508754,"lng":126.738277999,"region":"인천광역시","source":"safefood","safeFoodGrade":"매우우수","safeFoodCertNo":"HG230006484"},{"id":"safefood-incheon-HG230007195","name":"부산식당","address":"인천광역시 계양구 계양문화로59번길 1(계산동,,62층)","jibunAddress":"","phone":"","foodType":"","mainFood":"","designatedDate":"2025-09-25","lat":37.535989085,"lng":126.736224023,"region":"인천광역시","source":"safefood","safeFoodGrade":"좋음","safeFoodCertNo":"HG230007195"},{"id":"safefood-incheon-HG230005608","name":"드롭탑 계양구청점","address":"인천광역시 계양구 오조산로57번길 7(계산동,성림프라자 1층 3호)","jibunAddress":"","phone":"","foodType":"","mainFood":"","designatedDate":"2025-08-07","lat":37.535931256,"lng":126.737286772,"region":"인천광역시","source":"safefood","safeFoodGrade":"매우우수","safeFoodCertNo":"HG230005608"},{"id":"safefood-incheon-HG230006458","name":"불닭발땡초동대문엽기떡볶이 학익점","address":"인천광역시 미추홀구 소성로 164(법조빌딩 1층 101호 학익동)","jibunAddress":"","phone":"","foodType":"","mainFood":"","designatedDate":"2025-09-01","lat":37.440541427,"lng":126.669513001,"region":"인천광역시","source":"safefood","safeFoodGrade":"매우우수","safeFoodCertNo":"HG230006458"},{"id":"safefood-incheon-HG250636926","name":"세븐스플로어","address":"인천광역시 부평구 부평대로 15(부평서파빌딩 7층 부평동)","jibunAddress":"","phone":"","foodType":"","mainFood":"","designatedDate":"2025-08-05","lat":37.493133557,"lng":126.722483332,"region":"인천광역시","source":"safefood","safeFoodGrade":"매우우수","safeFoodCertNo":"HG250636926"},{"id":"safefood-incheon-HG210008818","name":"인브스키친","address":"인천광역시 부평구 부평대로 39-6(1층 부평동)","jibunAddress":"","phone":"","foodType":"","mainFood":"","designatedDate":"2025-09-13","lat":37.493133557,"lng":126.722483332,"region":"인천광역시","source":"safefood","safeFoodGrade":"매우우수","safeFoodCertNo":"HG210008818"},{"id":"safefood-incheon-HG210007756","name":"이디야커피 간석홈플러스점","address":"인천광역시 남동구 경원대로 971(1층 일부호 간석동, 홈플러스인천간석점)","jibunAddress":"","phone":"","foodType":"","mainFood":"","designatedDate":"2025-08-13","lat":37.468107192,"lng":126.690593189,"region":"인천광역시","source":"safefood","safeFoodGrade":"매우우수","safeFoodCertNo":"HG210007756"},{"id":"safefood-incheon-HG250636287","name":"투썸플레이스길병원암센터점","address":"인천광역시 남동구 남동대로 786(1층 구월동, 길병원 암센터)","jibunAddress":"","phone":"","foodType":"","mainFood":"","designatedDate":"2025-07-18","lat":37.451951111,"lng":126.708434514,"region":"인천광역시","source":"safefood","safeFoodGrade":"매우우수","safeFoodCertNo":"HG250636287"},{"id":"safefood-incheon-HG250636869","name":"도미노피자주안점","address":"인천광역시 미추홀구 인주대로 410(탑클래시아 1층 105호 주안동)","jibunAddress":"","phone":"","foodType":"","mainFood":"","designatedDate":"2025-08-04","lat":37.450559764,"lng":126.686343312,"region":"인천광역시","source":"safefood","safeFoodGrade":"매우우수","safeFoodCertNo":"HG250636869"},{"id":"safefood-incheon-HG250636017","name":"메가엠지씨커피 강화군청점","address":"인천광역시 강화군 강화읍 강화대로 402","jibunAddress":"","phone":"","foodType":"","mainFood":"","designatedDate":"2025-07-14","lat":37.747843903,"lng":126.484888264,"region":"인천광역시","source":"safefood","safeFoodGrade":"매우우수","safeFoodCertNo":"HG250636017"},{"id":"safefood-incheon-HG230006475","name":"블루피쉬(Blue fish)","address":"인천광역시 연수구 인천타워대로 257(아트포레 2층 B-207호 송도동)","jibunAddress":"","phone":"","foodType":"","mainFood":"","designatedDate":"2025-09-01","lat":37.3937818483729,"lng":126.633289319826,"region":"인천광역시","source":"safefood","safeFoodGrade":"매우우수","safeFoodCertNo":"HG230006475"},{"id":"safefood-incheon-HG250636232","name":"본죽&비빔밥 인천갈산점","address":"인천광역시 부평구 주부토로 182(1동 104호 갈산동)","jibunAddress":"","phone":"","foodType":"","mainFood":"","designatedDate":"2025-07-18","lat":37.49768079,"lng":126.724732244,"region":"인천광역시","source":"safefood","safeFoodGrade":"매우우수","safeFoodCertNo":"HG250636232"},{"id":"safefood-incheon-HG210008488","name":"던킨도넛츠(간석홈플러스점)","address":"인천광역시 남동구 경원대로 971(간석동,경원로 629 삼성테스코홈플러스인천간석점 2층 식당가)","jibunAddress":"","phone":"","foodType":"","mainFood":"","designatedDate":"2025-09-01","lat":37.468107192,"lng":126.690593189,"region":"인천광역시","source":"safefood","safeFoodGrade":"매우우수","safeFoodCertNo":"HG210008488"},{"id":"safefood-incheon-HG230006411","name":"더키친일뽀르노 영종도파라다이스시티점","address":"인천광역시 중구 영종해안남로321번길 186(파라다이스시티 플라자 1층 K101-2호 운서동)","jibunAddress":"","phone":"","foodType":"","mainFood":"","designatedDate":"2025-08-31","lat":37.438028,"lng":126.456713,"region":"인천광역시","source":"safefood","safeFoodGrade":"매우우수","safeFoodCertNo":"HG230006411"},{"id":"safefood-incheon-HG250636820","name":"카페써드포레스트","address":"인천광역시 연수구 센트럴로 263(송도국제업무단지 C8-2블럭 업무복합시설 업무시설동 지상3층 일부호 송도동)","jibunAddress":"","phone":"","foodType":"","mainFood":"","designatedDate":"2025-08-04","lat":37.386713129,"lng":126.645727213,"region":"인천광역시","source":"safefood","safeFoodGrade":"매우우수","safeFoodCertNo":"HG250636820"},{"id":"safefood-incheon-HG250636449","name":"고망고 인천부평구청점","address":"인천광역시 부평구 부평대로 157(1111 1층 및 테라스 부평동)","jibunAddress":"","phone":"","foodType":"","mainFood":"","designatedDate":"2025-07-22","lat":37.493133557,"lng":126.722483332,"region":"인천광역시","source":"safefood","safeFoodGrade":"매우우수","safeFoodCertNo":"HG250636449"},{"id":"safefood-incheon-HG230006946","name":"무궁","address":"인천광역시 서구 청라커낼로260번길 7-9(반안프라자 2차 B01,B02호 청라동)","jibunAddress":"","phone":"","foodType":"","mainFood":"","designatedDate":"2025-09-18","lat":37.532082386,"lng":126.646369054,"region":"인천광역시","source":"safefood","safeFoodGrade":"우수","safeFoodCertNo":"HG230006946"},{"id":"safefood-incheon-HG250636448","name":"땡초불닭발동대문엽기떡볶이","address":"인천광역시 부평구 마장로324번길 7(산곡동)","jibunAddress":"","phone":"","foodType":"","mainFood":"","designatedDate":"2025-07-22","lat":37.506450762,"lng":126.70736023,"region":"인천광역시","source":"safefood","safeFoodGrade":"매우우수","safeFoodCertNo":"HG250636448"},{"id":"safefood-incheon-HG250636447","name":"정직담은식탁","address":"인천광역시 부평구 부평대로 153(부평구청역대명벨리온 142호 부평동)","jibunAddress":"","phone":"","foodType":"","mainFood":"","designatedDate":"2025-07-22","lat":37.493133557,"lng":126.722483332,"region":"인천광역시","source":"safefood","safeFoodGrade":"매우우수","safeFoodCertNo":"HG250636447"},{"id":"safefood-incheon-HG250635841","name":"플러스앤시스템","address":"인천광역시 연수구 센트럴로 123(송도동,컨벤션센터 지상1층)","jibunAddress":"","phone":"","foodType":"","mainFood":"","designatedDate":"2025-07-09","lat":37.386713129,"lng":126.645727213,"region":"인천광역시","source":"safefood","safeFoodGrade":"매우우수","safeFoodCertNo":"HG250635841"},{"id":"safefood-incheon-HG250635840","name":"(주)로얄관광호텔송도컨벤시아지점","address":"인천광역시 연수구 센트럴로 123(송도동,송도컨벤시아 지상2층)","jibunAddress":"","phone":"","foodType":"","mainFood":"","designatedDate":"2025-07-09","lat":37.386713129,"lng":126.645727213,"region":"인천광역시","source":"safefood","safeFoodGrade":"매우우수","safeFoodCertNo":"HG250635840"},{"id":"safefood-incheon-HG250635839","name":"커피101스트릿","address":"인천광역시 연수구 센트럴로 123(1층 송도동, 송도컨벤시아내)","jibunAddress":"","phone":"","foodType":"","mainFood":"","designatedDate":"2025-07-09","lat":37.386713129,"lng":126.645727213,"region":"인천광역시","source":"safefood","safeFoodGrade":"매우우수","safeFoodCertNo":"HG250635839"},{"id":"safefood-incheon-HG250635838","name":"커피101스트릿","address":"인천광역시 연수구 센트럴로 123(1층 송도동, 송도컨벤시아)","jibunAddress":"","phone":"","foodType":"","mainFood":"","designatedDate":"2025-07-09","lat":37.386713129,"lng":126.645727213,"region":"인천광역시","source":"safefood","safeFoodGrade":"매우우수","safeFoodCertNo":"HG250635838"},{"id":"safefood-incheon-HG250635837","name":"세븐일레븐 송도컨벤시아점","address":"인천광역시 연수구 센트럴로 123(송도컨벤시아 M06일부호 송도동)","jibunAddress":"","phone":"","foodType":"","mainFood":"","designatedDate":"2025-07-09","lat":37.386713129,"lng":126.645727213,"region":"인천광역시","source":"safefood","safeFoodGrade":"매우우수","safeFoodCertNo":"HG250635837"},{"id":"safefood-incheon-HG250635836","name":"경성한우불고기","address":"인천광역시 연수구 센트럴로 123(송도컨벤시아 M동 1층 4호, 5호 송도동)","jibunAddress":"","phone":"","foodType":"","mainFood":"","designatedDate":"2025-07-09","lat":37.386713129,"lng":126.645727213,"region":"인천광역시","source":"safefood","safeFoodGrade":"우수","safeFoodCertNo":"HG250635836"},{"id":"safefood-incheon-HG250635835","name":"호천당 인천송도점","address":"인천광역시 연수구 센트럴로 123(송도컨벤시아 1층 M03호 송도동)","jibunAddress":"","phone":"","foodType":"","mainFood":"","designatedDate":"2025-07-09","lat":37.386713129,"lng":126.645727213,"region":"인천광역시","source":"safefood","safeFoodGrade":"매우우수","safeFoodCertNo":"HG250635835"},{"id":"safefood-incheon-HG250635834","name":"나이로비커피 비스트로","address":"인천광역시 연수구 센트럴로 123(송도컨벤시아 1층 M26호 송도동)","jibunAddress":"","phone":"","foodType":"","mainFood":"","designatedDate":"2025-07-09","lat":37.386713129,"lng":126.645727213,"region":"인천광역시","source":"safefood","safeFoodGrade":"매우우수","safeFoodCertNo":"HG250635834"},{"id":"safefood-incheon-HG250635833","name":"송토","address":"인천광역시 연수구 센트럴로 123(송도컨벤시아 지상1층 M08,M09호 송도동)","jibunAddress":"","phone":"","foodType":"","mainFood":"","designatedDate":"2025-07-09","lat":37.386713129,"lng":126.645727213,"region":"인천광역시","source":"safefood","safeFoodGrade":"좋음","safeFoodCertNo":"HG250635833"},{"id":"safefood-incheon-HG210008148","name":"아트랑","address":"인천광역시 남동구 구월남로 151(제1동 2층 구월동, 우스빌딩)","jibunAddress":"","phone":"","foodType":"","mainFood":"","designatedDate":"2025-08-25","lat":37.453374772,"lng":126.706279052,"region":"인천광역시","source":"safefood","safeFoodGrade":"매우우수","safeFoodCertNo":"HG210008148"},{"id":"safefood-incheon-HG250635703","name":"육식사관학교 인천계양점","address":"인천광역시 계양구 계산새로 25(성일빌딩 1층 일부호 계산동)","jibunAddress":"","phone":"","foodType":"","mainFood":"","designatedDate":"2025-07-04","lat":37.538202285,"lng":126.737539071,"region":"인천광역시","source":"safefood","safeFoodGrade":"매우우수","safeFoodCertNo":"HG250635703"},{"id":"safefood-incheon-HG250636531","name":"씨유 인천개항점","address":"인천광역시 중구 개항로 107(평남도민회 1층 경동)","jibunAddress":"","phone":"","foodType":"","mainFood":"","designatedDate":"2025-07-25","lat":37.472559862,"lng":126.628569566,"region":"인천광역시","source":"safefood","safeFoodGrade":"매우우수","safeFoodCertNo":"HG250636531"},{"id":"safefood-incheon-HG250636163","name":"메가엠지씨커피 인천숭의점","address":"인천광역시 미추홀구 경인로 63(1층 숭의동)","jibunAddress":"","phone":"","foodType":"","mainFood":"","designatedDate":"2025-07-16","lat":37.459641901,"lng":126.693298803,"region":"인천광역시","source":"safefood","safeFoodGrade":"매우우수","safeFoodCertNo":"HG250636163"},{"id":"safefood-incheon-HG250635820","name":"투썸플레이스(송도포스코이엔씨)","address":"인천광역시 연수구 인천타워대로 241(송도동,주포스코건설사옥지하1층22호)","jibunAddress":"","phone":"","foodType":"","mainFood":"","designatedDate":"2025-07-09","lat":37.3937818483729,"lng":126.633289319826,"region":"인천광역시","source":"safefood","safeFoodGrade":"매우우수","safeFoodCertNo":"HG250635820"},{"id":"safefood-incheon-HG250635988","name":"더벤티 인천주안역점","address":"인천광역시 미추홀구 주안로 112(대동빌딩 1층1호 좌측호 주안동)","jibunAddress":"","phone":"","foodType":"","mainFood":"","designatedDate":"2025-07-14","lat":37.464394783,"lng":126.679242477,"region":"인천광역시","source":"safefood","safeFoodGrade":"매우우수","safeFoodCertNo":"HG250635988"},{"id":"safefood-incheon-HG250635986","name":"본죽","address":"인천광역시 미추홀구 매소홀로 468(학익동,목향빌딩내1층)","jibunAddress":"","phone":"","foodType":"","mainFood":"","designatedDate":"2025-07-14","lat":37.449405871,"lng":126.634391099,"region":"인천광역시","source":"safefood","safeFoodGrade":"매우우수","safeFoodCertNo":"HG250635986"},{"id":"safefood-incheon-HG230007109","name":"오구본가 부평4동점","address":"인천광역시 부평구 주부토로 74(부평동, 1층)","jibunAddress":"","phone":"","foodType":"","mainFood":"","designatedDate":"2025-09-20","lat":37.49768079,"lng":126.724732244,"region":"인천광역시","source":"safefood","safeFoodGrade":"매우우수","safeFoodCertNo":"HG230007109"},{"id":"safefood-incheon-HG250635805","name":"파리바게뜨(아주쌍용점)","address":"인천광역시 연수구 청량로 210(상가동 옥련동, 쌍용아파트상가, 101호,102호,103호)","jibunAddress":"","phone":"","foodType":"","mainFood":"","designatedDate":"2025-07-09","lat":37.418115419,"lng":126.655034912,"region":"인천광역시","source":"safefood","safeFoodGrade":"매우우수","safeFoodCertNo":"HG250635805"},{"id":"safefood-incheon-HG250635399","name":"파리바게뜨강화길상점","address":"인천광역시 강화군 길상면 온수길 35","jibunAddress":"","phone":"","foodType":"","mainFood":"","designatedDate":"2025-07-01","lat":37.609882244,"lng":126.520134457,"region":"인천광역시","source":"safefood","safeFoodGrade":"매우우수","safeFoodCertNo":"HG250635399"},{"id":"safefood-incheon-HG250635985","name":"파리바게뜨 학익SK점","address":"인천광역시 미추홀구 매소홀로 419(학익동)","jibunAddress":"","phone":"","foodType":"","mainFood":"","designatedDate":"2025-07-14","lat":37.449405871,"lng":126.634391099,"region":"인천광역시","source":"safefood","safeFoodGrade":"매우우수","safeFoodCertNo":"HG250635985"},{"id":"safefood-incheon-HG230005795","name":"등촌샤브칼국수","address":"인천광역시 남동구 논고개로 118(논현동,양진타워 201호, 202호)","jibunAddress":"","phone":"","foodType":"","mainFood":"","designatedDate":"2025-08-11","lat":37.543995977,"lng":126.677374821,"region":"인천광역시","source":"safefood","safeFoodGrade":"좋음","safeFoodCertNo":"HG230005795"},{"id":"safefood-incheon-HG250635393","name":"파리바게뜨 숭의역점","address":"인천광역시 미추홀구 인주대로 5(1층 A-138호 숭의동, 힐스테이트 숭의역)","jibunAddress":"","phone":"","foodType":"","mainFood":"","designatedDate":"2025-07-01","lat":37.450559764,"lng":126.686343312,"region":"인천광역시","source":"safefood","safeFoodGrade":"매우우수","safeFoodCertNo":"HG250635393"},{"id":"safefood-incheon-HG250635983","name":"파리바게뜨 주안 힐스테이트 푸르지오점","address":"인천광역시 미추홀구 남주길 150(117,118호 주안동, 힐스테이트 푸르지오 주안)","jibunAddress":"","phone":"","foodType":"","mainFood":"","designatedDate":"2025-07-14","lat":37.454462417,"lng":126.669851118,"region":"인천광역시","source":"safefood","safeFoodGrade":"매우우수","safeFoodCertNo":"HG250635983"},{"id":"safefood-incheon-HG250636132","name":"홈플러스(주)인천숭의점 델리숭의점","address":"인천광역시 미추홀구 석정로 51(지하1층 숭의동)","jibunAddress":"","phone":"","foodType":"","mainFood":"","designatedDate":"2025-07-16","lat":37.467918466,"lng":126.660428978,"region":"인천광역시","source":"safefood","safeFoodGrade":"매우우수","safeFoodCertNo":"HG250636132"},{"id":"safefood-incheon-HG250635382","name":"투썸플레이스 인천법원점","address":"인천광역시 미추홀구 소성로 197(학익동)","jibunAddress":"","phone":"","foodType":"","mainFood":"","designatedDate":"2025-07-01","lat":37.440541427,"lng":126.669513001,"region":"인천광역시","source":"safefood","safeFoodGrade":"매우우수","safeFoodCertNo":"HG250635382"},{"id":"safefood-incheon-HG230005078","name":"소소떡볶이 주안점","address":"인천광역시 미추홀구 주안로 45(제1층 제3호 주안동)","jibunAddress":"","phone":"","foodType":"","mainFood":"","designatedDate":"2025-07-24","lat":37.464394783,"lng":126.679242477,"region":"인천광역시","source":"safefood","safeFoodGrade":"매우우수","safeFoodCertNo":"HG230005078"},{"id":"safefood-incheon-HG250635790","name":"파리바게뜨간석오거리점","address":"인천광역시 남동구 백범로 380(1층 간석동)","jibunAddress":"","phone":"","foodType":"","mainFood":"","designatedDate":"2025-07-09","lat":37.458699587,"lng":126.72724216,"region":"인천광역시","source":"safefood","safeFoodGrade":"매우우수","safeFoodCertNo":"HG250635790"},{"id":"safefood-incheon-HG250635980","name":"파리바게트(박촌점)","address":"인천광역시 계양구 장제로 999(1층 박촌동)","jibunAddress":"","phone":"","foodType":"","mainFood":"","designatedDate":"2025-07-14","lat":37.54508754,"lng":126.738277999,"region":"인천광역시","source":"safefood","safeFoodGrade":"매우우수","safeFoodCertNo":"HG250635980"},{"id":"safefood-incheon-HG250635579","name":"파리바게뜨(호구포역점)","address":"인천광역시 남동구 호구포로 220(논현동,명진프라자 1층일부102호)","jibunAddress":"","phone":"","foodType":"","mainFood":"","designatedDate":"2025-07-03","lat":37.40198551,"lng":126.710070462,"region":"인천광역시","source":"safefood","safeFoodGrade":"매우우수","safeFoodCertNo":"HG250635579"},{"id":"safefood-incheon-HG250635789","name":"맘스터치간석만월산점","address":"인천광역시 남동구 호구포로 917(2층 간석동)","jibunAddress":"","phone":"","foodType":"","mainFood":"","designatedDate":"2025-07-09","lat":37.40198551,"lng":126.710070462,"region":"인천광역시","source":"safefood","safeFoodGrade":"매우우수","safeFoodCertNo":"HG250635789"},{"id":"safefood-incheon-HG250635364","name":"맘스터치 송도신도시점","address":"인천광역시 연수구 컨벤시아대로 69(지상1층 124호 송도동, 송도밀레니엄)","jibunAddress":"","phone":"","foodType":"","mainFood":"","designatedDate":"2025-07-01","lat":37.39606427,"lng":126.649034031,"region":"인천광역시","source":"safefood","safeFoodGrade":"좋음","safeFoodCertNo":"HG250635364"},{"id":"safefood-incheon-HG230006693","name":"커피위드인 인천나비공원점","address":"인천광역시 부평구 평천로 26-47(청천동,2층)","jibunAddress":"","phone":"","foodType":"","mainFood":"","designatedDate":"2025-09-07","lat":37.51732764,"lng":126.732677844,"region":"인천광역시","source":"safefood","safeFoodGrade":"매우우수","safeFoodCertNo":"HG230006693"},{"id":"safefood-incheon-HG210008176","name":"베스킨라빈스","address":"인천광역시 남동구 호구포로 917(1층 간석동)","jibunAddress":"","phone":"","foodType":"","mainFood":"","designatedDate":"2025-08-25","lat":37.40198551,"lng":126.710070462,"region":"인천광역시","source":"safefood","safeFoodGrade":"매우우수","safeFoodCertNo":"HG210008176"},{"id":"safefood-incheon-HG250635084","name":"이디야커피 삼산사거리점","address":"인천광역시 부평구 평천로 388(삼산동, 광백빌딩 지하)","jibunAddress":"","phone":"","foodType":"","mainFood":"","designatedDate":"2025-06-24","lat":37.51732764,"lng":126.732677844,"region":"인천광역시","source":"safefood","safeFoodGrade":"매우우수","safeFoodCertNo":"HG250635084"},{"id":"safefood-incheon-HG210006985","name":"카페오를","address":"인천광역시 연수구 인천타워대로 257(아트포레 D동 D-106호 송도동)","jibunAddress":"","phone":"","foodType":"","mainFood":"","designatedDate":"2025-07-26","lat":37.3937818483729,"lng":126.633289319826,"region":"인천광역시","source":"safefood","safeFoodGrade":"매우우수","safeFoodCertNo":"HG210006985"},{"id":"safefood-incheon-HG210007321","name":"이디야 송도아트포레점","address":"인천광역시 연수구 인천타워대로 257(아트포레 A동 119,122호 송도동)","jibunAddress":"","phone":"","foodType":"","mainFood":"","designatedDate":"2025-07-30","lat":37.3937818483729,"lng":126.633289319826,"region":"인천광역시","source":"safefood","safeFoodGrade":"매우우수","safeFoodCertNo":"HG210007321"},{"id":"safefood-incheon-HG250635769","name":"투썸플레이스신현점","address":"인천광역시 서구 가정로 370(2층 가정동)","jibunAddress":"","phone":"","foodType":"","mainFood":"","designatedDate":"2025-07-09","lat":37.504511236,"lng":126.671915038,"region":"인천광역시","source":"safefood","safeFoodGrade":"매우우수","safeFoodCertNo":"HG250635769"},{"id":"safefood-incheon-HG250635765","name":"경복궁구월점(주)엔타스","address":"인천광역시 남동구 인주대로 593(3,4층 구월동, 엔타스)","jibunAddress":"","phone":"","foodType":"","mainFood":"","designatedDate":"2025-07-09","lat":37.448768487,"lng":126.730298919,"region":"인천광역시","source":"safefood","safeFoodGrade":"매우우수","safeFoodCertNo":"HG250635765"},{"id":"safefood-incheon-HG250635977","name":"메가엠지씨커피 용남시장점","address":"인천광역시 미추홀구 인주대로 264(1층 용현동)","jibunAddress":"","phone":"","foodType":"","mainFood":"","designatedDate":"2025-07-14","lat":37.450559764,"lng":126.686343312,"region":"인천광역시","source":"safefood","safeFoodGrade":"매우우수","safeFoodCertNo":"HG250635977"},{"id":"safefood-incheon-HG210007280","name":"동해물과 아구찜(연수점)","address":"인천광역시 연수구 청능대로55번길 15(1층 일부호 청학동)","jibunAddress":"","phone":"","foodType":"","mainFood":"","designatedDate":"2025-07-30","lat":37.417209978,"lng":126.67360201,"region":"인천광역시","source":"safefood","safeFoodGrade":"매우우수","safeFoodCertNo":"HG210007280"},{"id":"safefood-incheon-HG250634520","name":"배스킨라빈스 인천테크노밸리점","address":"인천광역시 부평구 주부토로 236(인천테크노밸리 U1센터 A동 1층 146호 갈산동)","jibunAddress":"","phone":"","foodType":"","mainFood":"","designatedDate":"2025-06-11","lat":37.49768079,"lng":126.724732244,"region":"인천광역시","source":"safefood","safeFoodGrade":"매우우수","safeFoodCertNo":"HG250634520"},{"id":"safefood-incheon-HG230006527","name":"씨유 계산월드점","address":"인천광역시 계양구 계양문화로59번길 13(월드텔 1층 102호 계산동)","jibunAddress":"","phone":"","foodType":"","mainFood":"","designatedDate":"2025-09-01","lat":37.535989085,"lng":126.736224023,"region":"인천광역시","source":"safefood","safeFoodGrade":"매우우수","safeFoodCertNo":"HG230006527"},{"id":"safefood-incheon-HG250634721","name":"메가엠지씨커피 루원e편한세상점","address":"인천광역시 서구 가정로 390(1층 101호 가정동)","jibunAddress":"","phone":"","foodType":"","mainFood":"","designatedDate":"2025-06-16","lat":37.504511236,"lng":126.671915038,"region":"인천광역시","source":"safefood","safeFoodGrade":"매우우수","safeFoodCertNo":"HG250634721"},{"id":"safefood-incheon-HG200005232","name":"던킨도너츠 부평세림병원","address":"인천광역시 부평구 부평대로 175(1층 청천동, 의료법인안은의료재단E동)","jibunAddress":"","phone":"","foodType":"","mainFood":"","designatedDate":"2024-08-06","lat":37.493133557,"lng":126.722483332,"region":"인천광역시","source":"safefood","safeFoodGrade":"매우우수","safeFoodCertNo":"HG200005232"},{"id":"safefood-incheon-HG250634768","name":"부자갈비경복궁학익점(주)엔타스","address":"인천광역시 미추홀구 매소홀로 378(학익동)","jibunAddress":"","phone":"","foodType":"","mainFood":"","designatedDate":"2025-06-17","lat":37.449405871,"lng":126.634391099,"region":"인천광역시","source":"safefood","safeFoodGrade":"우수","safeFoodCertNo":"HG250634768"},{"id":"safefood-incheon-HG230006514","name":"스텔라떡볶이인천작전점","address":"인천광역시 계양구 효서로 300(삼호프라자 1층 105호 작전동)","jibunAddress":"","phone":"","foodType":"","mainFood":"","designatedDate":"2025-09-01","lat":37.527835943,"lng":126.7257637,"region":"인천광역시","source":"safefood","safeFoodGrade":"매우우수","safeFoodCertNo":"HG230006514"},{"id":"safefood-incheon-HG220008796","name":"호식이 두마리 치킨(검단2호점)","address":"인천광역시 서구 검단로 421(왕길동, 원흥상가 105호)","jibunAddress":"","phone":"","foodType":"","mainFood":"","designatedDate":"2024-10-14","lat":37.603355304,"lng":126.660394732,"region":"인천광역시","source":"safefood","safeFoodGrade":"우수","safeFoodCertNo":"HG220008796"},{"id":"safefood-incheon-HG250635152","name":"버거킹 인천숭의역점","address":"인천광역시 미추홀구 인주대로 5(1층 A122~A124호 숭의동, 힐스테이트 숭의역)","jibunAddress":"","phone":"","foodType":"","mainFood":"","designatedDate":"2025-06-26","lat":37.450559764,"lng":126.686343312,"region":"인천광역시","source":"safefood","safeFoodGrade":"매우우수","safeFoodCertNo":"HG250635152"},{"id":"safefood-incheon-HG230006328","name":"대나무집","address":"인천광역시 동구 샛골로 126(1층 송림동)","jibunAddress":"","phone":"","foodType":"","mainFood":"","designatedDate":"2025-08-30","lat":37.477860942,"lng":126.644753383,"region":"인천광역시","source":"safefood","safeFoodGrade":"좋음","safeFoodCertNo":"HG230006328"},{"id":"safefood-incheon-HG250635546","name":"해님달님 오누이전","address":"인천광역시 남동구 소래역남로16번길 8-7(1층 106호 논현동)","jibunAddress":"","phone":"","foodType":"","mainFood":"","designatedDate":"2025-07-03","lat":37.398034912,"lng":126.735614527,"region":"인천광역시","source":"safefood","safeFoodGrade":"우수","safeFoodCertNo":"HG250635546"},{"id":"safefood-incheon-HG230004827","name":"스넥바 24","address":"인천광역시 중구 영종해안남로321번길 186(파라다이스시티씨메르 2층 운서동)","jibunAddress":"","phone":"","foodType":"","mainFood":"","designatedDate":"2025-07-17","lat":37.438028,"lng":126.456713,"region":"인천광역시","source":"safefood","safeFoodGrade":"매우우수","safeFoodCertNo":"HG230004827"},