[{"id":"safefood-seoul-HG260003242","name":"공차 천호역점","address":"서울특별시 강동구 천호대로 1024(힐스테이트 천호역 젠트리스 1층 130호 성내동)","jibunAddress":"","phone":"","foodType":"","mainFood":"","designatedDate":"2026-04-03","lat":37.534231348,"lng":127.141612394,"region":"서울특별시","source":"safefood","safeFoodGrade":"적합","safeFoodCertNo":"HG260003242"},{"id":"safefood-seoul-HG260003241","name":"스텔라떡볶이 서울 암사점","address":"서울특별시 강동구 올림픽로 816(1층 106호 암사동)","jibunAddress":"","phone":"","foodType":"","mainFood":"","designatedDate":"2026-04-03","lat":37.552206123,"lng":127.127923855,"region":"서울특별시","source":"safefood","safeFoodGrade":"적합","safeFoodCertNo":"HG260003241"},{"id":"safefood-seoul-HG260003240","name":"이디야 암사상암로점","address":"서울특별시 강동구 상암로 55(정인빌딩 1층 101호 암사동)","jibunAddress":"","phone":"","foodType":"","mainFood":"","designatedDate":"2026-04-03","lat":37.550158057,"lng":127.127017207,"region":"서울특별시","source":"safefood","safeFoodGrade":"적합","safeFoodCertNo":"HG260003240"},{"id":"safefood-seoul-HG240002572","name":"선진팜","address":"서울특별시 강동구 양재대로 1378(선진 서울사무소 A동 1층 둔촌동)","jibunAddress":"","phone":"","foodType":"","mainFood":"","designatedDate":"2024-04-15","lat":37.531455302,"lng":127.138150161,"region":"서울특별시","source":"safefood","safeFoodGrade":"매우우수","safeFoodCertNo":"HG240002572"},{"id":"safefood-seoul-HG260003261","name":"짤즈빵 젤라또 Salzpan gelato","address":"서울특별시 송파구 올림픽로 240(롯데월드 매직아일랜드 1층 잠실동)","jibunAddress":"","phone":"","foodType":"","mainFood":"","designatedDate":"2026-04-03","lat":37.536542197,"lng":127.122365781,"region":"서울특별시","source":"safefood","safeFoodGrade":"적합","safeFoodCertNo":"HG260003261"},{"id":"safefood-seoul-HG260003259","name":"델키스 토템스넥","address":"서울특별시 송파구 올림픽로 240(지상1층 잠실동, 롯데월드 어드벤처)","jibunAddress":"","phone":"","foodType":"","mainFood":"","designatedDate":"2026-04-03","lat":37.536542197,"lng":127.122365781,"region":"서울특별시","source":"safefood","safeFoodGrade":"적합","safeFoodCertNo":"HG260003259"},{"id":"safefood-seoul-HG260003142","name":"래빗캐슬","address":"서울특별시 송파구 백제고분로7길 52-29(1층 잠실동)","jibunAddress":"","phone":"","foodType":"","mainFood":"","designatedDate":"2026-04-01","lat":37.510705675,"lng":127.080942248,"region":"서울특별시","source":"safefood","safeFoodGrade":"적합","safeFoodCertNo":"HG260003142"},{"id":"safefood-seoul-HG260003141","name":"플레이팅 79스퀘어점 (PLEEATING 79 SQUARE)","address":"서울특별시 송파구 백제고분로 217(LOTTE GRS 79 SQUARE 지하1층 삼전동)","jibunAddress":"","phone":"","foodType":"","mainFood":"","designatedDate":"2026-04-01","lat":37.504997286,"lng":127.084716591,"region":"서울특별시","source":"safefood","safeFoodGrade":"적합","safeFoodCertNo":"HG260003141"},{"id":"safefood-seoul-HG240002025","name":"츄로빅 롯데월드 어드벤쳐점","address":"서울특별시 송파구 올림픽로 240(지하1층 잠실동, 롯데월드어드벤처)","jibunAddress":"","phone":"","foodType":"","mainFood":"","designatedDate":"2026-04-03","lat":37.536542197,"lng":127.122365781,"region":"서울특별시","source":"safefood","safeFoodGrade":"적합","safeFoodCertNo":"HG240002025"},{"id":"safefood-seoul-HG240001964","name":"윙고(모리스딜라이트)","address":"서울특별시 송파구 올림픽로 240(롯데월드 잠실동)","jibunAddress":"","phone":"","foodType":"","mainFood":"","designatedDate":"2026-03-29","lat":37.536542197,"lng":127.122365781,"region":"서울특별시","source":"safefood","safeFoodGrade":"적합","safeFoodCertNo":"HG240001964"},{"id":"safefood-seoul-HG240001967","name":"오벨리스크","address":"서울특별시 송파구 올림픽로 240(롯데월드어드벤처 4층 잠실동)","jibunAddress":"","phone":"","foodType":"","mainFood":"","designatedDate":"2026-03-29","lat":37.536542197,"lng":127.122365781,"region":"서울특별시","source":"safefood","safeFoodGrade":"적합","safeFoodCertNo":"HG240001967"},{"id":"safefood-seoul-HG240001976","name":"메가엠지씨커피 잠실롯데월드점","address":"서울특별시 송파구 올림픽로 240(롯데월드 WC-1F-08호 잠실동)","jibunAddress":"","phone":"","foodType":"","mainFood":"","designatedDate":"2026-03-29","lat":37.536542197,"lng":127.122365781,"region":"서울특별시","source":"safefood","safeFoodGrade":"적합","safeFoodCertNo":"HG240001976"},{"id":"safefood-seoul-HG260002706","name":"할리스 송파거여역점","address":"서울특별시 송파구 오금로 513(101,102,103,104호 거여동, 위례빌딩)","jibunAddress":"","phone":"","foodType":"","mainFood":"","designatedDate":"2026-03-23","lat":37.510698379,"lng":127.11058374,"region":"서울특별시","source":"safefood","safeFoodGrade":"적합","safeFoodCertNo":"HG260002706"},{"id":"safefood-seoul-HG240001969","name":"101번지남산돈까스 롯데월드점","address":"서울특별시 송파구 올림픽로 240(롯데월드 어드벤처동 지하1층 AD-B1F-01호 잠실동)","jibunAddress":"","phone":"","foodType":"","mainFood":"","designatedDate":"2026-03-29","lat":37.536542197,"lng":127.122365781,"region":"서울특별시","source":"safefood","safeFoodGrade":"적합","safeFoodCertNo":"HG240001969"},{"id":"safefood-seoul-HG260002746","name":"크리스피크림 잠실점","address":"서울특별시 송파구 올림픽로 240(지하1층 잠실동, 롯데백화점)","jibunAddress":"","phone":"","foodType":"","mainFood":"","designatedDate":"2026-03-23","lat":37.536542197,"lng":127.122365781,"region":"서울특별시","source":"safefood","safeFoodGrade":"적합","safeFoodCertNo":"HG260002746"},{"id":"safefood-seoul-HG260002745","name":"원플레이 잠실점","address":"서울특별시 송파구 백제고분로7길 20(2~3층 잠실동)","jibunAddress":"","phone":"","foodType":"","mainFood":"","designatedDate":"2026-03-23","lat":37.510705675,"lng":127.080942248,"region":"서울특별시","source":"safefood","safeFoodGrade":"적합","safeFoodCertNo":"HG260002745"},{"id":"safefood-seoul-HG260002727","name":"제이씨푸드","address":"서울특별시 송파구 백제고분로 258(윤스키친 지하1층 3호 삼전동)","jibunAddress":"","phone":"","foodType":"","mainFood":"","designatedDate":"2026-03-23","lat":37.504997286,"lng":127.084716591,"region":"서울특별시","source":"safefood","safeFoodGrade":"적합","safeFoodCertNo":"HG260002727"},{"id":"safefood-seoul-HG260002723","name":"우지커피 문정테라타워점","address":"서울특별시 송파구 송파대로 167(문정역테라타워 A동 지하1층 G119호 문정동)","jibunAddress":"","phone":"","foodType":"","mainFood":"","designatedDate":"2026-03-23","lat":37.487351122,"lng":127.119501887,"region":"서울특별시","source":"safefood","safeFoodGrade":"적합","safeFoodCertNo":"HG260002723"},{"id":"safefood-seoul-HG260002709","name":"메가엠지씨커피 송파해누리초점","address":"서울특별시 송파구 송파대로37길 88(101호 석촌동)","jibunAddress":"","phone":"","foodType":"","mainFood":"","designatedDate":"2026-03-23","lat":37.499660572,"lng":127.104590513,"region":"서울특별시","source":"safefood","safeFoodGrade":"적합","safeFoodCertNo":"HG260002709"},{"id":"safefood-seoul-HG260002604","name":"잇츠월드 잠실점","address":"서울특별시 송파구 올림픽로 240(롯데월드 쇼핑몰동 B1층 24호 잠실동)","jibunAddress":"","phone":"","foodType":"","mainFood":"","designatedDate":"2026-03-20","lat":37.536542197,"lng":127.122365781,"region":"서울특별시","source":"safefood","safeFoodGrade":"적합","safeFoodCertNo":"HG260002604"},{"id":"safefood-seoul-HG260002603","name":"롯데리아 언더랜드점","address":"서울특별시 송파구 올림픽로 240(지하1층 잠실동,  롯데월드 5-39)","jibunAddress":"","phone":"","foodType":"","mainFood":"","designatedDate":"2026-03-20","lat":37.536542197,"lng":127.122365781,"region":"서울특별시","source":"safefood","safeFoodGrade":"적합","safeFoodCertNo":"HG260002603"},{"id":"safefood-seoul-HG210010473","name":"60계 개포점","address":"서울특별시 강남구 삼성로 38(개포빌딩 1층 115호 개포동)","jibunAddress":"","phone":"","foodType":"","mainFood":"","designatedDate":"2025-11-09","lat":37.50961904,"lng":127.054663078,"region":"서울특별시","source":"safefood","safeFoodGrade":"매우우수","safeFoodCertNo":"HG210010473"},{"id":"safefood-seoul-HG260003132","name":"카페 엘리에나","address":"서울특별시 강남구 논현로 645(엘리에나호텔 지상1층 논현동)","jibunAddress":"","phone":"","foodType":"","mainFood":"","designatedDate":"2026-04-01","lat":37.499000997,"lng":127.03835547,"region":"서울특별시","source":"safefood","safeFoodGrade":"적합","safeFoodCertNo":"HG260003132"},{"id":"safefood-seoul-HG260003131","name":"이도","address":"서울특별시 강남구 논현로 645(엘리에나호텔 7층 논현동)","jibunAddress":"","phone":"","foodType":"","mainFood":"","designatedDate":"2026-04-01","lat":37.499000997,"lng":127.03835547,"region":"서울특별시","source":"safefood","safeFoodGrade":"적합","safeFoodCertNo":"HG260003131"},{"id":"safefood-seoul-HG260003130","name":"까사 안토니오","address":"서울특별시 강남구 논현로 645(엘리에나호텔 14층 논현동)","jibunAddress":"","phone":"","foodType":"","mainFood":"","designatedDate":"2026-04-01","lat":37.499000997,"lng":127.03835547,"region":"서울특별시","source":"safefood","safeFoodGrade":"적합","safeFoodCertNo":"HG260003130"},{"id":"safefood-seoul-HG230005663","name":"파파존스피자압구정점","address":"서울특별시 강남구 논현로175길 69(2층 신사동)","jibunAddress":"","phone":"","foodType":"","mainFood":"","designatedDate":"2025-08-08","lat":37.5223173108567,"lng":127.020612195958,"region":"서울특별시","source":"safefood","safeFoodGrade":"적합","safeFoodCertNo":"HG230005663"},{"id":"safefood-seoul-HG260003041","name":"파스쿠찌 선정릉역점","address":"서울특별시 강남구 선릉로121길 6(지상1층 논현동)","jibunAddress":"","phone":"","foodType":"","mainFood":"","designatedDate":"2026-03-31","lat":37.513692859,"lng":127.041210105,"region":"서울특별시","source":"safefood","safeFoodGrade":"적합","safeFoodCertNo":"HG260003041"},{"id":"safefood-seoul-HG260002959","name":"파스쿠찌 청담역점","address":"서울특별시 강남구 영동대로 646(지하1층 B101호 삼성동, 위레벤646)","jibunAddress":"","phone":"","foodType":"","mainFood":"","designatedDate":"2026-03-30","lat":37.522477745,"lng":127.055156081,"region":"서울특별시","source":"safefood","safeFoodGrade":"적합","safeFoodCertNo":"HG260002959"},{"id":"safefood-seoul-HG260002954","name":"파크하얏트서울이벤트","address":"서울특별시 강남구 테헤란로 606(2층 대치동, 파크하얏트서울)","jibunAddress":"","phone":"","foodType":"","mainFood":"","designatedDate":"2026-03-30","lat":37.509174478,"lng":127.060625246,"region":"서울특별시","source":"safefood","safeFoodGrade":"적합","safeFoodCertNo":"HG260002954"},{"id":"safefood-seoul-HG260002953","name":"투썸플레이스 한티점","address":"서울특별시 강남구 선릉로 338(지상1층, 지상2층 대치동)","jibunAddress":"","phone":"","foodType":"","mainFood":"","designatedDate":"2026-03-30","lat":37.516688309,"lng":127.041803503,"region":"서울특별시","source":"safefood","safeFoodGrade":"적합","safeFoodCertNo":"HG260002953"},{"id":"safefood-seoul-HG240002255","name":"미미담 역삼점","address":"서울특별시 강남구 테헤란로 231(센터필드 지하2층 WB03호 역삼동)","jibunAddress":"","phone":"","foodType":"","mainFood":"","designatedDate":"2026-04-04","lat":37.509174478,"lng":127.060625246,"region":"서울특별시","source":"safefood","safeFoodGrade":"적합","safeFoodCertNo":"HG240002255"},{"id":"safefood-seoul-HG260002938","name":"더라운지","address":"서울특별시 강남구 테헤란로 606(대치동,지상22,23층)","jibunAddress":"","phone":"","foodType":"","mainFood":"","designatedDate":"2026-03-30","lat":37.509174478,"lng":127.060625246,"region":"서울특별시","source":"safefood","safeFoodGrade":"적합","safeFoodCertNo":"HG260002938"},{"id":"safefood-seoul-HG260002935","name":"더팀버하우스","address":"서울특별시 강남구 테헤란로 606(대치동,지하2층)","jibunAddress":"","phone":"","foodType":"","mainFood":"","designatedDate":"2026-03-30","lat":37.509174478,"lng":127.060625246,"region":"서울특별시","source":"safefood","safeFoodGrade":"적합","safeFoodCertNo":"HG260002935"},{"id":"safefood-seoul-HG260002933","name":"코너스톤","address":"서울특별시 강남구 테헤란로 606(대치동,지상1층)","jibunAddress":"","phone":"","foodType":"","mainFood":"","designatedDate":"2026-03-30","lat":37.509174478,"lng":127.060625246,"region":"서울특별시","source":"safefood","safeFoodGrade":"적합","safeFoodCertNo":"HG260002933"},{"id":"safefood-seoul-HG240002013","name":"(주)조선호텔앤리조트 조선팰리스강남 이타닉가든","address":"서울특별시 강남구 테헤란로 231(센터필드 조선팰리스강남36층 역삼동)","jibunAddress":"","phone":"","foodType":"","mainFood":"","designatedDate":"2026-04-03","lat":37.509174478,"lng":127.060625246,"region":"서울특별시","source":"safefood","safeFoodGrade":"적합","safeFoodCertNo":"HG240002013"},{"id":"safefood-seoul-HG240002169","name":"솥밥예찬","address":"서울특별시 강남구 테헤란로 231(센터필드 지하2층 WB07호 역삼동)","jibunAddress":"","phone":"","foodType":"","mainFood":"","designatedDate":"2026-04-03","lat":37.509174478,"lng":127.060625246,"region":"서울특별시","source":"safefood","safeFoodGrade":"적합","safeFoodCertNo":"HG240002169"},{"id":"safefood-seoul-HG260002778","name":"솥내음 강남 역삼 선릉역점","address":"서울특별시 강남구 선릉로93길 8(2층 역삼동)","jibunAddress":"","phone":"","foodType":"","mainFood":"","designatedDate":"2026-03-25","lat":37.505232821,"lng":127.046910398,"region":"서울특별시","source":"safefood","safeFoodGrade":"적합","safeFoodCertNo":"HG260002778"},{"id":"safefood-seoul-HG260002777","name":"파스쿠찌 선릉역점","address":"서울특별시 강남구 테헤란로 332(에이치제이타워 지하1층,지하2층 역삼동)","jibunAddress":"","phone":"","foodType":"","mainFood":"","designatedDate":"2026-03-25","lat":37.509174478,"lng":127.060625246,"region":"서울특별시","source":"safefood","safeFoodGrade":"적합","safeFoodCertNo":"HG260002777"},{"id":"safefood-seoul-HG260002780","name":"아이러브펍","address":"서울특별시 강남구 테헤란로4길 45(역삼동,외2필지)","jibunAddress":"","phone":"","foodType":"","mainFood":"","designatedDate":"2026-03-25","lat":37.495695223,"lng":127.030157427,"region":"서울특별시","source":"safefood","safeFoodGrade":"적합","safeFoodCertNo":"HG260002780"},{"id":"safefood-seoul-HG260002779","name":"봄담아선릉역점","address":"서울특별시 강남구 선릉로93길 26(우리빌딩 지상2층 역삼동)","jibunAddress":"","phone":"","foodType":"","mainFood":"","designatedDate":"2026-03-25","lat":37.505232821,"lng":127.046910398,"region":"서울특별시","source":"safefood","safeFoodGrade":"적합","safeFoodCertNo":"HG260002779"},{"id":"safefood-seoul-HG220003606","name":"이디야 학동역점","address":"서울특별시 강남구 학동로 219(국제빌딩 지상2층 논현동)","jibunAddress":"","phone":"","foodType":"","mainFood":"","designatedDate":"2026-03-19","lat":37.512835234,"lng":127.028259085,"region":"서울특별시","source":"safefood","safeFoodGrade":"적합","safeFoodCertNo":"HG220003606"},{"id":"safefood-seoul-HG260002751","name":"다이닝브랜즈그룹 주식회사 비에이치씨 압구정로데오점","address":"서울특별시 강남구 압구정로50길 28(101동 1층 156호,157호 신사동, 로데오현대아파트)","jibunAddress":"","phone":"","foodType":"","mainFood":"","designatedDate":"2026-03-23","lat":37.52771,"lng":127.0386,"region":"서울특별시","source":"safefood","safeFoodGrade":"적합","safeFoodCertNo":"HG260002751"},{"id":"safefood-seoul-HG260002722","name":"파리바게뜨(청담사거리점)","address":"서울특별시 강남구 도산대로 518(더모자익 빌딩 지상1층 청담동)","jibunAddress":"","phone":"","foodType":"","mainFood":"","designatedDate":"2026-03-23","lat":37.521127266,"lng":127.034741243,"region":"서울특별시","source":"safefood","safeFoodGrade":"적합","safeFoodCertNo":"HG260002722"},{"id":"safefood-seoul-HG260002721","name":"평양면옥 도산","address":"서울특별시 강남구 언주로148길 35(1,2층 논현동)","jibunAddress":"","phone":"","foodType":"","mainFood":"","designatedDate":"2026-03-23","lat":37.520407639,"lng":127.035524721,"region":"서울특별시","source":"safefood","safeFoodGrade":"적합","safeFoodCertNo":"HG260002721"},{"id":"safefood-seoul-HG260002720","name":"올라라","address":"서울특별시 강남구 압구정로10길 30-8(지하1층 신사동)","jibunAddress":"","phone":"","foodType":"","mainFood":"","designatedDate":"2026-03-23","lat":37.520927382,"lng":127.022013857,"region":"서울특별시","source":"safefood","safeFoodGrade":"적합","safeFoodCertNo":"HG260002720"},{"id":"safefood-seoul-HG260002717","name":"주식회사 김수사","address":"서울특별시 강남구 도산대로12길 7(지하1층 논현동)","jibunAddress":"","phone":"","foodType":"","mainFood":"","designatedDate":"2026-03-23","lat":37.5172302884873,"lng":127.023751904221,"region":"서울특별시","source":"safefood","safeFoodGrade":"적합","safeFoodCertNo":"HG260002717"},{"id":"safefood-seoul-HG260002708","name":"달인대보칼국수 강남논현점","address":"서울특별시 강남구 언주로 615(논현 아이파크 103동 지상1층 113호 논현동)","jibunAddress":"","phone":"","foodType":"","mainFood":"","designatedDate":"2026-03-23","lat":37.527021062,"lng":127.032982154,"region":"서울특별시","source":"safefood","safeFoodGrade":"적합","safeFoodCertNo":"HG260002708"},{"id":"safefood-seoul-HG220001759","name":"엔바이콘","address":"서울특별시 강남구 논현로149길 66(지하1,2층 논현동)","jibunAddress":"","phone":"","foodType":"","mainFood":"","designatedDate":"2026-03-22","lat":37.517055334,"lng":127.024306903,"region":"서울특별시","source":"safefood","safeFoodGrade":"적합","safeFoodCertNo":"HG220001759"},{"id":"safefood-seoul-HG220001738","name":"왕스덕","address":"서울특별시 강남구 도산대로 130(지하1층 논현동)","jibunAddress":"","phone":"","foodType":"","mainFood":"","designatedDate":"2026-03-22","lat":37.521127266,"lng":127.034741243,"region":"서울특별시","source":"safefood","safeFoodGrade":"적합","safeFoodCertNo":"HG220001738"},{"id":"safefood-seoul-HG240002172","name":"(유)한국집 센터필드 역삼점","address":"서울특별시 강남구 테헤란로 231(센터필드 더？스앳센터필드 쇼핑몰동 지하2층 WB02호 역삼동)","jibunAddress":"","phone":"","foodType":"","mainFood":"","designatedDate":"2026-04-03","lat":37.509174478,"lng":127.060625246,"region":"서울특별시","source":"safefood","safeFoodGrade":"적합","safeFoodCertNo":"HG240002172"},{"id":"safefood-seoul-HG260003283","name":"스탠브루 교대점","address":"서울특별시 서초구 서초중앙로 130(일이타워 1층 서초동)","jibunAddress":"","phone":"","foodType":"","mainFood":"","designatedDate":"2026-04-03","lat":37.498406983,"lng":127.012895433,"region":"서울특별시","source":"safefood","safeFoodGrade":"적합","safeFoodCertNo":"HG260003283"},{"id":"safefood-seoul-HG260003275","name":"그랑미셸 서울성모점","address":"서울특별시 서초구 반포대로 222(지하1층 서울성모병원 반포동)","jibunAddress":"","phone":"","foodType":"","mainFood":"","designatedDate":"2026-04-03","lat":37.493612528,"lng":127.007201216,"region":"서울특별시","source":"safefood","safeFoodGrade":"적합","safeFoodCertNo":"HG260003275"},{"id":"safefood-seoul-HG260003273","name":"던킨도너츠 센트럴시티K","address":"서울특별시 서초구 신반포로 176(102호 반포동, 센트럴시티)","jibunAddress":"","phone":"","foodType":"","mainFood":"","designatedDate":"2026-04-03","lat":37.504281262,"lng":127.004566674,"region":"서울특별시","source":"safefood","safeFoodGrade":"적합","safeFoodCertNo":"HG260003273"},{"id":"safefood-seoul-HG260003257","name":"파스쿠찌 뱅뱅사거리점","address":"서울특별시 서초구 강남대로47길 12(1,2층 서초동)","jibunAddress":"","phone":"","foodType":"","mainFood":"","designatedDate":"2026-04-03","lat":37.488709068,"lng":127.030563734,"region":"서울특별시","source":"safefood","safeFoodGrade":"적합","safeFoodCertNo":"HG260003257"},{"id":"safefood-seoul-HG260003256","name":"투게더앤코","address":"서울특별시 서초구 강남대로 253(준타워 2층 서초동)","jibunAddress":"","phone":"","foodType":"","mainFood":"","designatedDate":"2026-04-03","lat":37.482352495,"lng":127.035602105,"region":"서울특별시","source":"safefood","safeFoodGrade":"적합","safeFoodCertNo":"HG260003256"},{"id":"safefood-seoul-HG260002940","name":"호식이두마리치킨 서울교대점","address":"서울특별시 서초구 서초중앙로24길 55(제1층 111호 서초동)","jibunAddress":"","phone":"","foodType":"","mainFood":"","designatedDate":"2026-03-30","lat":37.49538434,"lng":127.016432835,"region":"서울특별시","source":"safefood","safeFoodGrade":"적합","safeFoodCertNo":"HG260002940"},{"id":"safefood-seoul-HG260002939","name":"스타벅스 강남역 5번출구 호정빌딩점","address":"서울특별시 서초구 서초대로78길 38(1층 서초동)","jibunAddress":"","phone":"","foodType":"","mainFood":"","designatedDate":"2026-03-30","lat":37.493352983,"lng":127.02863992,"region":"서울특별시","source":"safefood","safeFoodGrade":"적합","safeFoodCertNo":"HG260002939"},{"id":"safefood-seoul-HG260002882","name":"노모어피자 양재포이점","address":"서울특별시 서초구 논현로 79(지하1층 140~142호 양재동)","jibunAddress":"","phone":"","foodType":"","mainFood":"","designatedDate":"2026-03-27","lat":37.473255012,"lng":127.048680562,"region":"서울특별시","source":"safefood","safeFoodGrade":"적합","safeFoodCertNo":"HG260002882"},{"id":"safefood-seoul-HG260002793","name":"스타벅스 양재하나로마트","address":"서울특별시 서초구 청계산로 10(농협하나로클럽 1층 양재동)","jibunAddress":"","phone":"","foodType":"","mainFood":"","designatedDate":"2026-03-25","lat":37.447733718,"lng":127.055940405,"region":"서울특별시","source":"safefood","safeFoodGrade":"적합","safeFoodCertNo":"HG260002793"},{"id":"safefood-seoul-HG260002600","name":"백미당 방배점","address":"서울특별시 서초구 방배로 107(디엠타워 3관 1층 방배동)","jibunAddress":"","phone":"","foodType":"","mainFood":"","designatedDate":"2026-03-20","lat":37.490287752,"lng":126.991657575,"region":"서울특별시","source":"safefood","safeFoodGrade":"적합","safeFoodCertNo":"HG260002600"},{"id":"safefood-seoul-HG260002530","name":"빌라드샬롯 예술의전당점","address":"서울특별시 서초구 남부순환로 2406(1층 음악광장 내 서초동)","jibunAddress":"","phone":"","foodType":"","mainFood":"","designatedDate":"2026-03-18","lat":37.484751971,"lng":127.038663764,"region":"서울특별시","source":"safefood","safeFoodGrade":"적합","safeFoodCertNo":"HG260002530"},{"id":"safefood-seoul-HG260002960","name":"도쿄스테이크 포도몰점","address":"서울특별시 관악구 신림로 330(포도몰 9층 신림동)","jibunAddress":"","phone":"","foodType":"","mainFood":"","designatedDate":"2026-03-30","lat":37.4810764,"lng":126.93032938,"region":"서울특별시","source":"safefood","safeFoodGrade":"적합","safeFoodCertNo":"HG260002960"},{"id":"safefood-seoul-HG260002781","name":"오사카 오지상 치즈케이크","address":"서울특별시 관악구 신림로 330(타임스트림 지하1층 B101호 신림동)","jibunAddress":"","phone":"","foodType":"","mainFood":"","designatedDate":"2026-03-25","lat":37.4810764,"lng":126.93032938,"region":"서울특별시","source":"safefood","safeFoodGrade":"적합","safeFoodCertNo":"HG260002781"},{"id":"safefood-seoul-HG260002880","name":"교촌치킨 사당2호점","address":"서울특별시 동작구 사당로17길 75(1층 사당동)","jibunAddress":"","phone":"","foodType":"","mainFood":"","designatedDate":"2026-03-27","lat":37.48362076,"lng":126.974207723,"region":"서울특별시","source":"safefood","safeFoodGrade":"적합","safeFoodCertNo":"HG260002880"},{"id":"safefood-seoul-HG260002577","name":"BBQ신대방사랑점","address":"서울특별시 동작구 보라매로 78(성진빌딩 1층 신대방동)","jibunAddress":"","phone":"","foodType":"","mainFood":"","designatedDate":"2026-03-19","lat":37.499313013,"lng":126.928518045,"region":"서울특별시","source":"safefood","safeFoodGrade":"적합","safeFoodCertNo":"HG260002577"},{"id":"safefood-seoul-HG260003140","name":"땡초불닭발동대문엽기떡볶이 보라매역점","address":"서울특별시 영등포구 여의대방로 137(2층 신길동)","jibunAddress":"","phone":"","foodType":"","mainFood":"","designatedDate":"2026-04-01","lat":37.519374193,"lng":126.932752461,"region":"서울특별시","source":"safefood","safeFoodGrade":"적합","safeFoodCertNo":"HG260003140"},{"id":"safefood-seoul-HG260002464","name":"메가엠지씨커피 KBS별관점","address":"서울특별시 영등포구 여의대방로 383(109호 여의도동, 경도빌딩)","jibunAddress":"","phone":"","foodType":"","mainFood":"","designatedDate":"2026-03-12","lat":37.519374193,"lng":126.932752461,"region":"서울특별시","source":"safefood","safeFoodGrade":"매우우수","safeFoodCertNo":"HG260002464"},{"id":"safefood-seoul-HG260003050","name":"이디야커피여의도농협재단빌딩점","address":"서울특별시 영등포구 국제금융로8길 2(중1층 여의도동, 농협재단빌딩)","jibunAddress":"","phone":"","foodType":"","mainFood":"","designatedDate":"2026-03-31","lat":37.521098897,"lng":126.929781308,"region":"서울특별시","source":"safefood","safeFoodGrade":"적합","safeFoodCertNo":"HG260003050"},{"id":"safefood-seoul-HG260002945","name":"강가타임스퀘어점","address":"서울특별시 영등포구 영중로 15(타임스퀘어 4층 영등포동4가)","jibunAddress":"","phone":"","foodType":"","mainFood":"","designatedDate":"2026-03-30","lat":37.517195711,"lng":126.903646105,"region":"서울특별시","source":"safefood","safeFoodGrade":"적합","safeFoodCertNo":"HG260002945"},{"id":"safefood-seoul-HG200001013","name":"할리스 FKI타워점","address":"서울특별시 영등포구 여의대로 24(전국경제인연합회회관 지하1층 B109~111호 여의도동)","jibunAddress":"","phone":"","foodType":"","mainFood":"","designatedDate":"2026-03-26","lat":37.521174137,"lng":126.918554363,"region":"서울특별시","source":"safefood","safeFoodGrade":"적합","safeFoodCertNo":"HG200001013"},{"id":"safefood-seoul-HG260002724","name":"오크베리(OAKBERRY)타임스퀘어영등포","address":"서울특별시 영등포구 영중로 15(타임스퀘어 405호 영등포동4가)","jibunAddress":"","phone":"","foodType":"","mainFood":"","designatedDate":"2026-03-23","lat":37.517195711,"lng":126.903646105,"region":"서울특별시","source":"safefood","safeFoodGrade":"적합","safeFoodCertNo":"HG260002724"},{"id":"safefood-seoul-HG260002719","name":"하프커피 신세계타임스퀘어점","address":"서울특별시 영등포구 영중로 15(타임스퀘어 9층 영등포동4가)","jibunAddress":"","phone":"","foodType":"","mainFood":"","designatedDate":"2026-03-23","lat":37.517195711,"lng":126.903646105,"region":"서울특별시","source":"safefood","safeFoodGrade":"적합","safeFoodCertNo":"HG260002719"},{"id":"safefood-seoul-HG260002711","name":"무안회관 여의도점","address":"서울특별시 영등포구 여의대로 70(ONE CENTINEL 2층 여의도동)","jibunAddress":"","phone":"","foodType":"","mainFood":"","designatedDate":"2026-03-23","lat":37.521174137,"lng":126.918554363,"region":"서울특별시","source":"safefood","safeFoodGrade":"적합","safeFoodCertNo":"HG260002711"},{"id":"safefood-seoul-HG260002710","name":"마유유 마라탕 더현대서울점","address":"서울특별시 영등포구 여의대로 108(파크원 지하1층 여의도동)","jibunAddress":"","phone":"","foodType":"","mainFood":"","designatedDate":"2026-03-23","lat":37.521174137,"lng":126.918554363,"region":"서울특별시","source":"safefood","safeFoodGrade":"적합","safeFoodCertNo":"HG260002710"},{"id":"safefood-seoul-HG260002707","name":"고디바 신세계타임스퀘어","address":"서울특별시 영등포구 영중로 15(타임스퀘어 지하1층 영등포동4가)","jibunAddress":"","phone":"","foodType":"","mainFood":"","designatedDate":"2026-03-23","lat":37.517195711,"lng":126.903646105,"region":"서울특별시","source":"safefood","safeFoodGrade":"적합","safeFoodCertNo":"HG260002707"},{"id":"safefood-seoul-HG260002612","name":"키미김밥","address":"서울특별시 영등포구 영중로 15(신세계타임스퀘어점 지하1층 영등포동4가)","jibunAddress":"","phone":"","foodType":"","mainFood":"","designatedDate":"2026-03-20","lat":37.517195711,"lng":126.903646105,"region":"서울특별시","source":"safefood","safeFoodGrade":"적합","safeFoodCertNo":"HG260002612"},{"id":"safefood-seoul-HG260002611","name":"앤티앤스","address":"서울특별시 영등포구 영중로 15(타임스퀘어 지하1층 영등포동4가)","jibunAddress":"","phone":"","foodType":"","mainFood":"","designatedDate":"2026-03-20","lat":37.517195711,"lng":126.903646105,"region":"서울특별시","source":"safefood","safeFoodGrade":"적합","safeFoodCertNo":"HG260002611"},{"id":"safefood-seoul-HG260002592","name":"구오(GUO)","address":"서울특별시 영등포구 영중로 15(타임스퀘어 지하1층 영등포동4가)","jibunAddress":"","phone":"","foodType":"","mainFood":"","designatedDate":"2026-03-20","lat":37.517195711,"lng":126.903646105,"region":"서울특별시","source":"safefood","safeFoodGrade":"적합","safeFoodCertNo":"HG260002592"},{"id":"safefood-seoul-HG260002589","name":"연리희재","address":"서울특별시 영등포구 영중로 15(타임스퀘어 B1층 영등포동4가)","jibunAddress":"","phone":"","foodType":"","mainFood":"","designatedDate":"2026-03-20","lat":37.517195711,"lng":126.903646105,"region":"서울특별시","source":"safefood","safeFoodGrade":"적합","safeFoodCertNo":"HG260002589"},{"id":"safefood-seoul-HG260002548","name":"파파밸리 신세계타임스퀘어점","address":"서울특별시 영등포구 영중로 15(타임스퀘어 지하1층 영등포동4가)","jibunAddress":"","phone":"","foodType":"","mainFood":"","designatedDate":"2026-03-18","lat":37.517195711,"lng":126.903646105,"region":"서울특별시","source":"safefood","safeFoodGrade":"적합","safeFoodCertNo":"HG260002548"},{"id":"safefood-seoul-HG260002547","name":"아비꼬 타임스퀘어점","address":"서울특별시 영등포구 영중로 15(141호 영등포동4가, 지하1층 타임스퀘어)","jibunAddress":"","phone":"","foodType":"","mainFood":"","designatedDate":"2026-03-18","lat":37.517195711,"lng":126.903646105,"region":"서울특별시","source":"safefood","safeFoodGrade":"적합","safeFoodCertNo":"HG260002547"},{"id":"safefood-seoul-HG260002541","name":"베이커리오월의종","address":"서울특별시 영등포구 영중로 15(영등포동4가, 주경방 타임스퀘어 112-1호)","jibunAddress":"","phone":"","foodType":"","mainFood":"","designatedDate":"2026-03-18","lat":37.517195711,"lng":126.903646105,"region":"서울특별시","source":"safefood","safeFoodGrade":"적합","safeFoodCertNo":"HG260002541"},{"id":"safefood-seoul-HG260002540","name":"커피리브레","address":"서울특별시 영등포구 영중로 15(영등포동4가, 타임스퀘어 1층)","jibunAddress":"","phone":"","foodType":"","mainFood":"","designatedDate":"2026-03-18","lat":37.517195711,"lng":126.903646105,"region":"서울특별시","source":"safefood","safeFoodGrade":"적합","safeFoodCertNo":"HG260002540"},{"id":"safefood-seoul-HG260003178","name":"쿠루(COORU)","address":"서울특별시 금천구 독산로 112(1층 시흥동)","jibunAddress":"","phone":"","foodType":"","mainFood":"","designatedDate":"2026-04-02","lat":37.468373889,"lng":126.90241383,"region":"서울특별시","source":"safefood","safeFoodGrade":"적합","safeFoodCertNo":"HG260003178"},{"id":"safefood-seoul-HG240624317","name":"더 벤티 가산모비우스점","address":"서울특별시 금천구 가산디지털2로 169-23(109-4호 가산동)","jibunAddress":"","phone":"","foodType":"","mainFood":"","designatedDate":"2024-06-10","lat":37.469658943,"lng":126.884261669,"region":"서울특별시","source":"safefood","safeFoodGrade":"매우우수","safeFoodCertNo":"HG240624317"},{"id":"safefood-seoul-HG220001715","name":"투썸플레이스 석수역점","address":"서울특별시 금천구 시흥대로 8(101호,201호 시흥동, 아르스파크)","jibunAddress":"","phone":"","foodType":"","mainFood":"","designatedDate":"2026-03-22","lat":37.450639654,"lng":126.901462373,"region":"서울특별시","source":"safefood","safeFoodGrade":"매우우수","safeFoodCertNo":"HG220001715"},{"id":"safefood-seoul-HG220003816","name":"투썸플레이스 구로역점","address":"서울특별시 구로구 새말로 19(1층 구로동)","jibunAddress":"","phone":"","foodType":"","mainFood":"","designatedDate":"2024-05-26","lat":37.50199919273351,"lng":126.88335175195856,"region":"서울특별시","source":"safefood","safeFoodGrade":"매우우수","safeFoodCertNo":"HG220003816"},{"id":"safefood-seoul-HG220001900","name":"폴 바셋 고대구로병원점","address":"서울특별시 구로구 구로동로 148(고려대부속구로병원 1층 구로동)","jibunAddress":"","phone":"","foodType":"","mainFood":"","designatedDate":"2026-03-25","lat":37.500091542,"lng":126.882290356,"region":"서울특별시","source":"safefood","safeFoodGrade":"매우우수","safeFoodCertNo":"HG220001900"},{"id":"safefood-seoul-HG240002019","name":"투썸플레이스 신도림 아름제일여성병원점","address":"서울특별시 구로구 새말로 94(1층 구로동)","jibunAddress":"","phone":"","foodType":"","mainFood":"","designatedDate":"2026-04-03","lat":37.50199919273351,"lng":126.88335175195856,"region":"서울특별시","source":"safefood","safeFoodGrade":"적합","safeFoodCertNo":"HG240002019"},{"id":"safefood-seoul-HG260002738","name":"레몬그라스 타이","address":"서울특별시 구로구 디지털로 288(대륭포스트타워1차 1층 101호 구로동)","jibunAddress":"","phone":"","foodType":"","mainFood":"","designatedDate":"2026-03-23","lat":37.483565349,"lng":126.895499775,"region":"서울특별시","source":"safefood","safeFoodGrade":"적합","safeFoodCertNo":"HG260002738"},{"id":"safefood-seoul-HG260002601","name":"동경규동 신도림점","address":"서울특별시 구로구 새말로 102(신도림포스빌 127호 구로동)","jibunAddress":"","phone":"","foodType":"","mainFood":"","designatedDate":"2026-03-20","lat":37.50199919273351,"lng":126.88335175195856,"region":"서울특별시","source":"safefood","safeFoodGrade":"적합","safeFoodCertNo":"HG260002601"},{"id":"safefood-seoul-HG260003260","name":"공차 김포공항국제선","address":"서울특별시 강서구 하늘길 38(김포공항, 롯데몰, 스카이시티 2층 방화동)","jibunAddress":"","phone":"","foodType":"","mainFood":"","designatedDate":"2026-04-03","lat":37.563449495,"lng":126.80320117,"region":"서울특별시","source":"safefood","safeFoodGrade":"적합","safeFoodCertNo":"HG260003260"},{"id":"safefood-seoul-HG260003136","name":"스타벅스 양천향교역점","address":"서울특별시 강서구 양천로 344(마곡센트럴대방디엠시티오피스텔 1층 121-1, 121-2호 마곡동)","jibunAddress":"","phone":"","foodType":"","mainFood":"","designatedDate":"2026-04-01","lat":37.549524495,"lng":126.876368953,"region":"서울특별시","source":"safefood","safeFoodGrade":"적합","safeFoodCertNo":"HG260003136"},{"id":"safefood-seoul-HG260003135","name":"바나프레소 마곡나루점","address":"서울특별시 강서구 마곡중앙로 161-8(두산더랜드파크 A동 1층 110호 마곡동)","jibunAddress":"","phone":"","foodType":"","mainFood":"","designatedDate":"2026-04-01","lat":37.568644375,"lng":126.825785139,"region":"서울특별시","source":"safefood","safeFoodGrade":"적합","safeFoodCertNo":"HG260003135"},{"id":"safefood-seoul-HG260003134","name":"슬로우캘리 마곡르웨스트점","address":"서울특별시 강서구 마곡중앙로 111(지하판매및기타동 지하2층 B226,B246호 마곡동, 롯데캐슬 르웨스트)","jibunAddress":"","phone":"","foodType":"","mainFood":"","designatedDate":"2026-04-01","lat":37.568644375,"lng":126.825785139,"region":"서울특별시","source":"safefood","safeFoodGrade":"적합","safeFoodCertNo":"HG260003134"},{"id":"safefood-seoul-HG240628461","name":"딜라잇쌈(delight SSAM) 김포공항점","address":"서울특별시 강서구 하늘길 38(김포공항, 롯데몰, 스카이시티 지하2층 방화동)","jibunAddress":"","phone":"","foodType":"","mainFood":"","designatedDate":"2024-09-09","lat":37.563449495,"lng":126.80320117,"region":"서울특별시","source":"safefood","safeFoodGrade":"매우우수","safeFoodCertNo":"HG240628461"},{"id":"safefood-seoul-HG250639006","name":"솥해랑 롯데몰김포공항점","address":"서울특별시 강서구 하늘길 38(김포공항, 롯데몰, 스카이시티 GF층 일부호 방화동)","jibunAddress":"","phone":"","foodType":"","mainFood":"","designatedDate":"2025-09-11","lat":37.563449495,"lng":126.80320117,"region":"서울특별시","source":"safefood","safeFoodGrade":"매우우수","safeFoodCertNo":"HG250639006"},{"id":"safefood-seoul-HG240624635","name":"구오","address":"서울특별시 강서구 하늘길 38(지하 2층 방화동, 2동 김포공항스카이파크)","jibunAddress":"","phone":"","foodType":"","mainFood":"","designatedDate":"2024-06-17","lat":37.563449495,"lng":126.80320117,"region":"서울특별시","source":"safefood","safeFoodGrade":"매우우수","safeFoodCertNo":"HG240624635"},{"id":"safefood-seoul-HG260003014","name":"뚜레쥬르 카페화곡역점","address":"서울특별시 강서구 화곡로 157(Roi빌딩 1층 104호 화곡동)","jibunAddress":"","phone":"","foodType":"","mainFood":"","designatedDate":"2026-03-31","lat":37.540278234,"lng":126.833881537,"region":"서울특별시","source":"safefood","safeFoodGrade":"적합","safeFoodCertNo":"HG260003014"},{"id":"safefood-seoul-HG240002215","name":"뚜레쥬르 목동사거리점","address":"서울특별시 강서구 곰달래로 245(1-5호 화곡동)","jibunAddress":"","phone":"","foodType":"","mainFood":"","designatedDate":"2026-04-04","lat":37.532308568,"lng":126.861317671,"region":"서울특별시","source":"safefood","safeFoodGrade":"적합","safeFoodCertNo":"HG240002215"},{"id":"safefood-seoul-HG240002014","name":"배스킨라빈스 신방화역점","address":"서울특별시 강서구 마곡중앙5로 81(1층 116호 마곡동, 방화 1동 에스비타운)","jibunAddress":"","phone":"","foodType":"","mainFood":"","designatedDate":"2026-04-03","lat":37.567314076,"lng":126.827554949,"region":"서울특별시","source":"safefood","safeFoodGrade":"적합","safeFoodCertNo":"HG240002014"},{"id":"safefood-seoul-HG260002950","name":"픽트로스터리","address":"서울특별시 강서구 마곡중앙로 161-1(마곡나루역캐슬파크 2층 226호 마곡동)","jibunAddress":"","phone":"","foodType":"","mainFood":"","designatedDate":"2026-03-30","lat":37.568644375,"lng":126.825785139,"region":"서울특별시","source":"safefood","safeFoodGrade":"적합","safeFoodCertNo":"HG260002950"},{"id":"safefood-seoul-HG200001047","name":"롯데리아 신김포공항점","address":"서울특별시 강서구 하늘길 112(1층 공항동, 국내선청사)","jibunAddress":"","phone":"","foodType":"","mainFood":"","designatedDate":"2026-03-27","lat":37.563449495,"lng":126.80320117,"region":"서울특별시","source":"safefood","safeFoodGrade":"적합","safeFoodCertNo":"HG200001047"},{"id":"safefood-seoul-HG260002560","name":"샐러리아 가양등촌점","address":"서울특별시 강서구 화곡로 416(가양역 더스카이밸리5차 지식산업센터 1층 134-1호 등촌동)","jibunAddress":"","phone":"","foodType":"","mainFood":"","designatedDate":"2026-03-19","lat":37.540278234,"lng":126.833881537,"region":"서울특별시","source":"safefood","safeFoodGrade":"적합","safeFoodCertNo":"HG260002560"},{"id":"safefood-seoul-HG260002582","name":"우화","address":"서울특별시 강서구 마곡중앙6로 45(리더스퀘어마곡 1층 114호 마곡동)","jibunAddress":"","phone":"","foodType":"","mainFood":"","designatedDate":"2026-03-20","lat":37.560417754,"lng":126.829094512,"region":"서울특별시","source":"safefood","safeFoodGrade":"적합","safeFoodCertNo":"HG260002582"},{"id":"safefood-seoul-HG260002581","name":"프랑제리 강서NC점(1층)","address":"서울특별시 강서구 강서로56길 17(NC 강서점 1층 등촌동)","jibunAddress":"","phone":"","foodType":"","mainFood":"","designatedDate":"2026-03-20","lat":37.559961075,"lng":126.840514693,"region":"서울특별시","source":"safefood","safeFoodGrade":"적합","safeFoodCertNo":"HG260002581"},{"id":"safefood-seoul-HG260002580","name":"프랑제리 강서NC점(지하1층)","address":"서울특별시 강서구 강서로56길 17(NC 강서점 지하1층 등촌동)","jibunAddress":"","phone":"","foodType":"","mainFood":"","designatedDate":"2026-03-20","lat":37.559961075,"lng":126.840514693,"region":"서울특별시","source":"safefood","safeFoodGrade":"적합","safeFoodCertNo":"HG260002580"},{"id":"safefood-seoul-HG260003120","name":"브런치빈(목동점)","address":"서울특별시 양천구 목동동로 233-3(삼성화재서비스빌딩 102호 목동)","jibunAddress":"","phone":"","foodType":"","mainFood":"","designatedDate":"2026-04-01","lat":37.535901809,"lng":126.879499171,"region":"서울특별시","source":"safefood","safeFoodGrade":"적합","safeFoodCertNo":"HG260003120"},{"id":"safefood-seoul-HG260003119","name":"써브웨이 염창역점","address":"서울특별시 양천구 공항대로 638(지하1층 B106,107호 목동)","jibunAddress":"","phone":"","foodType":"","mainFood":"","designatedDate":"2026-04-01","lat":37.5466089,"lng":126.87427452,"region":"서울특별시","source":"safefood","safeFoodGrade":"적합","safeFoodCertNo":"HG260003119"},{"id":"safefood-seoul-HG260003118","name":"메가엠지씨커피 등촌역사거리점","address":"서울특별시 양천구 등촌로 234(1층 일부101호 목동)","jibunAddress":"","phone":"","foodType":"","mainFood":"","designatedDate":"2026-04-01","lat":37.539778499,"lng":126.864023284,"region":"서울특별시","source":"safefood","safeFoodGrade":"적합","safeFoodCertNo":"HG260003118"},{"id":"safefood-seoul-HG220001942","name":"빕스 목동41타워점","address":"서울특별시 양천구 목동동로 293(현대41타워 40~41층 목동)","jibunAddress":"","phone":"","foodType":"","mainFood":"","designatedDate":"2026-03-28","lat":37.535901809,"lng":126.879499171,"region":"서울특별시","source":"safefood","safeFoodGrade":"적합","safeFoodCertNo":"HG220001942"},{"id":"safefood-seoul-HG260002748","name":"파리바게뜨(신정역점)","address":"서울특별시 양천구 오목로 149(신정동)","jibunAddress":"","phone":"","foodType":"","mainFood":"","designatedDate":"2026-03-23","lat":37.522309452,"lng":126.844066329,"region":"서울특별시","source":"safefood","safeFoodGrade":"적합","safeFoodCertNo":"HG260002748"},{"id":"safefood-seoul-HG260002743","name":"프리미엄반찬 순수식탁 오목교목동점","address":"서울특별시 양천구 목동동로12길 22(104호 신정동, 프리우스아파트)","jibunAddress":"","phone":"","foodType":"","mainFood":"","designatedDate":"2026-03-23","lat":37.522402606,"lng":126.875400202,"region":"서울특별시","source":"safefood","safeFoodGrade":"적합","safeFoodCertNo":"HG260002743"},{"id":"safefood-seoul-HG260002742","name":"롯데리아목동점","address":"서울특별시 양천구 신목로 72(1,2층 신정동)","jibunAddress":"","phone":"","foodType":"","mainFood":"","designatedDate":"2026-03-23","lat":37.523502757,"lng":126.876107698,"region":"서울특별시","source":"safefood","safeFoodGrade":"적합","safeFoodCertNo":"HG260002742"},{"id":"safefood-seoul-HG260003286","name":"밥플러스 누리꿈스퀘어","address":"서울특별시 마포구 월드컵북로 396(누리꿈스퀘어 지1층 B1057-1일부,26,27,28,29,30,31,32호 상암동)","jibunAddress":"","phone":"","foodType":"","mainFood":"","designatedDate":"2026-04-03","lat":37.556572179,"lng":126.920278449,"region":"서울특별시","source":"safefood","safeFoodGrade":"적합","safeFoodCertNo":"HG260003286"},{"id":"safefood-seoul-HG260003122","name":"샤브온당 신촌역점","address":"서울특별시 마포구 서강로 135(JK빌딩 1층 일부호 노고산동)","jibunAddress":"","phone":"","foodType":"","mainFood":"","designatedDate":"2026-04-01","lat":37.549638135,"lng":126.931816459,"region":"서울특별시","source":"safefood","safeFoodGrade":"적합","safeFoodCertNo":"HG260003122"},{"id":"safefood-seoul-HG260002741","name":"떡볶이참잘하는집 떡참 마포서교점","address":"서울특별시 마포구 양화로 72(1층 114호 서교동, 서교동 효성 해링턴 타워)","jibunAddress":"","phone":"","foodType":"","mainFood":"","designatedDate":"2026-03-23","lat":37.553820115,"lng":126.920237067,"region":"서울특별시","source":"safefood","safeFoodGrade":"적합","safeFoodCertNo":"HG260002741"},{"id":"safefood-seoul-HG260002563","name":"봉마루집 합정점","address":"서울특별시 마포구 양화로6길 103(서교동, 1층)","jibunAddress":"","phone":"","foodType":"","mainFood":"","designatedDate":"2026-03-19","lat":37.548876962,"lng":126.917310165,"region":"서울특별시","source":"safefood","safeFoodGrade":"적합","safeFoodCertNo":"HG260002563"},{"id":"safefood-seoul-HG200000975","name":"배스킨라빈스홍대상상마당","address":"서울특별시 마포구 어울마당로 61(지상1층 서교동)","jibunAddress":"","phone":"","foodType":"","mainFood":"","designatedDate":"2026-03-25","lat":37.556927061,"lng":126.92710214,"region":"서울특별시","source":"safefood","safeFoodGrade":"적합","safeFoodCertNo":"HG200000975"},{"id":"safefood-seoul-HG250642514","name":"배스킨라빈스마포용강점","address":"서울특별시 마포구 토정로31길 24(근린생활시설-2동 지1층 B102,B103호 용강동, 이편한세상 마포리버파크)","jibunAddress":"","phone":"","foodType":"","mainFood":"","designatedDate":"2025-12-08","lat":37.541640319,"lng":126.94173791,"region":"서울특별시","source":"safefood","safeFoodGrade":"적합","safeFoodCertNo":"HG250642514"},{"id":"safefood-seoul-HG250636009","name":"노브랜드버거 남가좌점","address":"서울특별시 서대문구 수색로2길 39(몰동 1층 134호 남가좌동, DMC금호리첸시아)","jibunAddress":"","phone":"","foodType":"","mainFood":"","designatedDate":"2025-07-14","lat":37.569277874,"lng":126.916301681,"region":"서울특별시","source":"safefood","safeFoodGrade":"매우우수","safeFoodCertNo":"HG250636009"},{"id":"safefood-seoul-HG260002978","name":"본죽&비빔밥 서대문구청점","address":"서울특별시 서대문구 연희로 267(홍은동,지상1층)","jibunAddress":"","phone":"","foodType":"","mainFood":"","designatedDate":"2026-03-30","lat":37.581311021,"lng":126.935815776,"region":"서울특별시","source":"safefood","safeFoodGrade":"적합","safeFoodCertNo":"HG260002978"},{"id":"safefood-seoul-HG220002104","name":"버거킹 연희점","address":"서울특별시 서대문구 연희로 97(연희동, 1,2층)","jibunAddress":"","phone":"","foodType":"","mainFood":"","designatedDate":"2026-04-04","lat":37.581311021,"lng":126.935815776,"region":"서울특별시","source":"safefood","safeFoodGrade":"적합","safeFoodCertNo":"HG220002104"},{"id":"safefood-seoul-HG260003146","name":"프레퍼스 다이어트 푸드 연신내직영점","address":"서울특별시 은평구 통일로 855-20(1층 갈현동)","jibunAddress":"","phone":"","foodType":"","mainFood":"","designatedDate":"2026-04-01","lat":37.610211107,"lng":126.929726063,"region":"서울특별시","source":"safefood","safeFoodGrade":"적합","safeFoodCertNo":"HG260003146"},{"id":"safefood-seoul-HG260002715","name":"이디야커피 녹번혁신파크점","address":"서울특별시 은평구 통일로 675(1,2층 녹번동)","jibunAddress":"","phone":"","foodType":"","mainFood":"","designatedDate":"2026-03-23","lat":37.610211107,"lng":126.929726063,"region":"서울특별시","source":"safefood","safeFoodGrade":"적합","safeFoodCertNo":"HG260002715"},{"id":"safefood-seoul-HG260002494","name":"파리바게뜨은평뉴타운 5단지점","address":"서울특별시 은평구 연서로 455(진관동,은평뉴타운 3지구 529동 상가101호)","jibunAddress":"","phone":"","foodType":"","mainFood":"","designatedDate":"2026-03-16","lat":37.6141552,"lng":126.917467631,"region":"서울특별시","source":"safefood","safeFoodGrade":"적합","safeFoodCertNo":"HG260002494"},{"id":"safefood-seoul-HG260002957","name":"본도시락 공릉점","address":"서울특별시 노원구 공릉로46길 6(현대프라자 1층 103호 공릉동)","jibunAddress":"","phone":"","foodType":"","mainFood":"","designatedDate":"2026-03-30","lat":37.627300474,"lng":127.079466725,"region":"서울특별시","source":"safefood","safeFoodGrade":"적합","safeFoodCertNo":"HG260002957"},{"id":"safefood-seoul-HG260002956","name":"폴 바셋 롯데백화점 노원점","address":"서울특별시 노원구 동일로 1414(롯데백화점 지하1층 상계동)","jibunAddress":"","phone":"","foodType":"","mainFood":"","designatedDate":"2026-03-30","lat":37.670984948,"lng":127.056839989,"region":"서울특별시","source":"safefood","safeFoodGrade":"적합","safeFoodCertNo":"HG260002956"},{"id":"safefood-seoul-HG260002947","name":"비플레어 바이 플레어비 롯데백화점 노원","address":"서울특별시 노원구 동일로 1414(롯데백화점 2층 상계동)","jibunAddress":"","phone":"","foodType":"","mainFood":"","designatedDate":"2026-03-30","lat":37.670984948,"lng":127.056839989,"region":"서울특별시","source":"safefood","safeFoodGrade":"적합","safeFoodCertNo":"HG260002947"},{"id":"safefood-seoul-HG260002946","name":"배스킨라빈스 상계백병원","address":"서울특별시 노원구 동일로 1363(명지프라자빌딩 101,102호 상계동)","jibunAddress":"","phone":"","foodType":"","mainFood":"","designatedDate":"2026-03-30","lat":37.670984948,"lng":127.056839989,"region":"서울특별시","source":"safefood","safeFoodGrade":"적합","safeFoodCertNo":"HG260002946"},{"id":"safefood-seoul-HG220002040","name":"더벤티 마들역점","address":"서울특별시 노원구 동일로 1533(백산빌딩 1층 103호 상계동)","jibunAddress":"","phone":"","foodType":"","mainFood":"","designatedDate":"2026-03-31","lat":37.670984948,"lng":127.056839989,"region":"서울특별시","source":"safefood","safeFoodGrade":"적합","safeFoodCertNo":"HG220002040"},{"id":"safefood-seoul-HG220002085","name":"60계 서울 수락산역점","address":"서울특별시 노원구 동일로 1701(1층 117,118호 상계동, 희성오피앙)","jibunAddress":"","phone":"","foodType":"","mainFood":"","designatedDate":"2026-04-04","lat":37.670984948,"lng":127.056839989,"region":"서울특별시","source":"safefood","safeFoodGrade":"적합","safeFoodCertNo":"HG220002085"},{"id":"safefood-seoul-HG260002557","name":"떡볶이참잘하는집 떡참 창동역점","address":"서울특별시 도봉구 노해로69길 15(세정빌딩 105호 창동)","jibunAddress":"","phone":"","foodType":"","mainFood":"","designatedDate":"2026-03-19","lat":37.65290493,"lng":127.050337344,"region":"서울특별시","source":"safefood","safeFoodGrade":"적합","safeFoodCertNo":"HG260002557"},{"id":"safefood-seoul-HG260002551","name":"버거킹쌍문역점","address":"서울특별시 도봉구 도봉로 461(우림빌딩 1층 쌍문동)","jibunAddress":"","phone":"","foodType":"","mainFood":"","designatedDate":"2026-03-18","lat":37.68646706,"lng":127.045654148,"region":"서울특별시","source":"safefood","safeFoodGrade":"적합","safeFoodCertNo":"HG260002551"},{"id":"safefood-seoul-HG260002550","name":"백억커피 창동역로데오점","address":"서울특별시 도봉구 노해로69길 21(103호 창동)","jibunAddress":"","phone":"","foodType":"","mainFood":"","designatedDate":"2026-03-18","lat":37.65290493,"lng":127.050337344,"region":"서울특별시","source":"safefood","safeFoodGrade":"적합","safeFoodCertNo":"HG260002550"},{"id":"safefood-seoul-HG260002549","name":"명동칼국수,샤브샤브","address":"서울특별시 도봉구 도봉로 678(방학동, 방학동홈플러스 지하1층)","jibunAddress":"","phone":"","foodType":"","mainFood":"","designatedDate":"2026-03-18","lat":37.68646706,"lng":127.045654148,"region":"서울특별시","source":"safefood","safeFoodGrade":"적합","safeFoodCertNo":"HG260002549"},{"id":"safefood-seoul-HG260002602","name":"빽다방 번동초교점","address":"서울특별시 강북구 오현로 197-2(1층 번동)","jibunAddress":"","phone":"","foodType":"","mainFood":"","designatedDate":"2026-03-20","lat":37.624171405,"lng":127.03731988,"region":"서울특별시","source":"safefood","safeFoodGrade":"적합","safeFoodCertNo":"HG260002602"},{"id":"safefood-seoul-HG260002599","name":"노모어 피자 수유점(NO MORE)","address":"서울특별시 강북구 덕릉로 104(뉴그린오피스텔 1층 102호 미아동)","jibunAddress":"","phone":"","foodType":"","mainFood":"","designatedDate":"2026-03-20","lat":37.635125757,"lng":127.031902752,"region":"서울특별시","source":"safefood","safeFoodGrade":"적합","safeFoodCertNo":"HG260002599"},{"id":"safefood-seoul-HG260002598","name":"버거킹 미아사거리역점","address":"서울특별시 강북구 도봉로 52(연이빌딩 1층 미아동)","jibunAddress":"","phone":"","foodType":"","mainFood":"","designatedDate":"2026-03-20","lat":37.634920382,"lng":127.023612936,"region":"서울특별시","source":"safefood","safeFoodGrade":"적합","safeFoodCertNo":"HG260002598"},{"id":"safefood-seoul-HG260003013","name":"우지커피 성북구청점","address":"서울특별시 성북구 보문로32길 10(1층 삼선동5가)","jibunAddress":"","phone":"","foodType":"","mainFood":"","designatedDate":"2026-03-31","lat":37.590067286,"lng":127.017918665,"region":"서울특별시","source":"safefood","safeFoodGrade":"적합","safeFoodCertNo":"HG260003013"},{"id":"safefood-seoul-HG260002881","name":"이디야","address":"서울특별시 성북구 종암로 105(종암동)","jibunAddress":"","phone":"","foodType":"","mainFood":"","designatedDate":"2026-03-27","lat":37.592186108,"lng":127.036704754,"region":"서울특별시","source":"safefood","safeFoodGrade":"적합","safeFoodCertNo":"HG260002881"},{"id":"safefood-seoul-HG260002913","name":"(주)신세계푸드 이베이커리 하월곡점","address":"서울특별시 성북구 종암로 167(지하2층 하월곡동)","jibunAddress":"","phone":"","foodType":"","mainFood":"","designatedDate":"2026-03-27","lat":37.592186108,"lng":127.036704754,"region":"서울특별시","source":"safefood","safeFoodGrade":"적합","safeFoodCertNo":"HG260002913"},{"id":"safefood-seoul-HG260002610","name":"VIPS 현대백화점 미아점","address":"서울특별시 성북구 동소문로 315(현대백화점미아점 지상8층 길음동)","jibunAddress":"","phone":"","foodType":"","mainFood":"","designatedDate":"2026-03-20","lat":37.598402871,"lng":127.021445493,"region":"서울특별시","source":"safefood","safeFoodGrade":"적합","safeFoodCertNo":"HG260002610"},{"id":"safefood-seoul-HG260003272","name":"보드게임카페 레드버튼 상봉점","address":"서울특별시 중랑구 망우로 319(대동빌딩 2층 201호 상봉동)","jibunAddress":"","phone":"","foodType":"","mainFood":"","designatedDate":"2026-04-03","lat":37.599873092,"lng":127.099258568,"region":"서울특별시","source":"safefood","safeFoodGrade":"적합","safeFoodCertNo":"HG260003272"},{"id":"safefood-seoul-HG260003271","name":"이디야","address":"서울특별시 중랑구 겸재로 240(102호 면목동, 행복오피스텔)","jibunAddress":"","phone":"","foodType":"","mainFood":"","designatedDate":"2026-04-03","lat":37.590665767,"lng":127.096433799,"region":"서울특별시","source":"safefood","safeFoodGrade":"적합","safeFoodCertNo":"HG260003271"},{"id":"safefood-seoul-HG260002892","name":"코모레비","address":"서울특별시 중랑구 동일로 932(201동 1층 107호 묵동, 묵동자이아파트)","jibunAddress":"","phone":"","foodType":"","mainFood":"","designatedDate":"2026-03-27","lat":37.587010337,"lng":127.079655323,"region":"서울특별시","source":"safefood","safeFoodGrade":"적합","safeFoodCertNo":"HG260002892"},{"id":"safefood-seoul-HG260003266","name":"이디야커피","address":"서울특별시 동대문구 천호대로 11-3(신설동,남선빌딩 1층 하정로 13)","jibunAddress":"","phone":"","foodType":"","mainFood":"","designatedDate":"2026-04-03","lat":37.574596009,"lng":127.026291991,"region":"서울특별시","source":"safefood","safeFoodGrade":"적합","safeFoodCertNo":"HG260003266"},{"id":"safefood-seoul-HG260003264","name":"포핸즈","address":"서울특별시 동대문구 전농로 222(201호 전농동, 씨티빌라트)","jibunAddress":"","phone":"","foodType":"","mainFood":"","designatedDate":"2026-04-03","lat":37.569267043,"lng":127.057416766,"region":"서울특별시","source":"safefood","safeFoodGrade":"적합","safeFoodCertNo":"HG260003264"},{"id":"safefood-seoul-HG260003251","name":"교촌치킨경희대점","address":"서울특별시 동대문구 경희대로3길 20(1층 회기동)","jibunAddress":"","phone":"","foodType":"","mainFood":"","designatedDate":"2026-04-03","lat":37.5928771,"lng":127.051682761,"region":"서울특별시","source":"safefood","safeFoodGrade":"적합","safeFoodCertNo":"HG260003251"},{"id":"safefood-seoul-HG260003245","name":"메가엠지씨커피 이문아이파크자이점","address":"서울특별시 동대문구 이문로 120(이문아이파크자이 오피스텔동 1층 B101호 이문동)","jibunAddress":"","phone":"","foodType":"","mainFood":"","designatedDate":"2026-04-03","lat":37.597171435,"lng":127.060922397,"region":"서울특별시","source":"safefood","safeFoodGrade":"적합","safeFoodCertNo":"HG260003245"},{"id":"safefood-seoul-HG260003244","name":"암파스타레 롯데 청량리","address":"서울특별시 동대문구 왕산로 214(청량리역,롯데백화점 7층 전농동)","jibunAddress":"","phone":"","foodType":"","mainFood":"","designatedDate":"2026-04-03","lat":37.583076691,"lng":127.049315849,"region":"서울특별시","source":"safefood","safeFoodGrade":"적합","safeFoodCertNo":"HG260003244"},{"id":"safefood-seoul-HG260003243","name":"스타벅스 청량리역사점","address":"서울특별시 동대문구 왕산로 214(청량리역,롯데백화점 6층 601호 전농동)","jibunAddress":"","phone":"","foodType":"","mainFood":"","designatedDate":"2026-04-03","lat":37.583076691,"lng":127.049315849,"region":"서울특별시","source":"safefood","safeFoodGrade":"적합","safeFoodCertNo":"HG260003243"},{"id":"safefood-seoul-HG260002771","name":"홍대개미 청량리역사점","address":"서울특별시 동대문구 왕산로 214(청량리역 3층 307호 전농동)","jibunAddress":"","phone":"","foodType":"","mainFood":"","designatedDate":"2026-03-25","lat":37.583076691,"lng":127.049315849,"region":"서울특별시","source":"safefood","safeFoodGrade":"적합","safeFoodCertNo":"HG260002771"},{"id":"safefood-seoul-HG260002737","name":"한솥도시락 경동시장사거리점","address":"서울특별시 동대문구 고산자로 420(근린생활시설동 1층 123호 용두동, 힐스테이트 청량리 메트로블)","jibunAddress":"","phone":"","foodType":"","mainFood":"","designatedDate":"2026-03-23","lat":37.584732186,"lng":127.038206097,"region":"서울특별시","source":"safefood","safeFoodGrade":"적합","safeFoodCertNo":"HG260002737"},{"id":"safefood-seoul-HG260003282","name":"이사부족발","address":"서울특별시 광진구 능동로 92(지하1층 롯데백화점 식품관 자양동)","jibunAddress":"","phone":"","foodType":"","mainFood":"","designatedDate":"2026-04-03","lat":37.563941009,"lng":127.082932601,"region":"서울특별시","source":"safefood","safeFoodGrade":"적합","safeFoodCertNo":"HG260003282"},{"id":"safefood-seoul-HG260003281","name":"본죽&비빔밥 건대점","address":"서울특별시 광진구 능동로 95(자양동)","jibunAddress":"","phone":"","foodType":"","mainFood":"","designatedDate":"2026-04-03","lat":37.563941009,"lng":127.082932601,"region":"서울특별시","source":"safefood","safeFoodGrade":"적합","safeFoodCertNo":"HG260003281"},{"id":"safefood-seoul-HG260003246","name":"열정국밥","address":"서울특별시 광진구 광나루로 604(진넥스 베르디엠 1층 106,107호 구의동)","jibunAddress":"","phone":"","foodType":"","mainFood":"","designatedDate":"2026-04-03","lat":37.546062579,"lng":127.076504154,"region":"서울특별시","source":"safefood","safeFoodGrade":"적합","safeFoodCertNo":"HG260003246"},{"id":"safefood-seoul-HG260003238","name":"본죽&비빔밥 아차산역점","address":"서울특별시 광진구 자양로 283(1층 구의동)","jibunAddress":"","phone":"","foodType":"","mainFood":"","designatedDate":"2026-04-03","lat":37.54031692,"lng":127.082908515,"region":"서울특별시","source":"safefood","safeFoodGrade":"적합","safeFoodCertNo":"HG260003238"},{"id":"safefood-seoul-HG260002609","name":"메가엠지씨커피 자양롯데캐슬점","address":"서울특별시 광진구 뚝섬로 477(411호 자양동)","jibunAddress":"","phone":"","foodType":"","mainFood":"","designatedDate":"2026-03-20","lat":37.536435795,"lng":127.062730338,"region":"서울특별시","source":"safefood","safeFoodGrade":"적합","safeFoodCertNo":"HG260002609"},{"id":"safefood-seoul-HG260002555","name":"이디야중곡신성점","address":"서울특별시 광진구 용마산로 37(이안빌딩 1층 중곡동)","jibunAddress":"","phone":"","foodType":"","mainFood":"","designatedDate":"2026-03-19","lat":37.554772214,"lng":127.088128425,"region":"서울특별시","source":"safefood","safeFoodGrade":"적합","safeFoodCertNo":"HG260002555"},{"id":"safefood-seoul-HG260002554","name":"스타벅스올림픽대교북단점","address":"서울특별시 광진구 광나루로 608(1층 구의동)","jibunAddress":"","phone":"","foodType":"","mainFood":"","designatedDate":"2026-03-19","lat":37.546062579,"lng":127.076504154,"region":"서울특별시","source":"safefood","safeFoodGrade":"적합","safeFoodCertNo":"HG260002554"},{"id":"safefood-seoul-HG260002937","name":"본죽 & 비빔밥 왕십리점","address":"서울특별시 성동구 왕십리로 348(1층 도선동)","jibunAddress":"","phone":"","foodType":"","mainFood":"","designatedDate":"2026-03-30","lat":37.543035682,"lng":127.045024923,"region":"서울특별시","source":"safefood","safeFoodGrade":"적합","safeFoodCertNo":"HG260002937"},{"id":"safefood-seoul-HG260002774","name":"메가엠지씨커피 서울숲리버포레점","address":"서울특별시 성동구 왕십리로 135(리버포레2차 215동 1층 1126호 성수동1가)","jibunAddress":"","phone":"","foodType":"","mainFood":"","designatedDate":"2026-03-25","lat":37.543035682,"lng":127.045024923,"region":"서울특별시","source":"safefood","safeFoodGrade":"적합","safeFoodCertNo":"HG260002774"},{"id":"safefood-seoul-HG260002773","name":"메가엠지씨커피 상왕십리역점","address":"서울특별시 성동구 왕십리로 359(1층 하왕십리동)","jibunAddress":"","phone":"","foodType":"","mainFood":"","designatedDate":"2026-03-25","lat":37.543035682,"lng":127.045024923,"region":"서울특별시","source":"safefood","safeFoodGrade":"적합","safeFoodCertNo":"HG260002773"},{"id":"safefood-seoul-HG260002772","name":"카이카츠 성수점","address":"서울특별시 성동구 성수일로12길 26(서울숲 코리아IT센터 1층 101호 성수동2가)","jibunAddress":"","phone":"","foodType":"","mainFood":"","designatedDate":"2026-03-25","lat":37.548308788,"lng":127.053709173,"region":"서울특별시","source":"safefood","safeFoodGrade":"적합","safeFoodCertNo":"HG260002772"},{"id":"safefood-seoul-HG260003280","name":"DD원더스 서울역점","address":"서울특별시 용산구 청파로 378(2층 107호 동자동)","jibunAddress":"","phone":"","foodType":"","mainFood":"","designatedDate":"2026-04-03","lat":37.5541668,"lng":126.968483306,"region":"서울특별시","source":"safefood","safeFoodGrade":"적합","safeFoodCertNo":"HG260003280"},{"id":"safefood-seoul-HG260003263","name":"다복집","address":"서울특별시 용산구 청파로 378(한국철도공사 2층 106호 동자동)","jibunAddress":"","phone":"","foodType":"","mainFood":"","designatedDate":"2026-04-03","lat":37.5541668,"lng":126.968483306,"region":"서울특별시","source":"safefood","safeFoodGrade":"적합","safeFoodCertNo":"HG260003263"},{"id":"safefood-seoul-HG260003262","name":"프레퍼스 다이어트 푸드 서울역점(preppers)","address":"서울특별시 용산구 청파로 378(3층 216호 동자동)","jibunAddress":"","phone":"","foodType":"","mainFood":"","designatedDate":"2026-04-03","lat":37.5541668,"lng":126.968483306,"region":"서울특별시","source":"safefood","safeFoodGrade":"적합","safeFoodCertNo":"HG260003262"},{"id":"safefood-seoul-HG260003254","name":"(주)농심 코코이찌방야용산아모레퍼시픽점","address":"서울특별시 용산구 한강대로 100(아모레퍼시픽 지층 B104-3호 한강로2가)","jibunAddress":"","phone":"","foodType":"","mainFood":"","designatedDate":"2026-04-03","lat":37.542629087,"lng":126.972977622,"region":"서울특별시","source":"safefood","safeFoodGrade":"적합","safeFoodCertNo":"HG260003254"},{"id":"safefood-seoul-HG260003177","name":"케이에프씨 숙대입구점","address":"서울특별시 용산구 한강대로 297(우신빌딩 1층 갈월동)","jibunAddress":"","phone":"","foodType":"","mainFood":"","designatedDate":"2026-04-02","lat":37.542629087,"lng":126.972977622,"region":"서울특별시","source":"safefood","safeFoodGrade":"적합","safeFoodCertNo":"HG260003177"},{"id":"safefood-seoul-HG240000993","name":"(주)스쿨푸드용산딜리버리","address":"서울특별시 용산구 청파로 273(1층 청파동3가)","jibunAddress":"","phone":"","foodType":"","mainFood":"","designatedDate":"2026-02-22","lat":37.5541668,"lng":126.968483306,"region":"서울특별시","source":"safefood","safeFoodGrade":"매우우수","safeFoodCertNo":"HG240000993"},{"id":"safefood-seoul-HG220002409","name":"크리스피프레시 용산아이파크몰점","address":"서울특별시 용산구 한강대로23길 55(아이파크몰 4층 한강로3가)","jibunAddress":"","phone":"","foodType":"","mainFood":"","designatedDate":"2024-04-12","lat":37.529839228,"lng":126.964860965,"region":"서울특별시","source":"safefood","safeFoodGrade":"매우우수","safeFoodCertNo":"HG220002409"},{"id":"safefood-seoul-HG260003147","name":"설빙 한남점","address":"서울특별시 용산구 대사관로 71(2층 한남동)","jibunAddress":"","phone":"","foodType":"","mainFood":"","designatedDate":"2026-04-01","lat":37.533728869,"lng":127.003267667,"region":"서울특별시","source":"safefood","safeFoodGrade":"적합","safeFoodCertNo":"HG260003147"},{"id":"safefood-seoul-HG260003149","name":"투썸플레이스 순천향대학교 서울병원점","address":"서울특별시 용산구 대사관로 59(순천향대학병원 본관 1층 한남동)","jibunAddress":"","phone":"","foodType":"","mainFood":"","designatedDate":"2026-04-01","lat":37.533728869,"lng":127.003267667,"region":"서울특별시","source":"safefood","safeFoodGrade":"적합","safeFoodCertNo":"HG260003149"},{"id":"safefood-seoul-HG260002590","name":"(주)학산 테라로사 서울역점","address":"서울특별시 용산구 청파로 378(3층 214호 동자동)","jibunAddress":"","phone":"","foodType":"","mainFood":"","designatedDate":"2026-03-20","lat":37.5541668,"lng":126.968483306,"region":"서울특별시","source":"safefood","safeFoodGrade":"적합","safeFoodCertNo":"HG260002590"},{"id":"safefood-seoul-HG260003287","name":"솥내음 서울역 남대문시장점","address":"서울특별시 중구 통일로 10(연세대학교 세브란스빌딩 지하1층 남대문로5가)","jibunAddress":"","phone":"","foodType":"","mainFood":"","designatedDate":"2026-04-03","lat":37.564318995,"lng":126.96848746,"region":"서울특별시","source":"safefood","safeFoodGrade":"적합","safeFoodCertNo":"HG260003287"},{"id":"safefood-seoul-HG260003270","name":"리앤이라마띠네 동대문","address":"서울특별시 중구 을지로 224(2층 을지로5가)","jibunAddress":"","phone":"","foodType":"","mainFood":"","designatedDate":"2026-04-03","lat":37.566121108,"lng":126.9915793,"region":"서울특별시","source":"safefood","safeFoodGrade":"적합","safeFoodCertNo":"HG260003270"},{"id":"safefood-seoul-HG260003269","name":"바나프레소 서울인쇄센터점","address":"서울특별시 중구 마른내로 138(한국프라스틱공업협동조합 1층 102호 쌍림동)","jibunAddress":"","phone":"","foodType":"","mainFood":"","designatedDate":"2026-04-03","lat":37.564322234,"lng":127.000536845,"region":"서울특별시","source":"safefood","safeFoodGrade":"적합","safeFoodCertNo":"HG260003269"},{"id":"safefood-seoul-HG260003206","name":"파리바게뜨서소문점","address":"서울특별시 중구 세종대로11길 27(지하1층, 지상1층 서소문동)","jibunAddress":"","phone":"","foodType":"","mainFood":"","designatedDate":"2026-04-03","lat":37.562324655,"lng":126.97444113,"region":"서울특별시","source":"safefood","safeFoodGrade":"적합","safeFoodCertNo":"HG260003206"},{"id":"safefood-seoul-HG260003145","name":"남산리더십센터 베이커리","address":"서울특별시 중구 소파로 131(지하2층 B228호 남산동3가)","jibunAddress":"","phone":"","foodType":"","mainFood":"","designatedDate":"2026-04-01","lat":37.556729968,"lng":126.98505169,"region":"서울특별시","source":"safefood","safeFoodGrade":"적합","safeFoodCertNo":"HG260003145"},{"id":"safefood-seoul-HG260003144","name":"남산리더십센터","address":"서울특별시 중구 소파로 131(1층 111~115,119호,131호,141호,156호 남산동3가)","jibunAddress":"","phone":"","foodType":"","mainFood":"","designatedDate":"2026-04-01","lat":37.556729968,"lng":126.98505169,"region":"서울특별시","source":"safefood","safeFoodGrade":"적합","safeFoodCertNo":"HG260003144"},{"id":"safefood-seoul-HG260002306","name":"스타벅스 동대문두타점","address":"서울특별시 중구 장충단로 275(2층 41호 을지로6가)","jibunAddress":"","phone":"","foodType":"","mainFood":"","designatedDate":"2026-03-12","lat":37.563085732,"lng":127.006525299,"region":"서울특별시","source":"safefood","safeFoodGrade":"매우우수","safeFoodCertNo":"HG260002306"},{"id":"safefood-seoul-HG240002245","name":"(주)동해식품","address":"서울특별시 중구 남대문로 81(롯데백화점 본점 지하1층 소공동)","jibunAddress":"","phone":"","foodType":"","mainFood":"","designatedDate":"2026-04-04","lat":37.56277303,"lng":126.982241843,"region":"서울특별시","source":"safefood","safeFoodGrade":"적합","safeFoodCertNo":"HG240002245"},{"id":"safefood-seoul-HG240002246","name":"서월식","address":"서울특별시 중구 남대문로 81(롯데백화점 본점 지하1층 소공동)","jibunAddress":"","phone":"","foodType":"","mainFood":"","designatedDate":"2026-04-04","lat":37.56277303,"lng":126.982241843,"region":"서울특별시","source":"safefood","safeFoodGrade":"적합","safeFoodCertNo":"HG240002246"},{"id":"safefood-seoul-HG240002200","name":"센터커피 롯데명동점","address":"서울특별시 중구 남대문로 81(5층 소공동)","jibunAddress":"","phone":"","foodType":"","mainFood":"","designatedDate":"2026-04-04","lat":37.56277303,"lng":126.982241843,"region":"서울특별시","source":"safefood","safeFoodGrade":"적합","safeFoodCertNo":"HG240002200"},{"id":"safefood-seoul-HG260002942","name":"노모어피자 서울시청점","address":"서울특별시 중구 무교로 13(휘닉스빌딩 2층 무교동)","jibunAddress":"","phone":"","foodType":"","mainFood":"","designatedDate":"2026-03-30","lat":37.568121164,"lng":126.979476996,"region":"서울특별시","source":"safefood","safeFoodGrade":"적합","safeFoodCertNo":"HG260002942"},{"id":"safefood-seoul-HG240002256","name":"티라펠리체","address":"서울특별시 중구 남대문로 81(소공동, 외 6필지, 롯데백화점 지하1층)","jibunAddress":"","phone":"","foodType":"","mainFood":"","designatedDate":"2026-04-04","lat":37.56277303,"lng":126.982241843,"region":"서울특별시","source":"safefood","safeFoodGrade":"적합","safeFoodCertNo":"HG240002256"},{"id":"safefood-seoul-HG240001889","name":"10 꼬르소꼬모 카페","address":"서울특별시 중구 남대문로 73(5층 남대문로2가)","jibunAddress":"","phone":"","foodType":"","mainFood":"","designatedDate":"2026-03-26","lat":37.56277303,"lng":126.982241843,"region":"서울특별시","source":"safefood","safeFoodGrade":"적합","safeFoodCertNo":"HG240001889"},{"id":"safefood-seoul-HG260002561","name":"한국의집","address":"서울특별시 중구 퇴계로36길 10(필동2가)","jibunAddress":"","phone":"","foodType":"","mainFood":"","designatedDate":"2026-03-19","lat":37.5608213723708,"lng":126.993849717992,"region":"서울특별시","source":"safefood","safeFoodGrade":"적합","safeFoodCertNo":"HG260002561"},{"id":"safefood-seoul-HG260003277","name":"하우스오브갓덴 스타필드애비뉴그랑서울점","address":"서울특별시 종로구 종로 33(스타필드애비뉴 그랑서울타워 타워1 지하1층 B122호 청진동)","jibunAddress":"","phone":"","foodType":"","mainFood":"","designatedDate":"2026-04-03","lat":37.569876821,"lng":126.979674244,"region":"서울특별시","source":"safefood","safeFoodGrade":"적합","safeFoodCertNo":"HG260003277"},{"id":"safefood-seoul-HG260003267","name":"소풍가는날","address":"서울특별시 종로구 종로 33(그랑서울 지하1층 B103호 청진동)","jibunAddress":"","phone":"","foodType":"","mainFood":"","designatedDate":"2026-04-03","lat":37.569876821,"lng":126.979674244,"region":"서울특별시","source":"safefood","safeFoodGrade":"적합","safeFoodCertNo":"HG260003267"},{"id":"safefood-seoul-HG260003125","name":"이디야 광화문스페이스본점","address":"서울특별시 종로구 사직로8길 4(301동 비113-15호 사직동, 광화문 스페이스본)","jibunAddress":"","phone":"","foodType":"","mainFood":"","designatedDate":"2026-04-01","lat":37.573762054,"lng":126.973125448,"region":"서울특별시","source":"safefood","safeFoodGrade":"적합","safeFoodCertNo":"HG260003125"},{"id":"safefood-seoul-HG260003123","name":"메가엠지씨커피 보신각점","address":"서울특별시 종로구 종로 62(1,2층 종로2가)","jibunAddress":"","phone":"","foodType":"","mainFood":"","designatedDate":"2026-04-01","lat":37.569876821,"lng":126.979674244,"region":"서울특별시","source":"safefood","safeFoodGrade":"적합","safeFoodCertNo":"HG260003123"},{"id":"safefood-seoul-HG260002398","name":"스타벅스 리저브광화문","address":"서울특별시 종로구 세종대로 178(KT 광화문 빌딩 West 1층 101-1호 세종로)","jibunAddress":"","phone":"","foodType":"","mainFood":"","designatedDate":"2026-03-12","lat":37.57262064091815,"lng":126.97572100551191,"region":"서울특별시","source":"safefood","safeFoodGrade":"매우우수","safeFoodCertNo":"HG260002398"},{"id":"safefood-seoul-HG260002516","name":"하우마라탕","address":"서울특별시 종로구 종로16길 12(관철동,지상2층)","jibunAddress":"","phone":"","foodType":"","mainFood":"","designatedDate":"2026-03-18","lat":37.499753238,"lng":127.029194273,"region":"서울특별시","source":"safefood","safeFoodGrade":"적합","safeFoodCertNo":"HG260002516"},{"id":"safefood-seoul-HG260002272","name":"빽다방 중화역점","address":"서울특별시 중랑구 봉화산로 39(HJ빌딩 1층 101호 중화동)","jibunAddress":"","phone":"","foodType":"","mainFood":"","designatedDate":"2026-03-11","lat":37.601422498,"lng":127.076360297,"region":"서울특별시","source":"safefood","safeFoodGrade":"우수","safeFoodCertNo":"HG260002272"},{"id":"safefood-seoul-HG250639085","name":"포케올데이 연신내역점","address":"서울특별시 은평구 연서로29길 4(2층 갈현동)","jibunAddress":"","phone":"","foodType":"","mainFood":"","designatedDate":"2025-09-11","lat":37.619306987,"lng":126.919243192,"region":"서울특별시","source":"safefood","safeFoodGrade":"매우우수","safeFoodCertNo":"HG250639085"},{"id":"safefood-seoul-HG240625616","name":"투썸플레이스 장안동사거리점","address":"서울특별시 동대문구 답십리로 273(한양빌딩 1층 장안동)","jibunAddress":"","phone":"","foodType":"","mainFood":"","designatedDate":"2024-07-08","lat":37.57174794,"lng":127.074848088,"region":"서울특별시","source":"safefood","safeFoodGrade":"매우우수","safeFoodCertNo":"HG240625616"},{"id":"safefood-seoul-HG220010501","name":"도미노피자 동서초점","address":"서울특별시 서초구 서초대로 253(지천빌딩 1층 102호 서초동)","jibunAddress":"","phone":"","foodType":"","mainFood":"","designatedDate":"2024-11-29","lat":37.493700013,"lng":127.012716473,"region":"서울특별시","source":"safefood","safeFoodGrade":"매우우수","safeFoodCertNo":"HG220010501"},{"id":"safefood-seoul-HG250632887","name":"본죽&비빔밥 신대방삼거리역점","address":"서울특별시 동작구 상도로 77(대방동)","jibunAddress":"","phone":"","foodType":"","mainFood":"","designatedDate":"2025-05-08","lat":37.503955138,"lng":126.947867202,"region":"서울특별시","source":"safefood","safeFoodGrade":"매우우수","safeFoodCertNo":"HG250632887"},{"id":"safefood-seoul-HG250642536","name":"타와","address":"서울특별시 중구 서소문로 115(서소문동, 한산빌딩 지하아케이드2호)","jibunAddress":"","phone":"","foodType":"","mainFood":"","designatedDate":"2025-12-08","lat":37.563024803,"lng":126.972637035,"region":"서울특별시","source":"safefood","safeFoodGrade":"매우우수","safeFoodCertNo":"HG250642536"},{"id":"safefood-seoul-HG210000119","name":"배스킨라빈스 신월사거리점","address":"서울특별시 양천구 남부순환로 358(1층 신월동)","jibunAddress":"","phone":"","foodType":"","mainFood":"","designatedDate":"2025-01-21","lat":37.534283672,"lng":126.828984085,"region":"서울특별시","source":"safefood","safeFoodGrade":"매우우수","safeFoodCertNo":"HG210000119"},{"id":"safefood-seoul-HG240631249","name":"독립밀방 익선","address":"서울특별시 종로구 돈화문로11나길 30(익선동)","jibunAddress":"","phone":"","foodType":"","mainFood":"","designatedDate":"2024-11-25","lat":37.5740691956402,"lng":126.990292742097,"region":"서울특별시","source":"safefood","safeFoodGrade":"매우우수","safeFoodCertNo":"HG240631249"},{"id":"safefood-seoul-HG240630835","name":"스텔라떡볶이 서울송파석촌점","address":"서울특별시 송파구 가락로16길 4(대흥빌딩 1층 103호 석촌동)","jibunAddress":"","phone":"","foodType":"","mainFood":"","designatedDate":"2024-11-11","lat":37.500736036,"lng":127.107882735,"region":"서울특별시","source":"safefood","safeFoodGrade":"매우우수","safeFoodCertNo":"HG240630835"},{"id":"safefood-seoul-HG210006585","name":"롯데쇼핑)롯데마트김포공항1","address":"서울특별시 강서구 하늘길 38(지하 2층 방화동, 2동 김포공항스카이파크)","jibunAddress":"","phone":"","foodType":"","mainFood":"","designatedDate":"2025-07-16","lat":37.563449495,"lng":126.80320117,"region":"서울특별시","source":"safefood","safeFoodGrade":"매우우수","safeFoodCertNo":"HG210006585"},{"id":"safefood-seoul-HG250640893","name":"마이멜로디 하모니카페(My Melody Harmony Cafe)","address":"서울특별시 송파구 올림픽로 240(롯데월드 쇼핑몰동 B1층 27호 잠실동)","jibunAddress":"","phone":"","foodType":"","mainFood":"","designatedDate":"2025-10-30","lat":37.536542197,"lng":127.122365781,"region":"서울특별시","source":"safefood","safeFoodGrade":"매우우수","safeFoodCertNo":"HG250640893"},{"id":"safefood-seoul-HG250639408","name":"(주)학산 테라로사 세브란스점","address":"서울특별시 서대문구 연세로 50-1(세브란스병원 6층 신촌동)","jibunAddress":"","phone":"","foodType":"","mainFood":"","designatedDate":"2025-09-18","lat":37.557414234,"lng":126.93672772,"region":"서울특별시","source":"safefood","safeFoodGrade":"매우우수","safeFoodCertNo":"HG250639408"},{"id":"safefood-seoul-HG260002493","name":"컴포즈커피 문정이엠365점","address":"서울특별시 송파구 새말로8길 21-1(1층 문정동)","jibunAddress":"","phone":"","foodType":"","mainFood":"","designatedDate":"2026-03-12","lat":37.48195088,"lng":127.126690146,"region":"서울특별시","source":"safefood","safeFoodGrade":"매우우수","safeFoodCertNo":"HG260002493"},{"id":"safefood-seoul-HG240631031","name":"인생아구찜 구로점","address":"서울특별시 구로구 경인로 240(예성라온팰리스 102동 104호 오류동)","jibunAddress":"","phone":"","foodType":"","mainFood":"","designatedDate":"2024-11-15","lat":37.496830159,"lng":126.846239505,"region":"서울특별시","source":"safefood","safeFoodGrade":"매우우수","safeFoodCertNo":"HG240631031"},{"id":"safefood-seoul-HG260001361","name":"파리바게뜨 올림픽점","address":"서울특별시 송파구 양재대로 1222(90,91호 방이동, 올림픽프라자 중심상가)","jibunAddress":"","phone":"","foodType":"","mainFood":"","designatedDate":"2026-02-10","lat":37.493810321,"lng":127.11289193,"region":"서울특별시","source":"safefood","safeFoodGrade":"우수","safeFoodCertNo":"HG260001361"},{"id":"safefood-seoul-HG260002188","name":"빽보이피자 봉천점","address":"서울특별시 관악구 쑥고개로 50(제1층 제103호 봉천동)","jibunAddress":"","phone":"","foodType":"","mainFood":"","designatedDate":"2026-03-10","lat":37.478927174,"lng":126.951589559,"region":"서울특별시","source":"safefood","safeFoodGrade":"우수","safeFoodCertNo":"HG260002188"},{"id":"safefood-seoul-HG240002208","name":"주식회사 빅바이트컴퍼니 쉐이크쉑 코엑스","address":"서울특별시 강남구 영동대로 513(코엑스 지하1층 삼성동)","jibunAddress":"","phone":"","foodType":"","mainFood":"","designatedDate":"2026-04-04","lat":37.522477745,"lng":127.055156081,"region":"서울특별시","source":"safefood","safeFoodGrade":"매우우수","safeFoodCertNo":"HG240002208"},{"id":"safefood-seoul-HG260002397","name":"본죽","address":"서울특별시 양천구 남부순환로40길 13(지상1층 신월동)","jibunAddress":"","phone":"","foodType":"","mainFood":"","designatedDate":"2026-03-12","lat":37.51023309,"lng":127.058596939,"region":"서울특별시","source":"safefood","safeFoodGrade":"매우우수","safeFoodCertNo":"HG260002397"},{"id":"safefood-seoul-HG260002185","name":"이디야(EDIYA COFFEE)","address":"서울특별시 강동구 상암로 210(명일현대종합상가 1층 21~27,29~32호 명일동)","jibunAddress":"","phone":"","foodType":"","mainFood":"","designatedDate":"2026-03-10","lat":37.550158057,"lng":127.127017207,"region":"서울특별시","source":"safefood","safeFoodGrade":"매우우수","safeFoodCertNo":"HG260002185"},{"id":"safefood-seoul-HG260002180","name":"본 도시락 방화점","address":"서울특별시 강서구 양천로 85(1층 방화동)","jibunAddress":"","phone":"","foodType":"","mainFood":"","designatedDate":"2026-03-10","lat":37.549524495,"lng":126.876368953,"region":"서울특별시","source":"safefood","safeFoodGrade":"좋음","safeFoodCertNo":"HG260002180"},{"id":"safefood-seoul-HG240001970","name":"유브유부","address":"서울특별시 송파구 올림픽로 240(롯데월드 어드벤처동 AD-B1F-02호 잠실동)","jibunAddress":"","phone":"","foodType":"","mainFood":"","designatedDate":"2026-03-29","lat":37.536542197,"lng":127.122365781,"region":"서울특별시","source":"safefood","safeFoodGrade":"매우우수","safeFoodCertNo":"HG240001970"},{"id":"safefood-seoul-HG260002173","name":"설빙 송파방이점","address":"서울특별시 송파구 오금로11길 24(2층 방이동)","jibunAddress":"","phone":"","foodType":"","mainFood":"","designatedDate":"2026-03-10","lat":37.515335914,"lng":127.112700554,"region":"서울특별시","source":"safefood","safeFoodGrade":"매우우수","safeFoodCertNo":"HG260002173"},{"id":"safefood-seoul-HG260002391","name":"래빗캐슬 서울숲","address":"서울특별시 성동구 서울숲4길 18-10(지하1층 성수동1가)","jibunAddress":"","phone":"","foodType":"","mainFood":"","designatedDate":"2026-03-12","lat":37.546945687,"lng":127.043437012,"region":"서울특별시","source":"safefood","safeFoodGrade":"매우우수","safeFoodCertNo":"HG260002391"},{"id":"safefood-seoul-HG240002193","name":"도미노피자 신사점","address":"서울특별시 강남구 압구정로 114(신사빌딩 지상1층 신사동)","jibunAddress":"","phone":"","foodType":"","mainFood":"","designatedDate":"2026-04-04","lat":37.527374931,"lng":127.027462003,"region":"서울특별시","source":"safefood","safeFoodGrade":"매우우수","safeFoodCertNo":"HG240002193"},{"id":"safefood-seoul-HG260002389","name":"태능감자탕 쌍문점","address":"서울특별시 도봉구 도봉로110길 5(1층 창동)","jibunAddress":"","phone":"","foodType":"","mainFood":"","designatedDate":"2026-03-12","lat":37.646599333,"lng":127.036579288,"region":"서울특별시","source":"safefood","safeFoodGrade":"매우우수","safeFoodCertNo":"HG260002389"},{"id":"safefood-seoul-HG260002482","name":"공차 송파역점","address":"서울특별시 송파구 송파대로 345(근린생활시설1A동 1층 1038,1039호 가락동, 헬리오시티)","jibunAddress":"","phone":"","foodType":"","mainFood":"","designatedDate":"2026-03-12","lat":37.487351122,"lng":127.119501887,"region":"서울특별시","source":"safefood","safeFoodGrade":"매우우수","safeFoodCertNo":"HG260002482"},{"id":"safefood-seoul-HG260002388","name":"커피빈 연세암병원점","address":"서울특별시 서대문구 연세로 50-1(세브란스병원 5층 5-1호 신촌동)","jibunAddress":"","phone":"","foodType":"","mainFood":"","designatedDate":"2026-03-12","lat":37.557414234,"lng":126.93672772,"region":"서울특별시","source":"safefood","safeFoodGrade":"매우우수","safeFoodCertNo":"HG260002388"},{"id":"safefood-seoul-HG260000972","name":"온더보더 타임스퀘어점","address":"서울특별시 영등포구 영중로 15(타임스퀘어 지하1층 영등포동4가)","jibunAddress":"","phone":"","foodType":"","mainFood":"","designatedDate":"2026-01-29","lat":37.517195711,"lng":126.903646105,"region":"서울특별시","source":"safefood","safeFoodGrade":"매우우수","safeFoodCertNo":"HG260000972"},{"id":"safefood-seoul-HG260002385","name":"(주)공차코리아(타임스퀘어점)","address":"서울특별시 영등포구 영중로 15(영등포동4가, 타임스퀘어 지상2층)","jibunAddress":"","phone":"","foodType":"","mainFood":"","designatedDate":"2026-03-12","lat":37.517195711,"lng":126.903646105,"region":"서울특별시","source":"safefood","safeFoodGrade":"매우우수","safeFoodCertNo":"HG260002385"},{"id":"safefood-seoul-HG260002486","name":"공차 신논현점","address":"서울특별시 강남구 강남대로 484(HK빌딩 지상1층 논현동)","jibunAddress":"","phone":"","foodType":"","mainFood":"","designatedDate":"2026-03-12","lat":37.491333453,"lng":127.031711746,"region":"서울특별시","source":"safefood","safeFoodGrade":"매우우수","safeFoodCertNo":"HG260002486"},{"id":"safefood-seoul-HG250632195","name":"비에이치씨 오목교점","address":"서울특별시 양천구 목동서로 291(제이월드빌 110호,111호,112호 신정동, 제이월드빌)","jibunAddress":"","phone":"","foodType":"","mainFood":"","designatedDate":"2025-04-22","lat":37.52801959,"lng":126.870616002,"region":"서울특별시","source":"safefood","safeFoodGrade":"매우우수","safeFoodCertNo":"HG250632195"},{"id":"safefood-seoul-HG240001845","name":"투썸플레이스 가산로데오점","address":"서울특별시 금천구 벚꽃로 254(가산동, 월드메르디앙벤처센타 지상1층 104,104-1,104-2일부호)","jibunAddress":"","phone":"","foodType":"","mainFood":"","designatedDate":"2026-03-25","lat":37.477774485,"lng":126.885452155,"region":"서울특별시","source":"safefood","safeFoodGrade":"매우우수","safeFoodCertNo":"HG240001845"},{"id":"safefood-seoul-HG260002157","name":"본죽&비빔밥 길음역점","address":"서울특별시 성북구 동소문로 248(105동 1층 13,14호 길음동, 길음삼부컨버니언아파트)","jibunAddress":"","phone":"","foodType":"","mainFood":"","designatedDate":"2026-03-10","lat":37.598402871,"lng":127.021445493,"region":"서울특별시","source":"safefood","safeFoodGrade":"매우우수","safeFoodCertNo":"HG260002157"},{"id":"safefood-seoul-HG260002155","name":"공차 송파방이점","address":"서울특별시 송파구 오금로11길 6(1층 103호,104호 방이동)","jibunAddress":"","phone":"","foodType":"","mainFood":"","designatedDate":"2026-03-10","lat":37.515335914,"lng":127.112700554,"region":"서울특별시","source":"safefood","safeFoodGrade":"매우우수","safeFoodCertNo":"HG260002155"},{"id":"safefood-seoul-HG260002151","name":"본죽&비빔밥 대림성모점","address":"서울특별시 동작구 신대방길 116(1층 신대방동)","jibunAddress":"","phone":"","foodType":"","mainFood":"","designatedDate":"2026-03-10","lat":37.490127206,"lng":126.908480807,"region":"서울특별시","source":"safefood","safeFoodGrade":"매우우수","safeFoodCertNo":"HG260002151"},{"id":"safefood-seoul-HG260002378","name":"오마뎅 애오개점","address":"서울특별시 마포구 마포대로 231(제지1층 제비106호 아현동, 마포 푸르지오 더 센트럴)","jibunAddress":"","phone":"","foodType":"","mainFood":"","designatedDate":"2026-03-12","lat":37.541342187,"lng":126.948897481,"region":"서울특별시","source":"safefood","safeFoodGrade":"매우우수","safeFoodCertNo":"HG260002378"},{"id":"safefood-seoul-HG260002440","name":"교촌치킨대조점","address":"서울특별시 은평구 서오릉로 94(101동 101호 대조동)","jibunAddress":"","phone":"","foodType":"","mainFood":"","designatedDate":"2026-03-12","lat":37.602537598,"lng":126.925908415,"region":"서울특별시","source":"safefood","safeFoodGrade":"매우우수","safeFoodCertNo":"HG260002440"},{"id":"safefood-seoul-HG260000747","name":"파리바게뜨 수락산역점","address":"서울특별시 노원구 동일로 1677(상계동)","jibunAddress":"","phone":"","foodType":"","mainFood":"","designatedDate":"2026-01-26","lat":37.670984948,"lng":127.056839989,"region":"서울특별시","source":"safefood","safeFoodGrade":"매우우수","safeFoodCertNo":"HG260000747"},{"id":"safefood-seoul-HG240001826","name":"이디야","address":"서울특별시 마포구 양화로 45(서교동, 메세나폴리스 지하2층 홈플러스 B23호)","jibunAddress":"","phone":"","foodType":"","mainFood":"","designatedDate":"2026-03-25","lat":37.553820115,"lng":126.920237067,"region":"서울특별시","source":"safefood","safeFoodGrade":"매우우수","safeFoodCertNo":"HG240001826"},{"id":"safefood-seoul-HG260002077","name":"홋카이도 여보","address":"서울특별시 강남구 언주로98길 15(역삼동,지상1층)","jibunAddress":"","phone":"","foodType":"","mainFood":"","designatedDate":"2026-03-10","lat":37.50472,"lng":127.0426,"region":"서울특별시","source":"safefood","safeFoodGrade":"좋음","safeFoodCertNo":"HG260002077"},{"id":"safefood-seoul-HG260002139","name":"케이에프씨 신용산점(KFC)","address":"서울특별시 용산구 서빙고로 17(몰동 1층 1029, 1030, 1031호 한강로3가)","jibunAddress":"","phone":"","foodType":"","mainFood":"","designatedDate":"2026-03-10","lat":37.525653851,"lng":126.965093729,"region":"서울특별시","source":"safefood","safeFoodGrade":"매우우수","safeFoodCertNo":"HG260002139"},{"id":"safefood-seoul-HG260001643","name":"태극당 청량리역점","address":"서울특별시 동대문구 왕산로 214(청량리커넥트플레이스 3층 전농동)","jibunAddress":"","phone":"","foodType":"","mainFood":"","designatedDate":"2026-02-23","lat":37.583076691,"lng":127.049315849,"region":"서울특별시","source":"safefood","safeFoodGrade":"매우우수","safeFoodCertNo":"HG260001643"},{"id":"safefood-seoul-HG260002063","name":"메가엠지씨커피 봉은사역점","address":"서울특별시 강남구 봉은사로 541(지상1층 삼성동)","jibunAddress":"","phone":"","foodType":"","mainFood":"","designatedDate":"2026-03-10","lat":37.512953367,"lng":127.057115634,"region":"서울특별시","source":"safefood","safeFoodGrade":"매우우수","safeFoodCertNo":"HG260002063"},{"id":"safefood-seoul-HG260002062","name":"르베지왕 센터필드공간","address":"서울특별시 강남구 테헤란로 231(센터필드 지하2층 WB54호 역삼동)","jibunAddress":"","phone":"","foodType":"","mainFood":"","designatedDate":"2026-03-10","lat":37.509174478,"lng":127.060625246,"region":"서울특별시","source":"safefood","safeFoodGrade":"매우우수","safeFoodCertNo":"HG260002062"},{"id":"safefood-seoul-HG260002437","name":"가든 세레노","address":"서울특별시 중구 장충단로13길 20(14층 을지로6가)","jibunAddress":"","phone":"","foodType":"","mainFood":"","designatedDate":"2026-03-12","lat":37.56870764,"lng":127.007653116,"region":"서울특별시","source":"safefood","safeFoodGrade":"매우우수","safeFoodCertNo":"HG260002437"},{"id":"safefood-seoul-HG260001529","name":"김통삼 금천점","address":"서울특별시 금천구 시흥대로 291(310동 103호 독산동, 금천롯데캐슬골드파크3차)","jibunAddress":"","phone":"","foodType":"","mainFood":"","designatedDate":"2026-02-19","lat":37.450639654,"lng":126.901462373,"region":"서울특별시","source":"safefood","safeFoodGrade":"매우우수","safeFoodCertNo":"HG260001529"},{"id":"safefood-seoul-HG240001968","name":"모노브레드","address":"서울특별시 송파구 올림픽로 240(롯데월드 4층 잠실동)","jibunAddress":"","phone":"","foodType":"","mainFood":"","designatedDate":"2026-03-29","lat":37.536542197,"lng":127.122365781,"region":"서울특별시","source":"safefood","safeFoodGrade":"매우우수","safeFoodCertNo":"HG240001968"},{"id":"safefood-seoul-HG260000322","name":"벤슨 서울역","address":"서울특별시 용산구 청파로 378(한국철도공사 3층 213호 동자동)","jibunAddress":"","phone":"","foodType":"","mainFood":"","designatedDate":"2026-01-14","lat":37.5541668,"lng":126.968483306,"region":"서울특별시","source":"safefood","safeFoodGrade":"매우우수","safeFoodCertNo":"HG260000322"},{"id":"safefood-seoul-HG260002050","name":"파스쿠찌 길동점","address":"서울특별시 강동구 양재대로 1463(1층 길동)","jibunAddress":"","phone":"","foodType":"","mainFood":"","designatedDate":"2026-03-10","lat":37.531455302,"lng":127.138150161,"region":"서울특별시","source":"safefood","safeFoodGrade":"매우우수","safeFoodCertNo":"HG260002050"},{"id":"safefood-seoul-HG260002136","name":"여의도삼계탕 용산아이파크몰점","address":"서울특별시 용산구 한강대로23길 55(용산아이파크몰 7층 한강로3가)","jibunAddress":"","phone":"","foodType":"","mainFood":"","designatedDate":"2026-03-10","lat":37.529839228,"lng":126.964860965,"region":"서울특별시","source":"safefood","safeFoodGrade":"매우우수","safeFoodCertNo":"HG260002136"},{"id":"safefood-seoul-HG220002025","name":"스타벅스 독산사거리점","address":"서울특별시 금천구 시흥대로 426(지하1층 독산동, 영진빌딩)","jibunAddress":"","phone":"","foodType":"","mainFood":"","designatedDate":"2026-03-30","lat":37.450639654,"lng":126.901462373,"region":"서울특별시","source":"safefood","safeFoodGrade":"매우우수","safeFoodCertNo":"HG220002025"},{"id":"safefood-seoul-HG260002044","name":"웰믹스 광화문점","address":"서울특별시 종로구 세종대로23길 54(세종빌딩, 세종아파트 1층 106호 당주동)","jibunAddress":"","phone":"","foodType":"","mainFood":"","designatedDate":"2026-03-10","lat":37.571509132,"lng":126.975053665,"region":"서울특별시","source":"safefood","safeFoodGrade":"매우우수","safeFoodCertNo":"HG260002044"},{"id":"safefood-seoul-HG240001435","name":"호시카츠 롯데몰 김포공항점","address":"서울특별시 강서구 하늘길 38(김포공항, 롯데몰, 스카이시티 GF층 방화동)","jibunAddress":"","phone":"","foodType":"","mainFood":"","designatedDate":"2026-03-13","lat":37.563449495,"lng":126.80320117,"region":"서울특별시","source":"safefood","safeFoodGrade":"매우우수","safeFoodCertNo":"HG240001435"},{"id":"safefood-seoul-HG240001433","name":"주식회사 딘타이펑코리아","address":"서울특별시 강서구 하늘길 38(김포공항, 롯데몰, 스카이시티 B2층 방화동)","jibunAddress":"","phone":"","foodType":"","mainFood":"","designatedDate":"2026-03-13","lat":37.563449495,"lng":126.80320117,"region":"서울특별시","source":"safefood","safeFoodGrade":"매우우수","safeFoodCertNo":"HG240001433"},{"id":"safefood-seoul-HG240002017","name":"나루터식당","address":"서울특별시 송파구 오금로 152(연세빌딩 1층 송파동)","jibunAddress":"","phone":"","foodType":"","mainFood":"","designatedDate":"2026-04-03","lat":37.510698379,"lng":127.11058374,"region":"서울특별시","source":"safefood","safeFoodGrade":"우수","safeFoodCertNo":"HG240002017"},{"id":"safefood-seoul-HG260002371","name":"해방촌 부대찌개","address":"서울특별시 관악구 신림로 330(타임스트림 9층 신림동)","jibunAddress":"","phone":"","foodType":"","mainFood":"","designatedDate":"2026-03-12","lat":37.4810764,"lng":126.93032938,"region":"서울특별시","source":"safefood","safeFoodGrade":"매우우수","safeFoodCertNo":"HG260002371"},{"id":"safefood-seoul-HG220001654","name":"스타벅스현대목동점","address":"서울특별시 양천구 목동동로 257(목동,현대백화점 지하2층)","jibunAddress":"","phone":"","foodType":"","mainFood":"","designatedDate":"2026-03-17","lat":37.535901809,"lng":126.879499171,"region":"서울특별시","source":"safefood","safeFoodGrade":"매우우수","safeFoodCertNo":"HG220001654"},{"id":"safefood-seoul-HG220001492","name":"클럽멤버스 레스토랑(Club Member`s Restaurant)","address":"서울특별시 중구 장충단로 60(신관4층 장충동2가, 타워호텔)","jibunAddress":"","phone":"","foodType":"","mainFood":"","designatedDate":"2026-03-14","lat":37.563085732,"lng":127.006525299,"region":"서울특별시","source":"safefood","safeFoodGrade":"매우우수","safeFoodCertNo":"HG220001492"},{"id":"safefood-seoul-HG220001477","name":"그라늄다이닝라운지(Granum Dining Lounge)","address":"서울특별시 중구 장충단로 60(본관1층 장충동2가, 타워호텔)","jibunAddress":"","phone":"","foodType":"","mainFood":"","designatedDate":"2026-03-14","lat":37.563085732,"lng":127.006525299,"region":"서울특별시","source":"safefood","safeFoodGrade":"매우우수","safeFoodCertNo":"HG220001477"},{"id":"safefood-seoul-HG220001502","name":"페스타 바이 충후(Festa by choonghu)","address":"서울특별시 중구 장충단로 60(별관1층 장충동2가)","jibunAddress":"","phone":"","foodType":"","mainFood":"","designatedDate":"2026-03-14","lat":37.563085732,"lng":127.006525299,"region":"서울특별시","source":"safefood","safeFoodGrade":"매우우수","safeFoodCertNo":"HG220001502"},{"id":"safefood-seoul-HG240001242","name":"쩐주단","address":"서울특별시 용산구 한강대로 405(서울역사내, 선상통로 동자동)","jibunAddress":"","phone":"","foodType":"","mainFood":"","designatedDate":"2026-03-11","lat":37.542629087,"lng":126.972977622,"region":"서울특별시","source":"safefood","safeFoodGrade":"매우우수","safeFoodCertNo":"HG240001242"},{"id":"safefood-seoul-HG240001244","name":"정동소담김밥","address":"서울특별시 용산구 청파로 378(동자동, 43-227 서울역 지상2층 11번)","jibunAddress":"","phone":"","foodType":"","mainFood":"","designatedDate":"2026-03-11","lat":37.5541668,"lng":126.968483306,"region":"서울특별시","source":"safefood","safeFoodGrade":"매우우수","safeFoodCertNo":"HG240001244"},{"id":"safefood-seoul-HG220001427","name":"이디야커피 영등포역사점","address":"서울특별시 영등포구 경인로 846(영등포 민자역사 맞이방 지하1층 영등포동)","jibunAddress":"","phone":"","foodType":"","mainFood":"","designatedDate":"2026-03-10","lat":37.515625906,"lng":126.907526384,"region":"서울특별시","source":"safefood","safeFoodGrade":"매우우수","safeFoodCertNo":"HG220001427"},{"id":"safefood-seoul-HG240001560","name":"베케트(BECKETT)","address":"서울특별시 강남구 논현로 734(지상1층 논현동)","jibunAddress":"","phone":"","foodType":"","mainFood":"","designatedDate":"2026-03-18","lat":37.499000997,"lng":127.03835547,"region":"서울특별시","source":"safefood","safeFoodGrade":"매우우수","safeFoodCertNo":"HG240001560"},{"id":"safefood-seoul-HG240001562","name":"살롱 드 모비딕 BAR(SALON DE MOBYDICK BAR)","address":"서울특별시 강남구 논현로 734(지하2층,지상1층 논현동)","jibunAddress":"","phone":"","foodType":"","mainFood":"","designatedDate":"2026-03-18","lat":37.499000997,"lng":127.03835547,"region":"서울특별시","source":"safefood","safeFoodGrade":"매우우수","safeFoodCertNo":"HG240001562"},{"id":"safefood-seoul-HG240001561","name":"비앙드(VIANDE)","address":"서울특별시 강남구 도산대로30길 33-1(지하1층 논현동)","jibunAddress":"","phone":"","foodType":"","mainFood":"","designatedDate":"2026-03-18","lat":37.51843321067631,"lng":127.03010733587352,"region":"서울특별시","source":"safefood","safeFoodGrade":"매우우수","safeFoodCertNo":"HG240001561"},{"id":"safefood-seoul-HG260002468","name":"컬리너리스퀘어 바이 아워홈 하이밥 손수옥","address":"서울특별시 영등포구 국제금융로 10(서울국제금융센터 몰 지하3층 여의도동)","jibunAddress":"","phone":"","foodType":"","mainFood":"","designatedDate":"2026-03-12","lat":37.520872081,"lng":126.931298244,"region":"서울특별시","source":"safefood","safeFoodGrade":"매우우수","safeFoodCertNo":"HG260002468"},{"id":"safefood-seoul-HG260002365","name":"파리바게뜨","address":"서울특별시 도봉구 시루봉로 67(상가B동 104,105,106호 방학동, 청구아파트)","jibunAddress":"","phone":"","foodType":"","mainFood":"","designatedDate":"2026-03-12","lat":37.663692132,"lng":127.027543198,"region":"서울특별시","source":"safefood","safeFoodGrade":"우수","safeFoodCertNo":"HG260002365"},{"id":"safefood-seoul-HG260001527","name":"파리바게뜨","address":"서울특별시 서대문구 세검정로 52-1(홍제동,,266-151 1층1호,1층2호,1층3호)","jibunAddress":"","phone":"","foodType":"","mainFood":"","designatedDate":"2026-02-19","lat":37.593913574,"lng":126.947756218,"region":"서울특별시","source":"safefood","safeFoodGrade":"좋음","safeFoodCertNo":"HG260001527"},{"id":"safefood-seoul-HG260002467","name":"파리바게뜨 잠실 월드비전점","address":"서울특별시 송파구 백제고분로 127(다산해명빌딩 1층 잠실동)","jibunAddress":"","phone":"","foodType":"","mainFood":"","designatedDate":"2026-03-12","lat":37.504997286,"lng":127.084716591,"region":"서울특별시","source":"safefood","safeFoodGrade":"매우우수","safeFoodCertNo":"HG260002467"},{"id":"safefood-seoul-HG260001353","name":"파리바게뜨 올림픽","address":"서울특별시 송파구 양재대로 1222(2층 7호 방이동, 올림픽프라자 중심상가)","jibunAddress":"","phone":"","foodType":"","mainFood":"","designatedDate":"2026-02-10","lat":37.493810321,"lng":127.11289193,"region":"서울특별시","source":"safefood","safeFoodGrade":"우수","safeFoodCertNo":"HG260001353"},{"id":"safefood-seoul-HG260002015","name":"백억커피(가재울점)","address":"서울특별시 서대문구 수색로 34-14(1층 1호 남가좌동)","jibunAddress":"","phone":"","foodType":"","mainFood":"","designatedDate":"2026-03-10","lat":37.569482792,"lng":126.915574451,"region":"서울특별시","source":"safefood","safeFoodGrade":"매우우수","safeFoodCertNo":"HG260002015"},{"id":"safefood-seoul-HG220001909","name":"스타벅스커피 보라매대교 빌딩점","address":"서울특별시 관악구 보라매로3길 23(지상1층 봉천동, 대교눈높이보라매센터)","jibunAddress":"","phone":"","foodType":"","mainFood":"","designatedDate":"2026-03-25","lat":37.4916283438844,"lng":126.926302976249,"region":"서울특별시","source":"safefood","safeFoodGrade":"매우우수","safeFoodCertNo":"HG220001909"},{"id":"safefood-seoul-HG260002011","name":"배스킨라빈스 봉천역점","address":"서울특별시 관악구 남부순환로 1740(명당빌딩 1층 봉천동)","jibunAddress":"","phone":"","foodType":"","mainFood":"","designatedDate":"2026-03-10","lat":37.481539495,"lng":126.953662256,"region":"서울특별시","source":"safefood","safeFoodGrade":"매우우수","safeFoodCertNo":"HG260002011"},{"id":"safefood-seoul-HG240001310","name":"KFC 신금호역점","address":"서울특별시 성동구 무수막길 97(김약국 1층 금호동2가)","jibunAddress":"","phone":"","foodType":"","mainFood":"","designatedDate":"2026-03-11","lat":37.553679524,"lng":127.020109062,"region":"서울특별시","source":"safefood","safeFoodGrade":"매우우수","safeFoodCertNo":"HG240001310"},{"id":"safefood-seoul-HG260002008","name":"투썸플레이스 서대문웨스트게이트타워점","address":"서울특별시 서대문구 충정로 70(웨스트게이트타워 1~2층 미근동)","jibunAddress":"","phone":"","foodType":"","mainFood":"","designatedDate":"2026-03-10","lat":37.565021868,"lng":126.965663125,"region":"서울특별시","source":"safefood","safeFoodGrade":"매우우수","safeFoodCertNo":"HG260002008"},{"id":"safefood-seoul-HG260002004","name":"스타벅스 강동그란츠","address":"서울특별시 강동구 천호대로 1050(상가동 1층 1-6,1-7호 성내동, 그란츠 리버파크)","jibunAddress":"","phone":"","foodType":"","mainFood":"","designatedDate":"2026-03-10","lat":37.534231348,"lng":127.141612394,"region":"서울특별시","source":"safefood","safeFoodGrade":"매우우수","safeFoodCertNo":"HG260002004"},{"id":"safefood-seoul-HG260002003","name":"메가엠지씨커피 천호주꾸미골목점","address":"서울특별시 강동구 천호옛14길 27(1층 103호 성내동)","jibunAddress":"","phone":"","foodType":"","mainFood":"","designatedDate":"2026-03-10","lat":37.535875392,"lng":127.12717745,"region":"서울특별시","source":"safefood","safeFoodGrade":"우수","safeFoodCertNo":"HG260002003"},{"id":"safefood-seoul-HG260002128","name":"투썸플레이스 영등포문래점","address":"서울특별시 영등포구 선유로 70(우리벤처타운2 1층 106호 문래동3가)","jibunAddress":"","phone":"","foodType":"","mainFood":"","designatedDate":"2026-03-10","lat":37.534512618,"lng":126.897907091,"region":"서울특별시","source":"safefood","safeFoodGrade":"매우우수","safeFoodCertNo":"HG260002128"},{"id":"safefood-seoul-HG200000842","name":"스트릿 스퀘어점","address":"서울특별시 강남구 역삼로1길 17(지상1층 역삼동)","jibunAddress":"","phone":"","foodType":"","mainFood":"","designatedDate":"2026-03-19","lat":37.494390779,"lng":127.030588693,"region":"서울특별시","source":"safefood","safeFoodGrade":"매우우수","safeFoodCertNo":"HG200000842"},{"id":"safefood-seoul-HG260000969","name":"골든피스 롯데백화점 본점","address":"서울특별시 중구 남대문로 81(롯데백화점 본점 지하1층 소공동)","jibunAddress":"","phone":"","foodType":"","mainFood":"","designatedDate":"2026-01-29","lat":37.56277303,"lng":126.982241843,"region":"서울특별시","source":"safefood","safeFoodGrade":"매우우수","safeFoodCertNo":"HG260000969"},{"id":"safefood-seoul-HG260000968","name":"골든치즈 롯데백화점 명동점","address":"서울특별시 중구 남대문로 81(롯데백화점 본점 지하1층 일부호 소공동)","jibunAddress":"","phone":"","foodType":"","mainFood":"","designatedDate":"2026-01-29","lat":37.56277303,"lng":126.982241843,"region":"서울특별시","source":"safefood","safeFoodGrade":"매우우수","safeFoodCertNo":"HG260000968"},{"id":"safefood-seoul-HG260002361","name":"불닭발땡초동대문엽기떡볶이대치점","address":"서울특별시 강남구 선릉로 340(대치 EM 프라자 지상1층 103호 대치동)","jibunAddress":"","phone":"","foodType":"","mainFood":"","designatedDate":"2026-03-12","lat":37.516688309,"lng":127.041803503,"region":"서울특별시","source":"safefood","safeFoodGrade":"매우우수","safeFoodCertNo":"HG260002361"},{"id":"safefood-seoul-HG240001119","name":"주식회사 뱅뱅막국수","address":"서울특별시 강남구 도곡로 112(서한빌딩 지상1층 103호 도곡동)","jibunAddress":"","phone":"","foodType":"","mainFood":"","designatedDate":"2026-03-04","lat":37.497397786,"lng":127.057134011,"region":"서울특별시","source":"safefood","safeFoodGrade":"매우우수","safeFoodCertNo":"HG240001119"},{"id":"safefood-seoul-HG250002074","name":"(주)학산 테라로사커피 양재역지점","address":"서울특별시 서초구 강남대로 206(1층 105호,106호 양재동)","jibunAddress":"","phone":"","foodType":"","mainFood":"","designatedDate":"2025-03-12","lat":37.482352495,"lng":127.035602105,"region":"서울특별시","source":"safefood","safeFoodGrade":"매우우수","safeFoodCertNo":"HG250002074"},{"id":"safefood-seoul-HG260002466","name":"피자몰NC 송파점","address":"서울특별시 송파구 충민로 66(가든파이브라이프 NC백화점 영관2층 푸트코트 내 문정동)","jibunAddress":"","phone":"","foodType":"","mainFood":"","designatedDate":"2026-03-12","lat":37.480085659,"lng":127.119170691,"region":"서울특별시","source":"safefood","safeFoodGrade":"매우우수","safeFoodCertNo":"HG260002466"},{"id":"safefood-seoul-HG240002170","name":"뽁 역삼센터필드점","address":"서울특별시 강남구 테헤란로 231(센터필드 지하2층 WB50호 역삼동)","jibunAddress":"","phone":"","foodType":"","mainFood":"","designatedDate":"2026-04-03","lat":37.509174478,"lng":127.060625246,"region":"서울특별시","source":"safefood","safeFoodGrade":"매우우수","safeFoodCertNo":"HG240002170"},{"id":"safefood-seoul-HG260002359","name":"스타벅스 쌍문","address":"서울특별시 도봉구 도봉로 494(국민은행 1층 창동)","jibunAddress":"","phone":"","foodType":"","mainFood":"","designatedDate":"2026-03-12","lat":37.68646706,"lng":127.045654148,"region":"서울특별시","source":"safefood","safeFoodGrade":"매우우수","safeFoodCertNo":"HG260002359"},{"id":"safefood-seoul-HG200000971","name":"폴 바셋 롯데몰 은평점","address":"서울특별시 은평구 통일로 1050(진관동, 롯데몰 은평점 1층27호)","jibunAddress":"","phone":"","foodType":"","mainFood":"","designatedDate":"2026-03-25","lat":37.610211107,"lng":126.929726063,"region":"서울특별시","source":"safefood","safeFoodGrade":"매우우수","safeFoodCertNo":"HG200000971"},{"id":"safefood-seoul-HG200000952","name":"폴바셋MBC몰파크점","address":"서울특별시 마포구 성암로 267(상암동, 주문화방송 1층일부,2층일부)","jibunAddress":"","phone":"","foodType":"","mainFood":"","designatedDate":"2026-03-25","lat":37.581109044,"lng":126.891088135,"region":"서울특별시","source":"safefood","safeFoodGrade":"매우우수","safeFoodCertNo":"HG200000952"},{"id":"safefood-seoul-HG260000207","name":"파리바게뜨도곡렉슬점","address":"서울특별시 강남구 선릉로 225(1층 108-2호 도곡동, 렉슬상가)","jibunAddress":"","phone":"","foodType":"","mainFood":"","designatedDate":"2026-01-12","lat":37.516688309,"lng":127.041803503,"region":"서울특별시","source":"safefood","safeFoodGrade":"우수","safeFoodCertNo":"HG260000207"},{"id":"safefood-seoul-HG220001839","name":"스타벅스합정메세나몰","address":"서울특별시 마포구 양화로 45(서교동, 메세나폴리스 B1층 161~165호)","jibunAddress":"","phone":"","foodType":"","mainFood":"","designatedDate":"2026-03-23","lat":37.553820115,"lng":126.920237067,"region":"서울특별시","source":"safefood","safeFoodGrade":"매우우수","safeFoodCertNo":"HG220001839"},{"id":"safefood-seoul-HG260001993","name":"버거킹 노량진역점","address":"서울특별시 동작구 노량진로 154-1(1층, 2층, 3층 노량진동)","jibunAddress":"","phone":"","foodType":"","mainFood":"","designatedDate":"2026-03-10","lat":37.512952578,"lng":126.92892591,"region":"서울특별시","source":"safefood","safeFoodGrade":"매우우수","safeFoodCertNo":"HG260001993"},{"id":"safefood-seoul-HG260002125","name":"스타벅스 면목역점","address":"서울특별시 중랑구 면목로 403(1층 면목동)","jibunAddress":"","phone":"","foodType":"","mainFood":"","designatedDate":"2026-03-10","lat":37.579259414,"lng":127.08726848,"region":"서울특별시","source":"safefood","safeFoodGrade":"매우우수","safeFoodCertNo":"HG260002125"},{"id":"safefood-seoul-HG240001262","name":"리미니 NC구로점","address":"서울특별시 구로구 구로중앙로 152(NC백화점 6층 구로동)","jibunAddress":"","phone":"","foodType":"","mainFood":"","designatedDate":"2026-03-11","lat":37.494570806,"lng":126.88898573,"region":"서울특별시","source":"safefood","safeFoodGrade":"매우우수","safeFoodCertNo":"HG240001262"},{"id":"safefood-seoul-HG260002123","name":"한솥도시락 독산역점","address":"서울특별시 금천구 가산디지털1로 1(더루벤스밸리 1층 106호 가산동)","jibunAddress":"","phone":"","foodType":"","mainFood":"","designatedDate":"2026-03-10","lat":37.472309436,"lng":126.886109978,"region":"서울특별시","source":"safefood","safeFoodGrade":"매우우수","safeFoodCertNo":"HG260002123"},{"id":"safefood-seoul-HG260002357","name":"KFC서울교대S","address":"서울특별시 서초구 서초중앙로 99(서교빌딩 1층 서초동)","jibunAddress":"","phone":"","foodType":"","mainFood":"","designatedDate":"2026-03-12","lat":37.498406983,"lng":127.012895433,"region":"서울특별시","source":"safefood","safeFoodGrade":"매우우수","safeFoodCertNo":"HG260002357"},{"id":"safefood-seoul-HG260002478","name":"(주)에스앤에스컴퍼니 보글 타임스퀘어점","address":"서울특별시 영등포구 영중로 15(타임스퀘어 4층 415-0호 영등포동4가)","jibunAddress":"","phone":"","foodType":"","mainFood":"","designatedDate":"2026-03-12","lat":37.517195711,"lng":126.903646105,"region":"서울특별시","source":"safefood","safeFoodGrade":"매우우수","safeFoodCertNo":"HG260002478"},{"id":"safefood-seoul-HG260002356","name":"노모어피자 신도림점","address":"서울특별시 구로구 경인로 625(힐스테이트 신도림역 센트럴 1층 113호 신도림동)","jibunAddress":"","phone":"","foodType":"","mainFood":"","designatedDate":"2026-03-12","lat":37.496830159,"lng":126.846239505,"region":"서울특별시","source":"safefood","safeFoodGrade":"매우우수","safeFoodCertNo":"HG260002356"},{"id":"safefood-seoul-HG240001414","name":"크리스피크림  롯데청량리점","address":"서울특별시 동대문구 왕산로 214(지하2층 전농동, 롯데백화점)","jibunAddress":"","phone":"","foodType":"","mainFood":"","designatedDate":"2026-03-13","lat":37.583076691,"lng":127.049315849,"region":"서울특별시","source":"safefood","safeFoodGrade":"매우우수","safeFoodCertNo":"HG240001414"},{"id":"safefood-seoul-HG240002238","name":"배스킨라빈스 강남구청역점","address":"서울특별시 강남구 학동로 342(에스케이 허브블루 지상1층 102호 논현동)","jibunAddress":"","phone":"","foodType":"","mainFood":"","designatedDate":"2026-04-04","lat":37.512835234,"lng":127.028259085,"region":"서울특별시","source":"safefood","safeFoodGrade":"매우우수","safeFoodCertNo":"HG240002238"},{"id":"safefood-seoul-HG240001862","name":"주식회사설빙건대지점","address":"서울특별시 광진구 아차산로 225(단산화빌딩 2층 화양동)","jibunAddress":"","phone":"","foodType":"","mainFood":"","designatedDate":"2026-03-26","lat":37.539397079,"lng":127.092382448,"region":"서울특별시","source":"safefood","safeFoodGrade":"우수","safeFoodCertNo":"HG240001862"},{"id":"safefood-seoul-HG200000989","name":"베스킨라빈스 롯데몰 은평점","address":"서울특별시 은평구 통일로 1050(진관동, 롯데몰 은평점 지하1층)","jibunAddress":"","phone":"","foodType":"","mainFood":"","designatedDate":"2026-03-25","lat":37.610211107,"lng":126.929726063,"region":"서울특별시","source":"safefood","safeFoodGrade":"매우우수","safeFoodCertNo":"HG200000989"},{"id":"safefood-seoul-HG240001185","name":"투썸플레이스 신정역점","address":"서울특별시 양천구 오목로 147(1층 105~107호 신정동, 제이클래스목동주상복합)","jibunAddress":"","phone":"","foodType":"","mainFood":"","designatedDate":"2026-03-05","lat":37.522309452,"lng":126.844066329,"region":"서울특별시","source":"safefood","safeFoodGrade":"매우우수","safeFoodCertNo":"HG240001185"},{"id":"safefood-seoul-HG260002465","name":"육회바른연어 왕십리점","address":"서울특별시 성동구 왕십리로 287-1(장원이불수예 1층 행당동)","jibunAddress":"","phone":"","foodType":"","mainFood":"","designatedDate":"2026-03-12","lat":37.543035682,"lng":127.045024923,"region":"서울특별시","source":"safefood","safeFoodGrade":"매우우수","safeFoodCertNo":"HG260002465"},{"id":"safefood-seoul-HG260002429","name":"갤러리카페(Gallery cafe) NY","address":"서울특별시 중구 장충단로13길 20(9층 을지로6가)","jibunAddress":"","phone":"","foodType":"","mainFood":"","designatedDate":"2026-03-12","lat":37.56870764,"lng":127.007653116,"region":"서울특별시","source":"safefood","safeFoodGrade":"매우우수","safeFoodCertNo":"HG260002429"},{"id":"safefood-seoul-HG260002428","name":"스시덴고쿠 동대문현대아울렛점","address":"서울특별시 중구 장충단로13길 20(지하2층 을지로6가)","jibunAddress":"","phone":"","foodType":"","mainFood":"","designatedDate":"2026-03-12","lat":37.56870764,"lng":127.007653116,"region":"서울특별시","source":"safefood","safeFoodGrade":"매우우수","safeFoodCertNo":"HG260002428"},{"id":"safefood-seoul-HG200000840","name":"베라나폴리","address":"서울특별시 용산구 이태원로 272(한남동, 729-74 지상3층)","jibunAddress":"","phone":"","foodType":"","mainFood":"","designatedDate":"2026-03-19","lat":37.536843959,"lng":127.000178101,"region":"서울특별시","source":"safefood","safeFoodGrade":"매우우수","safeFoodCertNo":"HG200000840"},{"id":"safefood-seoul-HG220002033","name":"할리스 신촌점","address":"서울특별시 서대문구 연세로 34(1~3층 창천동)","jibunAddress":"","phone":"","foodType":"","mainFood":"","designatedDate":"2026-03-30","lat":37.557414234,"lng":126.93672772,"region":"서울특별시","source":"safefood","safeFoodGrade":"매우우수","safeFoodCertNo":"HG220002033"},{"id":"safefood-seoul-HG220001969","name":"할리스 세로수길점","address":"서울특별시 강남구 강남대로152길 41(지하1~지상4층 신사동)","jibunAddress":"","phone":"","foodType":"","mainFood":"","designatedDate":"2026-03-29","lat":37.517149971,"lng":127.020699299,"region":"서울특별시","source":"safefood","safeFoodGrade":"매우우수","safeFoodCertNo":"HG220001969"},{"id":"safefood-seoul-HG200000985","name":"할리스 목동점","address":"서울특별시 양천구 목동서로 159-1(지상1,2층 목동, CBS빌딩)","jibunAddress":"","phone":"","foodType":"","mainFood":"","designatedDate":"2026-03-25","lat":37.52801959,"lng":126.870616002,"region":"서울특별시","source":"safefood","safeFoodGrade":"매우우수","safeFoodCertNo":"HG200000985"},{"id":"safefood-seoul-HG260001982","name":"삼송빵집 현대시티아울렛 동대문점","address":"서울특별시 중구 장충단로13길 20(지하2층 을지로6가)","jibunAddress":"","phone":"","foodType":"","mainFood":"","designatedDate":"2026-03-10","lat":37.56870764,"lng":127.007653116,"region":"서울특별시","source":"safefood","safeFoodGrade":"매우우수","safeFoodCertNo":"HG260001982"},{"id":"safefood-seoul-HG260002349","name":"샤브보트R 신촌점","address":"서울특별시 서대문구 신촌로 109(신촌르메이에르타운5 1층 103-1호 창천동)","jibunAddress":"","phone":"","foodType":"","mainFood":"","designatedDate":"2026-03-12","lat":37.556524282,"lng":126.934062043,"region":"서울특별시","source":"safefood","safeFoodGrade":"우수","safeFoodCertNo":"HG260002349"},{"id":"safefood-seoul-HG240002253","name":"김씨마구로 프리미어","address":"서울특별시 강남구 테헤란로 231(센터필드 지하1층 EG01호 역삼동)","jibunAddress":"","phone":"","foodType":"","mainFood":"","designatedDate":"2026-04-04","lat":37.509174478,"lng":127.060625246,"region":"서울특별시","source":"safefood","safeFoodGrade":"좋음","safeFoodCertNo":"HG240002253"},{"id":"safefood-seoul-HG260002347","name":"스타벅스 마포역뉴매드점","address":"서울특별시 마포구 마포대로 26(1층 103,104호 마포동)","jibunAddress":"","phone":"","foodType":"","mainFood":"","designatedDate":"2026-03-12","lat":37.541342187,"lng":126.948897481,"region":"서울특별시","source":"safefood","safeFoodGrade":"매우우수","safeFoodCertNo":"HG260002347"},