[{"id":"safefood-gyeongnam-HG260003200","name":"롯데리아진해장천점","address":"경상남도 창원시 진해구 충장로657번길 28(1층 110호 장천동)","jibunAddress":"","phone":"","foodType":"","mainFood":"","designatedDate":"2026-04-03","lat":35.14443217531215,"lng":128.67158887020904,"region":"경상남도","source":"safefood","safeFoodGrade":"적합","safeFoodCertNo":"HG260003200"},{"id":"safefood-gyeongnam-HG240002293","name":"하이오커피 석동점","address":"경상남도 창원시 진해구 석동로 73(1층 중간호 석동)","jibunAddress":"","phone":"","foodType":"","mainFood":"","designatedDate":"2026-04-05","lat":35.14443217531215,"lng":128.67158887020904,"region":"경상남도","source":"safefood","safeFoodGrade":"적합","safeFoodCertNo":"HG240002293"},{"id":"safefood-gyeongnam-HG260003199","name":"파스쿠찌진해연세에스병원점","address":"경상남도 창원시 진해구 동진로11번길 7(1층 일부호 이동)","jibunAddress":"","phone":"","foodType":"","mainFood":"","designatedDate":"2026-04-03","lat":35.14443217531215,"lng":128.67158887020904,"region":"경상남도","source":"safefood","safeFoodGrade":"적합","safeFoodCertNo":"HG260003199"},{"id":"safefood-gyeongnam-HG220002060","name":"한국맥도날드(유)창원상남점","address":"경상남도 창원시 성산구 단정로 22(상남동, 더센텀빌딩 105호)","jibunAddress":"","phone":"","foodType":"","mainFood":"","designatedDate":"2026-03-31","lat":35.222440649,"lng":128.676636652,"region":"경상남도","source":"safefood","safeFoodGrade":"적합","safeFoodCertNo":"HG220002060"},{"id":"safefood-gyeongnam-HG260002763","name":"컴포즈커피 대원꿈에그린점","address":"경상남도 창원시 성산구 창원천로 34(121동 110호 대원동, 대원 꿈에그린)","jibunAddress":"","phone":"","foodType":"","mainFood":"","designatedDate":"2026-03-24","lat":35.222440649,"lng":128.676636652,"region":"경상남도","source":"safefood","safeFoodGrade":"적합","safeFoodCertNo":"HG260002763"},{"id":"safefood-gyeongnam-HG240002188","name":"(주)이랜드이츠 애슐리퀸즈 뉴코아 창원점2","address":"경상남도 창원시 의창구 창원대로397번길 6(뉴코아아울렛 6층 6006호 팔용동)","jibunAddress":"","phone":"","foodType":"","mainFood":"","designatedDate":"2026-04-03","lat":35.26458553,"lng":128.621168894,"region":"경상남도","source":"safefood","safeFoodGrade":"적합","safeFoodCertNo":"HG240002188"},{"id":"safefood-gyeongnam-HG240002187","name":"(주)이랜드이츠 애슐리퀸즈 뉴코아 창원점1","address":"경상남도 창원시 의창구 창원대로397번길 6(뉴코아아울렛 6층 6003,6003-1,6004,6004-1호 팔용동)","jibunAddress":"","phone":"","foodType":"","mainFood":"","designatedDate":"2026-04-03","lat":35.26458553,"lng":128.621168894,"region":"경상남도","source":"safefood","safeFoodGrade":"적합","safeFoodCertNo":"HG240002187"},{"id":"safefood-gyeongnam-HG240002074","name":"리미니 뉴코아창원점","address":"경상남도 창원시 의창구 창원대로397번길 6(뉴코아아울렛 6층 6009호 팔용동)","jibunAddress":"","phone":"","foodType":"","mainFood":"","designatedDate":"2026-04-03","lat":35.26458553,"lng":128.621168894,"region":"경상남도","source":"safefood","safeFoodGrade":"적합","safeFoodCertNo":"HG240002074"},{"id":"safefood-gyeongnam-HG240002018","name":"(주)이랜드이츠 애슐리퀸즈 뉴코아 창원점3","address":"경상남도 창원시 의창구 창원대로397번길 6(뉴코아아울렛 6층 6007,6007-1,6007-2호 팔용동)","jibunAddress":"","phone":"","foodType":"","mainFood":"","designatedDate":"2026-04-03","lat":35.26458553,"lng":128.621168894,"region":"경상남도","source":"safefood","safeFoodGrade":"적합","safeFoodCertNo":"HG240002018"},{"id":"safefood-gyeongnam-HG260002828","name":"홍록등","address":"경상남도 창원시 의창구 천주로12번길 45(1층 전체, 2층 일부 중동)","jibunAddress":"","phone":"","foodType":"","mainFood":"","designatedDate":"2026-03-26","lat":35.26458553,"lng":128.621168894,"region":"경상남도","source":"safefood","safeFoodGrade":"적합","safeFoodCertNo":"HG260002828"},{"id":"safefood-gyeongnam-HG220001916","name":"떡볶이참잘하는집떡참창원도계점","address":"경상남도 창원시 의창구 태복산로31번길 40(1층 일부 도계동)","jibunAddress":"","phone":"","foodType":"","mainFood":"","designatedDate":"2026-03-28","lat":35.26458553,"lng":128.621168894,"region":"경상남도","source":"safefood","safeFoodGrade":"적합","safeFoodCertNo":"HG220001916"},{"id":"safefood-gyeongnam-HG260002647","name":"챕터","address":"경상남도 창원시 의창구 천주로12번길 43(1층 전체, 2층 일부 중동)","jibunAddress":"","phone":"","foodType":"","mainFood":"","designatedDate":"2026-03-20","lat":35.26458553,"lng":128.621168894,"region":"경상남도","source":"safefood","safeFoodGrade":"적합","safeFoodCertNo":"HG260002647"},{"id":"safefood-gyeongnam-HG260002834","name":"하삼동커피 창녕영산점","address":"경상남도 창녕군 영산면 서리상촌길 321","jibunAddress":"","phone":"","foodType":"","mainFood":"","designatedDate":"2026-03-26","lat":35.456059564,"lng":128.52724724,"region":"경상남도","source":"safefood","safeFoodGrade":"적합","safeFoodCertNo":"HG260002834"},{"id":"safefood-gyeongnam-HG260002833","name":"네네치킨남지점","address":"경상남도 창녕군 남지읍 남지중앙2길 69","jibunAddress":"","phone":"","foodType":"","mainFood":"","designatedDate":"2026-03-26","lat":35.386075098,"lng":128.478299027,"region":"경상남도","source":"safefood","safeFoodGrade":"적합","safeFoodCertNo":"HG260002833"},{"id":"safefood-gyeongnam-HG260002983","name":"컴포즈커피 가촌점","address":"경상남도 양산시 물금읍 가촌서로 14(1층 일부 제2동)","jibunAddress":"","phone":"","foodType":"","mainFood":"","designatedDate":"2026-03-30","lat":35.3268002893287,"lng":129.011151832235,"region":"경상남도","source":"safefood","safeFoodGrade":"적합","safeFoodCertNo":"HG260002983"},{"id":"safefood-gyeongnam-HG220002043","name":"배스킨라빈스 양산북정점","address":"경상남도 양산시 중앙로 313-1(1층 일부 북정동)","jibunAddress":"","phone":"","foodType":"","mainFood":"","designatedDate":"2026-03-31","lat":35.356555053,"lng":129.042629719,"region":"경상남도","source":"safefood","safeFoodGrade":"적합","safeFoodCertNo":"HG220002043"},{"id":"safefood-gyeongnam-HG260002648","name":"케이에프씨(KFC) 양산물금점","address":"경상남도 양산시 물금읍 황산로 527(1층 일부호)","jibunAddress":"","phone":"","foodType":"","mainFood":"","designatedDate":"2026-03-20","lat":35.3268002893287,"lng":129.011151832235,"region":"경상남도","source":"safefood","safeFoodGrade":"적합","safeFoodCertNo":"HG260002648"},{"id":"safefood-gyeongnam-HG260003057","name":"교촌치킨 중곡점","address":"경상남도 거제시 중곡로3길 48(주1동 1층 고현동)","jibunAddress":"","phone":"","foodType":"","mainFood":"","designatedDate":"2026-04-01","lat":34.894185725,"lng":128.626377698,"region":"경상남도","source":"safefood","safeFoodGrade":"적합","safeFoodCertNo":"HG260003057"},{"id":"safefood-gyeongnam-HG260003056","name":"교촌치킨 수양점","address":"경상남도 거제시 수양로 456-10(1층 수월동)","jibunAddress":"","phone":"","foodType":"","mainFood":"","designatedDate":"2026-04-01","lat":34.893098061,"lng":128.64157562,"region":"경상남도","source":"safefood","safeFoodGrade":"적합","safeFoodCertNo":"HG260003056"},{"id":"safefood-gyeongnam-HG260002829","name":"1953 형제돼지국밥 벨버디어점","address":"경상남도 거제시 장목면 거제북로 2501-40(한화리조트 거제 벨버디어 지하1층)","jibunAddress":"","phone":"","foodType":"","mainFood":"","designatedDate":"2026-03-26","lat":34.939506136,"lng":128.7176748,"region":"경상남도","source":"safefood","safeFoodGrade":"적합","safeFoodCertNo":"HG260002829"},{"id":"safefood-gyeongnam-HG230003636","name":"오스테리아사르데냐","address":"경상남도 거제시 장목면 거제북로 2501-40(한화리조트 거제 벨버디어 지하2층)","jibunAddress":"","phone":"","foodType":"","mainFood":"","designatedDate":"2025-06-15","lat":34.939506136,"lng":128.7176748,"region":"경상남도","source":"safefood","safeFoodGrade":"매우우수","safeFoodCertNo":"HG230003636"},{"id":"safefood-gyeongnam-HG190000981","name":"엘플로어","address":"경상남도 거제시 장목면 거제북로 2501-40(한화리조트 거제 벨버디어 16,17층)","jibunAddress":"","phone":"","foodType":"","mainFood":"","designatedDate":"2025-08-29","lat":34.939506136,"lng":128.7176748,"region":"경상남도","source":"safefood","safeFoodGrade":"매우우수","safeFoodCertNo":"HG190000981"},{"id":"safefood-gyeongnam-HG260002838","name":"파리바게트 사천시청점","address":"경상남도 사천시 용현면 대밭담로 5-9","jibunAddress":"","phone":"","foodType":"","mainFood":"","designatedDate":"2026-03-26","lat":35.007411078,"lng":128.064062004,"region":"경상남도","source":"safefood","safeFoodGrade":"적합","safeFoodCertNo":"HG260002838"},{"id":"safefood-gyeongnam-HG260002837","name":"이디야사천선진점","address":"경상남도 사천시 용현면 진삼로 953-6(1동)","jibunAddress":"","phone":"","foodType":"","mainFood":"","designatedDate":"2026-03-26","lat":35.007411078,"lng":128.064062004,"region":"경상남도","source":"safefood","safeFoodGrade":"적합","safeFoodCertNo":"HG260002837"},{"id":"safefood-gyeongnam-HG260003197","name":"어반 어부의한상","address":"경상남도 통영시 광도면 죽림해안로 134(201호)","jibunAddress":"","phone":"","foodType":"","mainFood":"","designatedDate":"2026-04-03","lat":34.886145823,"lng":128.418824469,"region":"경상남도","source":"safefood","safeFoodGrade":"적합","safeFoodCertNo":"HG260003197"},{"id":"safefood-gyeongnam-HG260003196","name":"왓더버거무전점","address":"경상남도 통영시 무전대로 21(1층 101호 무전동)","jibunAddress":"","phone":"","foodType":"","mainFood":"","designatedDate":"2026-04-03","lat":34.860394311,"lng":128.425610652,"region":"경상남도","source":"safefood","safeFoodGrade":"적합","safeFoodCertNo":"HG260003196"},{"id":"safefood-gyeongnam-HG260003151","name":"하삼동커피통영중앙시장점","address":"경상남도 통영시 통영해안로 341(1층 왼쪽호 중앙동)","jibunAddress":"","phone":"","foodType":"","mainFood":"","designatedDate":"2026-04-02","lat":34.841051305,"lng":128.420442434,"region":"경상남도","source":"safefood","safeFoodGrade":"적합","safeFoodCertNo":"HG260003151"},{"id":"safefood-gyeongnam-HG260003150","name":"컴포즈통영동피랑점","address":"경상남도 통영시 통영해안로 347(1층 중앙동)","jibunAddress":"","phone":"","foodType":"","mainFood":"","designatedDate":"2026-04-02","lat":34.841051305,"lng":128.420442434,"region":"경상남도","source":"safefood","safeFoodGrade":"적합","safeFoodCertNo":"HG260003150"},{"id":"safefood-gyeongnam-HG240001907","name":"한국맥도날드(유)통영죽림DT점","address":"경상남도 통영시 광도면 죽림4로 36","jibunAddress":"","phone":"","foodType":"","mainFood":"","designatedDate":"2026-03-27","lat":34.886145823,"lng":128.418824469,"region":"경상남도","source":"safefood","safeFoodGrade":"적합","safeFoodCertNo":"HG240001907"},{"id":"safefood-gyeongnam-HG250001929","name":"베스킨라빈스인제대점","address":"경상남도 김해시 인제로 185(어방동)","jibunAddress":"","phone":"","foodType":"","mainFood":"","designatedDate":"2025-03-10","lat":35.236834926,"lng":128.904170991,"region":"경상남도","source":"safefood","safeFoodGrade":"매우우수","safeFoodCertNo":"HG250001929"},{"id":"safefood-gyeongnam-HG250634992","name":"별국수 마산로봇랜드점","address":"경상남도 창원시 마산합포구 구산면 로봇랜드로 250(식음카트 5호)","jibunAddress":"","phone":"","foodType":"","mainFood":"","designatedDate":"2025-06-20","lat":35.187469394,"lng":128.560855079,"region":"경상남도","source":"safefood","safeFoodGrade":"매우우수","safeFoodCertNo":"HG250634992"},{"id":"safefood-gyeongnam-HG260002187","name":"꼬숩당땅콩빵","address":"경상남도 통영시 광도면 죽림2로 75(에버그린빌딩 1층 101-2호)","jibunAddress":"","phone":"","foodType":"","mainFood":"","designatedDate":"2026-03-10","lat":34.886145823,"lng":128.418824469,"region":"경상남도","source":"safefood","safeFoodGrade":"매우우수","safeFoodCertNo":"HG260002187"},{"id":"safefood-gyeongnam-HG250002807","name":"로띠번 밀양(울산)","address":"경상남도 밀양시 무안면 함양울산고속도로 88","jibunAddress":"","phone":"","foodType":"","mainFood":"","designatedDate":"2025-03-28","lat":35.470268366,"lng":128.651359094,"region":"경상남도","source":"safefood","safeFoodGrade":"매우우수","safeFoodCertNo":"HG250002807"},{"id":"safefood-gyeongnam-HG260002165","name":"컴포즈커피 석전KS마트점","address":"경상남도 창원시 마산회원구 북성로 262(1층 석전동)","jibunAddress":"","phone":"","foodType":"","mainFood":"","designatedDate":"2026-03-10","lat":35.230872174,"lng":128.577452822,"region":"경상남도","source":"safefood","safeFoodGrade":"매우우수","safeFoodCertNo":"HG260002165"},{"id":"safefood-gyeongnam-HG190000312","name":"풀무원식품주식회사 영산휴게소(라면우동전문점)","address":"경상남도 창녕군 영산면 장척호수길 56-110","jibunAddress":"","phone":"","foodType":"","mainFood":"","designatedDate":"2025-05-08","lat":35.456059564,"lng":128.52724724,"region":"경상남도","source":"safefood","safeFoodGrade":"매우우수","safeFoodCertNo":"HG190000312"},{"id":"safefood-gyeongnam-HG190000311","name":"풀무원식품 주식회사 영산휴게소 양식코너","address":"경상남도 창녕군 영산면 장척호수길 56-110(영산휴게소)","jibunAddress":"","phone":"","foodType":"","mainFood":"","designatedDate":"2025-05-08","lat":35.456059564,"lng":128.52724724,"region":"경상남도","source":"safefood","safeFoodGrade":"매우우수","safeFoodCertNo":"HG190000311"},{"id":"safefood-gyeongnam-HG190000310","name":"풀무원식품(주)영산휴게소 한식당","address":"경상남도 창녕군 영산면 장척호수길 56-110","jibunAddress":"","phone":"","foodType":"","mainFood":"","designatedDate":"2025-05-08","lat":35.456059564,"lng":128.52724724,"region":"경상남도","source":"safefood","safeFoodGrade":"매우우수","safeFoodCertNo":"HG190000310"},{"id":"safefood-gyeongnam-HG260002080","name":"불닭발땡초동대문엽기떡볶이 진주대안점","address":"경상남도 진주시 진주대로 1071(1층 대안동)","jibunAddress":"","phone":"","foodType":"","mainFood":"","designatedDate":"2026-03-10","lat":35.193976,"lng":128.060696,"region":"경상남도","source":"safefood","safeFoodGrade":"매우우수","safeFoodCertNo":"HG260002080"},{"id":"safefood-gyeongnam-HG250634368","name":"한평반라운지","address":"경상남도 통영시 도남로 195(통영리스타트플랫폼 2층 도남동)","jibunAddress":"","phone":"","foodType":"","mainFood":"","designatedDate":"2025-06-09","lat":34.826678867,"lng":128.432413778,"region":"경상남도","source":"safefood","safeFoodGrade":"매우우수","safeFoodCertNo":"HG250634368"},{"id":"safefood-gyeongnam-HG260002043","name":"본죽 마산MH연세병원점","address":"경상남도 창원시 마산합포구 문화동3길 2(월남동2가,외 1필지 지상1층)","jibunAddress":"","phone":"","foodType":"","mainFood":"","designatedDate":"2026-03-10","lat":35.187469394,"lng":128.560855079,"region":"경상남도","source":"safefood","safeFoodGrade":"매우우수","safeFoodCertNo":"HG260002043"},{"id":"safefood-gyeongnam-HG220001584","name":"호식이두마리치킨사남점","address":"경상남도 사천시 사남면 월성1길 104","jibunAddress":"","phone":"","foodType":"","mainFood":"","designatedDate":"2026-03-16","lat":35.067695923,"lng":128.07612216,"region":"경상남도","source":"safefood","safeFoodGrade":"매우우수","safeFoodCertNo":"HG220001584"},{"id":"safefood-gyeongnam-HG220001809","name":"카페 채홍","address":"경상남도 거제시 일운면 옥림길 141(1층)","jibunAddress":"","phone":"","foodType":"","mainFood":"","designatedDate":"2026-03-23","lat":34.813620799,"lng":128.705223552,"region":"경상남도","source":"safefood","safeFoodGrade":"매우우수","safeFoodCertNo":"HG220001809"},{"id":"safefood-gyeongnam-HG220001575","name":"맘스터치 창선점","address":"경상남도 남해군 창선면 동부대로 2807-3","jibunAddress":"","phone":"","foodType":"","mainFood":"","designatedDate":"2026-03-16","lat":34.916109429,"lng":128.02923344,"region":"경상남도","source":"safefood","safeFoodGrade":"매우우수","safeFoodCertNo":"HG220001575"},{"id":"safefood-gyeongnam-HG240001693","name":"EDIYA COFFEE 밀양삼랑진점","address":"경상남도 밀양시 삼랑진읍 천태로 12(1층)","jibunAddress":"","phone":"","foodType":"","mainFood":"","designatedDate":"2026-03-20","lat":35.426421909,"lng":128.899666269,"region":"경상남도","source":"safefood","safeFoodGrade":"매우우수","safeFoodCertNo":"HG240001693"},{"id":"safefood-gyeongnam-HG250643069","name":"컴포즈 창원썬앤빌점","address":"경상남도 창원시 의창구 용동로 45(G동 지하1층 L101호 사림동)","jibunAddress":"","phone":"","foodType":"","mainFood":"","designatedDate":"2025-12-16","lat":35.26458553,"lng":128.621168894,"region":"경상남도","source":"safefood","safeFoodGrade":"매우우수","safeFoodCertNo":"HG250643069"},{"id":"safefood-gyeongnam-HG220001587","name":"파파존스피자창원상남점","address":"경상남도 창원시 성산구 마디미로3번길 17(2층 201호 상남동)","jibunAddress":"","phone":"","foodType":"","mainFood":"","designatedDate":"2026-03-16","lat":35.222440649,"lng":128.676636652,"region":"경상남도","source":"safefood","safeFoodGrade":"매우우수","safeFoodCertNo":"HG220001587"},{"id":"safefood-gyeongnam-HG260001352","name":"이디야거창대동점","address":"경상남도 거창군 거창읍 강변로 287(1층)","jibunAddress":"","phone":"","foodType":"","mainFood":"","designatedDate":"2026-02-10","lat":35.683323016,"lng":127.912800945,"region":"경상남도","source":"safefood","safeFoodGrade":"매우우수","safeFoodCertNo":"HG260001352"},{"id":"safefood-gyeongnam-HG260002124","name":"미분당사천점","address":"경상남도 사천시 사천읍 진삼로 1413","jibunAddress":"","phone":"","foodType":"","mainFood":"","designatedDate":"2026-03-10","lat":35.08094715,"lng":128.089387786,"region":"경상남도","source":"safefood","safeFoodGrade":"매우우수","safeFoodCertNo":"HG260002124"},{"id":"safefood-gyeongnam-HG260001580","name":"투썸플레이스(Twosomeplace) 경남남해점","address":"경상남도 남해군 남해읍 스포츠로 12-1","jibunAddress":"","phone":"","foodType":"","mainFood":"","designatedDate":"2026-02-20","lat":34.837285294,"lng":127.895073297,"region":"경상남도","source":"safefood","safeFoodGrade":"우수","safeFoodCertNo":"HG260001580"},{"id":"safefood-gyeongnam-HG260002121","name":"가배목림","address":"경상남도 창원시 의창구 북면 감계로187번길 9(근린생활시설동 지하1층 106,107호 창원 포레힐스 데시앙)","jibunAddress":"","phone":"","foodType":"","mainFood":"","designatedDate":"2026-03-10","lat":35.26458553,"lng":128.621168894,"region":"경상남도","source":"safefood","safeFoodGrade":"매우우수","safeFoodCertNo":"HG260002121"},{"id":"safefood-gyeongnam-HG260001969","name":"드롭탑커피(DROPTOP COFFEE) 문산휴게소","address":"경상남도 진주시 문산읍 남해고속도로 195(한국도로공사 문산순천휴게소, 1층 일부 부10동)","jibunAddress":"","phone":"","foodType":"","mainFood":"","designatedDate":"2026-03-10","lat":35.168049293,"lng":128.161688835,"region":"경상남도","source":"safefood","safeFoodGrade":"매우우수","safeFoodCertNo":"HG260001969"},{"id":"safefood-gyeongnam-HG260002116","name":"버거킹 창원유니시티점","address":"경상남도 창원시 의창구 중동북로 23(제이디윙스빌딩주건축물제1동 1층 112호,113호,114호 중동)","jibunAddress":"","phone":"","foodType":"","mainFood":"","designatedDate":"2026-03-10","lat":35.26458553,"lng":128.621168894,"region":"경상남도","source":"safefood","safeFoodGrade":"매우우수","safeFoodCertNo":"HG260002116"},{"id":"safefood-gyeongnam-HG260002345","name":"비비큐팩토리(BBQ FACTORY)","address":"경상남도 거제시 일운면 거제대로 2660(A동지하1층)","jibunAddress":"","phone":"","foodType":"","mainFood":"","designatedDate":"2026-03-12","lat":34.813620799,"lng":128.705223552,"region":"경상남도","source":"safefood","safeFoodGrade":"좋음","safeFoodCertNo":"HG260002345"},{"id":"safefood-gyeongnam-HG260002344","name":"마리나카페","address":"경상남도 거제시 일운면 거제대로 2660(C동 지하2층 B220호 대명리조트거제휴양콘도미니엄)","jibunAddress":"","phone":"","foodType":"","mainFood":"","designatedDate":"2026-03-12","lat":34.813620799,"lng":128.705223552,"region":"경상남도","source":"safefood","safeFoodGrade":"매우우수","safeFoodCertNo":"HG260002344"},{"id":"safefood-gyeongnam-HG260001518","name":"파리바게뜨 진주도동점 (PARIS BAGUETTE)","address":"경상남도 진주시 동진로 188(1층 일부 상대동)","jibunAddress":"","phone":"","foodType":"","mainFood":"","designatedDate":"2026-02-19","lat":35.180346172,"lng":128.112783425,"region":"경상남도","source":"safefood","safeFoodGrade":"매우우수","safeFoodCertNo":"HG260001518"},{"id":"safefood-gyeongnam-HG260002115","name":"파리바게뜨사천중앙점","address":"경상남도 사천시 사천읍 진삼로 1391","jibunAddress":"","phone":"","foodType":"","mainFood":"","designatedDate":"2026-03-10","lat":35.08094715,"lng":128.089387786,"region":"경상남도","source":"safefood","safeFoodGrade":"매우우수","safeFoodCertNo":"HG260002115"},{"id":"safefood-gyeongnam-HG260002340","name":"오션스마켓","address":"경상남도 거제시 일운면 거제대로 2660(A동지하3층)","jibunAddress":"","phone":"","foodType":"","mainFood":"","designatedDate":"2026-03-12","lat":34.813620799,"lng":128.705223552,"region":"경상남도","source":"safefood","safeFoodGrade":"매우우수","safeFoodCertNo":"HG260002340"},{"id":"safefood-gyeongnam-HG260001955","name":"메가엠지씨커피 경남대점","address":"경상남도 창원시 마산합포구 3·15대로 2-1(아이러브유학 1층 해운동)","jibunAddress":"","phone":"","foodType":"","mainFood":"","designatedDate":"2026-03-10","lat":35.187469394,"lng":128.560855079,"region":"경상남도","source":"safefood","safeFoodGrade":"매우우수","safeFoodCertNo":"HG260001955"},{"id":"safefood-gyeongnam-HG260002335","name":"불닭발땡초동대문엽기떡볶이 양산물금점","address":"경상남도 양산시 물금읍 청운로 177(오션프라자 1층 105호)","jibunAddress":"","phone":"","foodType":"","mainFood":"","designatedDate":"2026-03-12","lat":35.3268002893287,"lng":129.011151832235,"region":"경상남도","source":"safefood","safeFoodGrade":"매우우수","safeFoodCertNo":"HG260002335"},{"id":"safefood-gyeongnam-HG240001782","name":"(주)이랜드이츠 애슐리퀸즈 신세계백화점 마산점","address":"경상남도 창원시 마산합포구 합포로 251(신세계백화점 지하1층 산호동)","jibunAddress":"","phone":"","foodType":"","mainFood":"","designatedDate":"2026-03-25","lat":35.187469394,"lng":128.560855079,"region":"경상남도","source":"safefood","safeFoodGrade":"매우우수","safeFoodCertNo":"HG240001782"},{"id":"safefood-gyeongnam-HG220001510","name":"비에이치씨통영죽림점","address":"경상남도 통영시 광도면 죽림5로 56(523동 206호 주영 더 팰리스 5차아파트)","jibunAddress":"","phone":"","foodType":"","mainFood":"","designatedDate":"2026-03-14","lat":34.886145823,"lng":128.418824469,"region":"경상남도","source":"safefood","safeFoodGrade":"매우우수","safeFoodCertNo":"HG220001510"},{"id":"safefood-gyeongnam-HG240001377","name":"곁두리","address":"경상남도 통영시 광도면 죽림5로 55-14(102호)","jibunAddress":"","phone":"","foodType":"","mainFood":"","designatedDate":"2026-03-12","lat":34.886145823,"lng":128.418824469,"region":"경상남도","source":"safefood","safeFoodGrade":"매우우수","safeFoodCertNo":"HG240001377"},{"id":"safefood-gyeongnam-HG240001122","name":"봉구스밥버거북신무전점","address":"경상남도 통영시 중앙로 264(상가108호 북신동, 송림데파트)","jibunAddress":"","phone":"","foodType":"","mainFood":"","designatedDate":"2026-03-04","lat":34.8465785748135,"lng":128.424234774115,"region":"경상남도","source":"safefood","safeFoodGrade":"매우우수","safeFoodCertNo":"HG240001122"},{"id":"safefood-gyeongnam-HG260002325","name":"삼겹정","address":"경상남도 양산시 물금읍 서들로 142(세원스타 108호, 109호)","jibunAddress":"","phone":"","foodType":"","mainFood":"","designatedDate":"2026-03-12","lat":35.3268002893287,"lng":129.011151832235,"region":"경상남도","source":"safefood","safeFoodGrade":"매우우수","safeFoodCertNo":"HG260002325"},{"id":"safefood-gyeongnam-HG220001123","name":"맘스터치진주과기대점","address":"경상남도 진주시 동진로 29(칠암동,번지 외 1필지씨티펄상가2층201,202,203호)","jibunAddress":"","phone":"","foodType":"","mainFood":"","designatedDate":"2026-02-25","lat":35.180346172,"lng":128.112783425,"region":"경상남도","source":"safefood","safeFoodGrade":"매우우수","safeFoodCertNo":"HG220001123"},{"id":"safefood-gyeongnam-HG220001582","name":"스타벅스삼성창원병원점","address":"경상남도 창원시 마산회원구 팔용로 158(합성동, 삼성창원병원 제3관본관 지상1층)","jibunAddress":"","phone":"","foodType":"","mainFood":"","designatedDate":"2026-03-16","lat":35.230872174,"lng":128.577452822,"region":"경상남도","source":"safefood","safeFoodGrade":"매우우수","safeFoodCertNo":"HG220001582"},{"id":"safefood-gyeongnam-HG240001150","name":"스타벅스 경상대칠암캠퍼스점","address":"경상남도 진주시 동진로 22(아주스타타워 1층 102호, 2층 203호 칠암동)","jibunAddress":"","phone":"","foodType":"","mainFood":"","designatedDate":"2026-03-04","lat":35.180346172,"lng":128.112783425,"region":"경상남도","source":"safefood","safeFoodGrade":"매우우수","safeFoodCertNo":"HG240001150"},{"id":"safefood-gyeongnam-HG260001931","name":"메가엠지씨커피 마산대현프리몰점","address":"경상남도 창원시 마산회원구 3·15대로 지하 758(합성지하상가 JK 15,16호 합성동)","jibunAddress":"","phone":"","foodType":"","mainFood":"","designatedDate":"2026-03-10","lat":35.230872174,"lng":128.577452822,"region":"경상남도","source":"safefood","safeFoodGrade":"매우우수","safeFoodCertNo":"HG260001931"},{"id":"safefood-gyeongnam-HG230005070","name":"프랭크버거 경남고성점","address":"경상남도 고성군 고성읍 동외로 166(1층 102호)","jibunAddress":"","phone":"","foodType":"","mainFood":"","designatedDate":"2025-07-24","lat":34.952455058,"lng":128.331786605,"region":"경상남도","source":"safefood","safeFoodGrade":"매우우수","safeFoodCertNo":"HG230005070"},{"id":"safefood-gyeongnam-HG260001908","name":"파리바게뜨김해유토피아점","address":"경상남도 김해시 활천로 187(어방동)","jibunAddress":"","phone":"","foodType":"","mainFood":"","designatedDate":"2026-03-10","lat":35.2303608818843,"lng":128.894020019824,"region":"경상남도","source":"safefood","safeFoodGrade":"매우우수","safeFoodCertNo":"HG260001908"},{"id":"safefood-gyeongnam-HG240000919","name":"브릭앤아트(BRICK&ART)","address":"경상남도 거제시 장목면 거제북로 2501-40(한화리조트 거제 벨버디어 지하2층)","jibunAddress":"","phone":"","foodType":"","mainFood":"","designatedDate":"2026-02-20","lat":34.939506136,"lng":128.7176748,"region":"경상남도","source":"safefood","safeFoodGrade":"매우우수","safeFoodCertNo":"HG240000919"},{"id":"safefood-gyeongnam-HG240000918","name":"샌디스아일랜드(Sandy`s Island)","address":"경상남도 거제시 장목면 거제북로 2501-40(한화리조트 거제 벨버디어 지하2층)","jibunAddress":"","phone":"","foodType":"","mainFood":"","designatedDate":"2026-02-20","lat":34.939506136,"lng":128.7176748,"region":"경상남도","source":"safefood","safeFoodGrade":"매우우수","safeFoodCertNo":"HG240000918"},{"id":"safefood-gyeongnam-HG240000920","name":"부경불백","address":"경상남도 거제시 장목면 거제북로 2501-40(한화리조트 거제 벨버디어 지하1층)","jibunAddress":"","phone":"","foodType":"","mainFood":"","designatedDate":"2026-02-20","lat":34.939506136,"lng":128.7176748,"region":"경상남도","source":"safefood","safeFoodGrade":"매우우수","safeFoodCertNo":"HG240000920"},{"id":"safefood-gyeongnam-HG240000921","name":"이가네떡볶이 거제점","address":"경상남도 거제시 장목면 거제북로 2501-40(한화리조트 거제 벨버디어 지하1층)","jibunAddress":"","phone":"","foodType":"","mainFood":"","designatedDate":"2026-02-20","lat":34.939506136,"lng":128.7176748,"region":"경상남도","source":"safefood","safeFoodGrade":"매우우수","safeFoodCertNo":"HG240000921"},{"id":"safefood-gyeongnam-HG260001337","name":"멕시카나치킨 칠원점","address":"경상남도 함안군 칠원읍 구성길 47","jibunAddress":"","phone":"","foodType":"","mainFood":"","designatedDate":"2026-02-10","lat":35.309790313,"lng":128.515502779,"region":"경상남도","source":"safefood","safeFoodGrade":"좋음","safeFoodCertNo":"HG260001337"},{"id":"safefood-gyeongnam-HG260001143","name":"컴포즈커피 창원힐스테이트더퍼스트점","address":"경상남도 창원시 성산구 대상중앙로 10(128동 102호 중앙동)","jibunAddress":"","phone":"","foodType":"","mainFood":"","designatedDate":"2026-02-04","lat":35.222440649,"lng":128.676636652,"region":"경상남도","source":"safefood","safeFoodGrade":"매우우수","safeFoodCertNo":"HG260001143"},{"id":"safefood-gyeongnam-HG260001842","name":"푸디스트(주) 양산쉴낙원장례식장점","address":"경상남도 양산시 상북면 와곡1길 26(1층)","jibunAddress":"","phone":"","foodType":"","mainFood":"","designatedDate":"2026-03-10","lat":35.380586126,"lng":129.04792534,"region":"경상남도","source":"safefood","safeFoodGrade":"매우우수","safeFoodCertNo":"HG260001842"},{"id":"safefood-gyeongnam-HG260001140","name":"파리바게트창원봉림휴먼시아점","address":"경상남도 창원시 의창구 대봉로 24(봉림동)","jibunAddress":"","phone":"","foodType":"","mainFood":"","designatedDate":"2026-02-04","lat":35.26458553,"lng":128.621168894,"region":"경상남도","source":"safefood","safeFoodGrade":"매우우수","safeFoodCertNo":"HG260001140"},{"id":"safefood-gyeongnam-HG250637201","name":"컴포즈커피창원토월점","address":"경상남도 창원시 성산구 동산로 122(103-2호 상남동, 스카이웰빙파크)","jibunAddress":"","phone":"","foodType":"","mainFood":"","designatedDate":"2025-08-05","lat":35.222440649,"lng":128.676636652,"region":"경상남도","source":"safefood","safeFoodGrade":"우수","safeFoodCertNo":"HG250637201"},{"id":"safefood-gyeongnam-HG250641266","name":"컴포즈커피 창녕영산점","address":"경상남도 창녕군 영산면 영산장마로 745","jibunAddress":"","phone":"","foodType":"","mainFood":"","designatedDate":"2025-11-10","lat":35.456059564,"lng":128.52724724,"region":"경상남도","source":"safefood","safeFoodGrade":"매우우수","safeFoodCertNo":"HG250641266"},{"id":"safefood-gyeongnam-HG260001810","name":"엘로이피자","address":"경상남도 창원시 의창구 도계로 41(지상층 102호 도계동, 일호하이파이데파트)","jibunAddress":"","phone":"","foodType":"","mainFood":"","designatedDate":"2026-03-10","lat":35.26458553,"lng":128.621168894,"region":"경상남도","source":"safefood","safeFoodGrade":"매우우수","safeFoodCertNo":"HG260001810"},{"id":"safefood-gyeongnam-HG250632705","name":"보스 연어","address":"경상남도 창원시 의창구 도계로50번길 5-7(1층 101호 도계동, 기전맨션)","jibunAddress":"","phone":"","foodType":"","mainFood":"","designatedDate":"2025-05-07","lat":35.26458553,"lng":128.621168894,"region":"경상남도","source":"safefood","safeFoodGrade":"매우우수","safeFoodCertNo":"HG250632705"},{"id":"safefood-gyeongnam-HG260001796","name":"파리바게뜨삼성창원병원점","address":"경상남도 창원시 마산회원구 팔용로 149(지상1층 구암동)","jibunAddress":"","phone":"","foodType":"","mainFood":"","designatedDate":"2026-03-10","lat":35.230872174,"lng":128.577452822,"region":"경상남도","source":"safefood","safeFoodGrade":"매우우수","safeFoodCertNo":"HG260001796"},{"id":"safefood-gyeongnam-HG260001794","name":"파리바게뜨마산창동점","address":"경상남도 창원시 마산합포구 불종거리로 21-1(1, 2층 동성동)","jibunAddress":"","phone":"","foodType":"","mainFood":"","designatedDate":"2026-03-10","lat":35.187469394,"lng":128.560855079,"region":"경상남도","source":"safefood","safeFoodGrade":"매우우수","safeFoodCertNo":"HG260001794"},{"id":"safefood-gyeongnam-HG250636346","name":"컴포즈커피 창원무동점","address":"경상남도 창원시 의창구 북면 무동로226번길 18(에이스빌딩 1층 105호)","jibunAddress":"","phone":"","foodType":"","mainFood":"","designatedDate":"2025-07-18","lat":35.26458553,"lng":128.621168894,"region":"경상남도","source":"safefood","safeFoodGrade":"매우우수","safeFoodCertNo":"HG250636346"},{"id":"safefood-gyeongnam-HG260000064","name":"파스쿠찌 밀양점","address":"경상남도 밀양시 밀양대로 1753-27(1.2층 삼문동)","jibunAddress":"","phone":"","foodType":"","mainFood":"","designatedDate":"2026-01-07","lat":35.512836462,"lng":128.763211898,"region":"경상남도","source":"safefood","safeFoodGrade":"매우우수","safeFoodCertNo":"HG260000064"},{"id":"safefood-gyeongnam-HG250636347","name":"컴포즈커피(COMPOSE COFFEE) 창원라포레점","address":"경상남도 창원시 성산구 창원대로 888(1층 128호 가음정동)","jibunAddress":"","phone":"","foodType":"","mainFood":"","designatedDate":"2025-07-18","lat":35.222440649,"lng":128.676636652,"region":"경상남도","source":"safefood","safeFoodGrade":"매우우수","safeFoodCertNo":"HG250636347"},{"id":"safefood-gyeongnam-HG260001160","name":"파리바게뜨 김해주촌두산점","address":"경상남도 김해시 주촌면 천곡로15번길 1(1층)","jibunAddress":"","phone":"","foodType":"","mainFood":"","designatedDate":"2026-02-04","lat":35.244950119,"lng":128.833029284,"region":"경상남도","source":"safefood","safeFoodGrade":"매우우수","safeFoodCertNo":"HG260001160"},{"id":"safefood-gyeongnam-HG260001768","name":"파리바게뜨 마산현동점","address":"경상남도 창원시 마산합포구 현동7길 38(1층 101호 현동)","jibunAddress":"","phone":"","foodType":"","mainFood":"","designatedDate":"2026-03-09","lat":35.187469394,"lng":128.560855079,"region":"경상남도","source":"safefood","safeFoodGrade":"매우우수","safeFoodCertNo":"HG260001768"},{"id":"safefood-gyeongnam-HG260001767","name":"파리바게트신마산해운점","address":"경상남도 창원시 마산합포구 월영동로 7(해운동,105호)","jibunAddress":"","phone":"","foodType":"","mainFood":"","designatedDate":"2026-03-09","lat":35.187469394,"lng":128.560855079,"region":"경상남도","source":"safefood","safeFoodGrade":"매우우수","safeFoodCertNo":"HG260001767"},{"id":"safefood-gyeongnam-HG260001311","name":"파리바게트(진동점)","address":"경상남도 창원시 마산합포구 진동면 삼진의거대로 644(102호)","jibunAddress":"","phone":"","foodType":"","mainFood":"","designatedDate":"2026-02-10","lat":35.187469394,"lng":128.560855079,"region":"경상남도","source":"safefood","safeFoodGrade":"우수","safeFoodCertNo":"HG260001311"},{"id":"safefood-gyeongnam-HG260001766","name":"파리바게뜨 마산중앙점","address":"경상남도 창원시 마산합포구 3·15대로 156(중앙동2가,동방하이페르세븐-105호)","jibunAddress":"","phone":"","foodType":"","mainFood":"","designatedDate":"2026-03-09","lat":35.187469394,"lng":128.560855079,"region":"경상남도","source":"safefood","safeFoodGrade":"매우우수","safeFoodCertNo":"HG260001766"},{"id":"safefood-gyeongnam-HG260000022","name":"멘사무소 김해내외점","address":"경상남도 김해시 내외중앙로 27(오로라 107일부호 외동)","jibunAddress":"","phone":"","foodType":"","mainFood":"","designatedDate":"2026-01-06","lat":35.236205559,"lng":128.867326854,"region":"경상남도","source":"safefood","safeFoodGrade":"매우우수","safeFoodCertNo":"HG260000022"},{"id":"safefood-gyeongnam-HG240001416","name":"버거킹진해자은DT점","address":"경상남도 창원시 진해구 진해대로 940(1,2층 자은동[*미고시])","jibunAddress":"","phone":"","foodType":"","mainFood":"","designatedDate":"2026-03-13","lat":35.14443217531215,"lng":128.67158887020904,"region":"경상남도","source":"safefood","safeFoodGrade":"매우우수","safeFoodCertNo":"HG240001416"},{"id":"safefood-gyeongnam-HG260001552","name":"파리바게뜨 남해창선점","address":"경상남도 남해군 창선면 동부대로 1929(2층)","jibunAddress":"","phone":"","foodType":"","mainFood":"","designatedDate":"2026-02-20","lat":34.916109429,"lng":128.02923344,"region":"경상남도","source":"safefood","safeFoodGrade":"매우우수","safeFoodCertNo":"HG260001552"},{"id":"safefood-gyeongnam-HG240000935","name":"투썸플레이스 양산상북점","address":"경상남도 양산시 상북면 수서로 27(1~2층)","jibunAddress":"","phone":"","foodType":"","mainFood":"","designatedDate":"2026-02-20","lat":35.380586126,"lng":129.04792534,"region":"경상남도","source":"safefood","safeFoodGrade":"매우우수","safeFoodCertNo":"HG240000935"},{"id":"safefood-gyeongnam-HG220000626","name":"정직유부 감계점","address":"경상남도 창원시 의창구 북면 감계로110번길 54-29(감계에코타워 1층 101호)","jibunAddress":"","phone":"","foodType":"","mainFood":"","designatedDate":"2026-02-04","lat":35.26458553,"lng":128.621168894,"region":"경상남도","source":"safefood","safeFoodGrade":"매우우수","safeFoodCertNo":"HG220000626"},{"id":"safefood-gyeongnam-HG220000746","name":"네네치킨 진동점","address":"경상남도 창원시 마산합포구 진동면 진동리 486-1 (지상1층)","jibunAddress":"","phone":"","foodType":"","mainFood":"","designatedDate":"2026-02-10","lat":35.187469394,"lng":128.560855079,"region":"경상남도","source":"safefood","safeFoodGrade":"매우우수","safeFoodCertNo":"HG220000746"},{"id":"safefood-gyeongnam-HG260001595","name":"비에이치씨(BHC)통영중앙점","address":"경상남도 통영시 항남5길 7(항남동)","jibunAddress":"","phone":"","foodType":"","mainFood":"","designatedDate":"2026-02-23","lat":34.840627916,"lng":128.42167562,"region":"경상남도","source":"safefood","safeFoodGrade":"매우우수","safeFoodCertNo":"HG260001595"},{"id":"safefood-gyeongnam-HG260001594","name":"까페요아정통영죽림점","address":"경상남도 통영시 광도면 죽림2로 71(1층 103-1호)","jibunAddress":"","phone":"","foodType":"","mainFood":"","designatedDate":"2026-02-23","lat":34.886145823,"lng":128.418824469,"region":"경상남도","source":"safefood","safeFoodGrade":"매우우수","safeFoodCertNo":"HG260001594"},{"id":"safefood-gyeongnam-HG240000743","name":"호식이두마리치킨(진해남문점)","address":"경상남도 창원시 진해구 남영로55번길 6-1(2층 일부호 남문동)","jibunAddress":"","phone":"","foodType":"","mainFood":"","designatedDate":"2026-02-05","lat":35.14443217531215,"lng":128.67158887020904,"region":"경상남도","source":"safefood","safeFoodGrade":"매우우수","safeFoodCertNo":"HG240000743"},{"id":"safefood-gyeongnam-HG220001494","name":"스타벅스 통영이마트점","address":"경상남도 통영시 광도면 죽림4로 9(신세계 통영 이마트 1층)","jibunAddress":"","phone":"","foodType":"","mainFood":"","designatedDate":"2026-03-14","lat":34.886145823,"lng":128.418824469,"region":"경상남도","source":"safefood","safeFoodGrade":"매우우수","safeFoodCertNo":"HG220001494"},{"id":"safefood-gyeongnam-HG260000729","name":"파리바게뜨","address":"경상남도 창원시 성산구 상남동 45-1 성원주상가1층106-2,103호","jibunAddress":"","phone":"","foodType":"","mainFood":"","designatedDate":"2026-01-26","lat":35.222440649,"lng":128.676636652,"region":"경상남도","source":"safefood","safeFoodGrade":"매우우수","safeFoodCertNo":"HG260000729"},{"id":"safefood-gyeongnam-HG260000315","name":"파리바게뜨가음정점","address":"경상남도 창원시 성산구 대정로 36(2, 3호 가음동, 가음종합상가)","jibunAddress":"","phone":"","foodType":"","mainFood":"","designatedDate":"2026-01-14","lat":35.222440649,"lng":128.676636652,"region":"경상남도","source":"safefood","safeFoodGrade":"매우우수","safeFoodCertNo":"HG260000315"},{"id":"safefood-gyeongnam-HG260000333","name":"컴포즈 김해분성점","address":"경상남도 김해시 분성로 164(1층 외동)","jibunAddress":"","phone":"","foodType":"","mainFood":"","designatedDate":"2026-01-15","lat":35.233407527,"lng":128.878289637,"region":"경상남도","source":"safefood","safeFoodGrade":"매우우수","safeFoodCertNo":"HG260000333"},{"id":"safefood-gyeongnam-HG220000754","name":"네네치킨반지점","address":"경상남도 창원시 성산구 반송로 22(반지동, 1층)","jibunAddress":"","phone":"","foodType":"","mainFood":"","designatedDate":"2026-02-10","lat":35.222440649,"lng":128.676636652,"region":"경상남도","source":"safefood","safeFoodGrade":"매우우수","safeFoodCertNo":"HG220000754"},{"id":"safefood-gyeongnam-HG240001423","name":"던킨도너츠(진해석동점)","address":"경상남도 창원시 진해구 냉천로 63(1층 101호 석동)","jibunAddress":"","phone":"","foodType":"","mainFood":"","designatedDate":"2026-03-13","lat":35.14443217531215,"lng":128.67158887020904,"region":"경상남도","source":"safefood","safeFoodGrade":"매우우수","safeFoodCertNo":"HG240001423"},{"id":"safefood-gyeongnam-HG220001493","name":"60계 경남양산증산점","address":"경상남도 양산시 물금읍 백호2길 31-9(1층)","jibunAddress":"","phone":"","foodType":"","mainFood":"","designatedDate":"2026-03-14","lat":35.3268002893287,"lng":129.011151832235,"region":"경상남도","source":"safefood","safeFoodGrade":"매우우수","safeFoodCertNo":"HG220001493"},{"id":"safefood-gyeongnam-HG260001544","name":"자담치킨 남해중앙점","address":"경상남도 남해군 남해읍 화전로 56","jibunAddress":"","phone":"","foodType":"","mainFood":"","designatedDate":"2026-02-20","lat":34.837285294,"lng":127.895073297,"region":"경상남도","source":"safefood","safeFoodGrade":"좋음","safeFoodCertNo":"HG260001544"},{"id":"safefood-gyeongnam-HG260001131","name":"컴포즈커피 창원동정점","address":"경상남도 창원시 의창구 서상로 27(102동 110호 동정동, 동정오성아파트)","jibunAddress":"","phone":"","foodType":"","mainFood":"","designatedDate":"2026-02-04","lat":35.26458553,"lng":128.621168894,"region":"경상남도","source":"safefood","safeFoodGrade":"매우우수","safeFoodCertNo":"HG260001131"},{"id":"safefood-gyeongnam-HG260000060","name":"한국맥도날드유한회사 양산물금DT점","address":"경상남도 양산시 물금읍 황산로 651(1, 2층)","jibunAddress":"","phone":"","foodType":"","mainFood":"","designatedDate":"2026-01-07","lat":35.3268002893287,"lng":129.011151832235,"region":"경상남도","source":"safefood","safeFoodGrade":"매우우수","safeFoodCertNo":"HG260000060"},{"id":"safefood-gyeongnam-HG260001458","name":"네네치킨앤봉구스밥버거거창1점","address":"경상남도 거창군 거창읍 강변로 127(한성CITY타워 1층 109호)","jibunAddress":"","phone":"","foodType":"","mainFood":"","designatedDate":"2026-02-19","lat":35.683323016,"lng":127.912800945,"region":"경상남도","source":"safefood","safeFoodGrade":"우수","safeFoodCertNo":"HG260001458"},{"id":"safefood-gyeongnam-HG220002061","name":"(주)캘리스코 사보텐 신세계마산점","address":"경상남도 창원시 마산합포구 합포로 251(지하1층 산호동)","jibunAddress":"","phone":"","foodType":"","mainFood":"","designatedDate":"2026-03-31","lat":35.187469394,"lng":128.560855079,"region":"경상남도","source":"safefood","safeFoodGrade":"매우우수","safeFoodCertNo":"HG220002061"},{"id":"safefood-gyeongnam-HG260001060","name":"파스쿠찌김해인제대점","address":"경상남도 김해시 활천로255번길 42(2,3층 삼방동)","jibunAddress":"","phone":"","foodType":"","mainFood":"","designatedDate":"2026-02-02","lat":35.243093089,"lng":128.907674616,"region":"경상남도","source":"safefood","safeFoodGrade":"매우우수","safeFoodCertNo":"HG260001060"},{"id":"safefood-gyeongnam-HG220002066","name":"크리스피크림롯데창원점","address":"경상남도 창원시 성산구 중앙대로 124(지하1층 상남동, 롯데백화점)","jibunAddress":"","phone":"","foodType":"","mainFood":"","designatedDate":"2026-03-31","lat":35.222440649,"lng":128.676636652,"region":"경상남도","source":"safefood","safeFoodGrade":"매우우수","safeFoodCertNo":"HG220002066"},{"id":"safefood-gyeongnam-HG220001746","name":"네네치킨 함안점","address":"경상남도 함안군 가야읍 함마대로 1510(1층 2호)","jibunAddress":"","phone":"","foodType":"","mainFood":"","designatedDate":"2026-03-22","lat":35.277561437,"lng":128.407745097,"region":"경상남도","source":"safefood","safeFoodGrade":"매우우수","safeFoodCertNo":"HG220001746"},{"id":"safefood-gyeongnam-HG220002067","name":"굽네치킨 마산산호점","address":"경상남도 창원시 마산합포구 용마로 90(1층 104호 산호동)","jibunAddress":"","phone":"","foodType":"","mainFood":"","designatedDate":"2026-03-31","lat":35.187469394,"lng":128.560855079,"region":"경상남도","source":"safefood","safeFoodGrade":"매우우수","safeFoodCertNo":"HG220002067"},{"id":"safefood-gyeongnam-HG240001138","name":"카페 파스쿠찌 창원상남점","address":"경상남도 창원시 성산구 마디미동로 29(1층,2층,3층 상남동[*미고시])","jibunAddress":"","phone":"","foodType":"","mainFood":"","designatedDate":"2026-03-04","lat":35.222440649,"lng":128.676636652,"region":"경상남도","source":"safefood","safeFoodGrade":"매우우수","safeFoodCertNo":"HG240001138"},{"id":"safefood-gyeongnam-HG260000057","name":"컴포즈커피 진해마천공단점","address":"경상남도 창원시 진해구 남영로 557(나동 1층 일부호 남양동)","jibunAddress":"","phone":"","foodType":"","mainFood":"","designatedDate":"2026-01-07","lat":35.14443217531215,"lng":128.67158887020904,"region":"경상남도","source":"safefood","safeFoodGrade":"매우우수","safeFoodCertNo":"HG260000057"},{"id":"safefood-gyeongnam-HG260000053","name":"빵무라","address":"경상남도 양산시 물금읍 신주로 66(양산신도시현진에버빌 상가동동 101호)","jibunAddress":"","phone":"","foodType":"","mainFood":"","designatedDate":"2026-01-07","lat":35.3268002893287,"lng":129.011151832235,"region":"경상남도","source":"safefood","safeFoodGrade":"매우우수","safeFoodCertNo":"HG260000053"},{"id":"safefood-gyeongnam-HG260000709","name":"엄지네반찬","address":"경상남도 양산시 물금읍 백호로 70(제이스프라자 101호)","jibunAddress":"","phone":"","foodType":"","mainFood":"","designatedDate":"2026-01-26","lat":35.3268002893287,"lng":129.011151832235,"region":"경상남도","source":"safefood","safeFoodGrade":"매우우수","safeFoodCertNo":"HG260000709"},{"id":"safefood-gyeongnam-HG240001597","name":"버거킹 밀양삼문FS점","address":"경상남도 밀양시 밀양대로 1790(삼문동)","jibunAddress":"","phone":"","foodType":"","mainFood":"","designatedDate":"2026-03-19","lat":35.512836462,"lng":128.763211898,"region":"경상남도","source":"safefood","safeFoodGrade":"매우우수","safeFoodCertNo":"HG240001597"},{"id":"safefood-gyeongnam-HG260000184","name":"교동짬뽕","address":"경상남도 김해시 김해대로 2232(외동)","jibunAddress":"","phone":"","foodType":"","mainFood":"","designatedDate":"2026-01-12","lat":35.2474927,"lng":128.9065231,"region":"경상남도","source":"safefood","safeFoodGrade":"매우우수","safeFoodCertNo":"HG260000184"},{"id":"safefood-gyeongnam-HG220000756","name":"60계 경남김해주촌점","address":"경상남도 김해시 주촌면 선지로46번길 5(1층)","jibunAddress":"","phone":"","foodType":"","mainFood":"","designatedDate":"2026-02-10","lat":35.244950119,"lng":128.833029284,"region":"경상남도","source":"safefood","safeFoodGrade":"매우우수","safeFoodCertNo":"HG220000756"},{"id":"safefood-gyeongnam-HG260000309","name":"풀사이드스낵","address":"경상남도 남해군 미조면 쏠비치길 21(쏠비치 리조트)","jibunAddress":"","phone":"","foodType":"","mainFood":"","designatedDate":"2026-01-14","lat":34.71071368,"lng":128.047771561,"region":"경상남도","source":"safefood","safeFoodGrade":"매우우수","safeFoodCertNo":"HG260000309"},{"id":"safefood-gyeongnam-HG260000308","name":"비스트로 게미","address":"경상남도 남해군 미조면 쏠비치길 22(1층)","jibunAddress":"","phone":"","foodType":"","mainFood":"","designatedDate":"2026-01-14","lat":34.71071368,"lng":128.047771561,"region":"경상남도","source":"safefood","safeFoodGrade":"매우우수","safeFoodCertNo":"HG260000308"},{"id":"safefood-gyeongnam-HG260000307","name":"소울다이닝 바래","address":"경상남도 남해군 미조면 쏠비치길 21(쏠비치 리조트)","jibunAddress":"","phone":"","foodType":"","mainFood":"","designatedDate":"2026-01-14","lat":34.71071368,"lng":128.047771561,"region":"경상남도","source":"safefood","safeFoodGrade":"매우우수","safeFoodCertNo":"HG260000307"},{"id":"safefood-gyeongnam-HG260000306","name":"풀사이드바","address":"경상남도 남해군 미조면 쏠비치길 21(쏠비치 리조트)","jibunAddress":"","phone":"","foodType":"","mainFood":"","designatedDate":"2026-01-14","lat":34.71071368,"lng":128.047771561,"region":"경상남도","source":"safefood","safeFoodGrade":"매우우수","safeFoodCertNo":"HG260000306"},{"id":"safefood-gyeongnam-HG260000305","name":"로비 라운지","address":"경상남도 남해군 미조면 쏠비치길 21(쏠비치 리조트)","jibunAddress":"","phone":"","foodType":"","mainFood":"","designatedDate":"2026-01-14","lat":34.71071368,"lng":128.047771561,"region":"경상남도","source":"safefood","safeFoodGrade":"매우우수","safeFoodCertNo":"HG260000305"},{"id":"safefood-gyeongnam-HG260000304","name":"리스토란테 셰프스키친","address":"경상남도 남해군 미조면 쏠비치길 21(쏠비치 리조트)","jibunAddress":"","phone":"","foodType":"","mainFood":"","designatedDate":"2026-01-14","lat":34.71071368,"lng":128.047771561,"region":"경상남도","source":"safefood","safeFoodGrade":"매우우수","safeFoodCertNo":"HG260000304"},{"id":"safefood-gyeongnam-HG260000303","name":"메리디오네 베이커리&카페","address":"경상남도 남해군 미조면 쏠비치길 21(쏠비치 리조트)","jibunAddress":"","phone":"","foodType":"","mainFood":"","designatedDate":"2026-01-14","lat":34.71071368,"lng":128.047771561,"region":"경상남도","source":"safefood","safeFoodGrade":"매우우수","safeFoodCertNo":"HG260000303"},{"id":"safefood-gyeongnam-HG260000241","name":"멕시카나치킨 창원신월점","address":"경상남도 창원시 성산구 신사로45번길 33(제2동 1층 일부호 신월동)","jibunAddress":"","phone":"","foodType":"","mainFood":"","designatedDate":"2026-01-13","lat":35.222440649,"lng":128.676636652,"region":"경상남도","source":"safefood","safeFoodGrade":"매우우수","safeFoodCertNo":"HG260000241"},{"id":"safefood-gyeongnam-HG220001035","name":"투썸플레이스 의령행복로점","address":"경상남도 의령군 의령읍 행복로 14(한우빌딩)","jibunAddress":"","phone":"","foodType":"","mainFood":"","designatedDate":"2026-02-22","lat":35.320286735,"lng":128.261535716,"region":"경상남도","source":"safefood","safeFoodGrade":"매우우수","safeFoodCertNo":"HG220001035"},{"id":"safefood-gyeongnam-HG240000215","name":"(주)푸르웰 거제해양Park 외부스넥","address":"경상남도 거제시 장목면 거가대로 1068(외부)","jibunAddress":"","phone":"","foodType":"","mainFood":"","designatedDate":"2026-01-18","lat":34.939506136,"lng":128.7176748,"region":"경상남도","source":"safefood","safeFoodGrade":"매우우수","safeFoodCertNo":"HG240000215"},{"id":"safefood-gyeongnam-HG250642955","name":"한국맥도날드(유)사천DT점","address":"경상남도 사천시 사천읍 사천대로 1838","jibunAddress":"","phone":"","foodType":"","mainFood":"","designatedDate":"2025-12-15","lat":35.08094715,"lng":128.089387786,"region":"경상남도","source":"safefood","safeFoodGrade":"매우우수","safeFoodCertNo":"HG250642955"},{"id":"safefood-gyeongnam-HG260000389","name":"비비큐치킨 상남스타점","address":"경상남도 창원시 성산구 중앙대로 90(1층 105호 상남동, 창원디아트리에오피스텔)","jibunAddress":"","phone":"","foodType":"","mainFood":"","designatedDate":"2026-01-16","lat":35.222440649,"lng":128.676636652,"region":"경상남도","source":"safefood","safeFoodGrade":"매우우수","safeFoodCertNo":"HG260000389"},{"id":"safefood-gyeongnam-HG260000237","name":"비비큐(BBQ) 범어동원유림점","address":"경상남도 양산시 물금읍 범구로 28(311동  B336호 양산신도시3차동원로얄듀크비스타)","jibunAddress":"","phone":"","foodType":"","mainFood":"","designatedDate":"2026-01-13","lat":35.3268002893287,"lng":129.011151832235,"region":"경상남도","source":"safefood","safeFoodGrade":"매우우수","safeFoodCertNo":"HG260000237"},{"id":"safefood-gyeongnam-HG180000093","name":"사천(부산방향)휴게소-한식전문점","address":"경상남도 사천시 곤양면 서삼로 619(외37필지)","jibunAddress":"","phone":"","foodType":"","mainFood":"","designatedDate":"2026-03-08","lat":35.099284841,"lng":128.01575874,"region":"경상남도","source":"safefood","safeFoodGrade":"매우우수","safeFoodCertNo":"HG180000093"},{"id":"safefood-gyeongnam-HG240000619","name":"사천(부산)휴게소스넥코너","address":"경상남도 사천시 곤양면 서삼로 619(사천휴게소)","jibunAddress":"","phone":"","foodType":"","mainFood":"","designatedDate":"2026-02-01","lat":35.099284841,"lng":128.01575874,"region":"경상남도","source":"safefood","safeFoodGrade":"매우우수","safeFoodCertNo":"HG240000619"},{"id":"safefood-gyeongnam-HG180000092","name":"사천(순천방향)휴게소-한식전문점","address":"경상남도 사천시 곤양면 묵실길 31-11(외19필지)","jibunAddress":"","phone":"","foodType":"","mainFood":"","designatedDate":"2026-03-08","lat":35.099284841,"lng":128.01575874,"region":"경상남도","source":"safefood","safeFoodGrade":"매우우수","safeFoodCertNo":"HG180000092"},{"id":"safefood-gyeongnam-HG240000600","name":"사천(순천)휴게소스넥코너","address":"경상남도 사천시 곤양면 묵실길 31-11(사천휴게소)","jibunAddress":"","phone":"","foodType":"","mainFood":"","designatedDate":"2026-01-31","lat":35.099284841,"lng":128.01575874,"region":"경상남도","source":"safefood","safeFoodGrade":"매우우수","safeFoodCertNo":"HG240000600"},{"id":"safefood-gyeongnam-HG250643055","name":"파리바게뜨 대방점","address":"경상남도 창원시 성산구 대정로 138(대방대동아파트 훼미리상가동 1층 133호 대방동)","jibunAddress":"","phone":"","foodType":"","mainFood":"","designatedDate":"2025-12-16","lat":35.222440649,"lng":128.676636652,"region":"경상남도","source":"safefood","safeFoodGrade":"매우우수","safeFoodCertNo":"HG250643055"},{"id":"safefood-gyeongnam-HG240000715","name":"60계 마산교방점","address":"경상남도 창원시 마산합포구 교방시장2길 31(교방동, 신우빌라상가 104호)","jibunAddress":"","phone":"","foodType":"","mainFood":"","designatedDate":"2026-02-05","lat":35.187469394,"lng":128.560855079,"region":"경상남도","source":"safefood","safeFoodGrade":"매우우수","safeFoodCertNo":"HG240000715"},{"id":"safefood-gyeongnam-HG220000616","name":"60계치킨","address":"경상남도 창원시 성산구 대정로 145(1층 103호 대방동, 대방개나리1차@상가)","jibunAddress":"","phone":"","foodType":"","mainFood":"","designatedDate":"2026-02-04","lat":35.222440649,"lng":128.676636652,"region":"경상남도","source":"safefood","safeFoodGrade":"매우우수","safeFoodCertNo":"HG220000616"},{"id":"safefood-gyeongnam-HG260000332","name":"맘스피자 남해미조점","address":"경상남도 남해군 미조면 미조로 28(1층)","jibunAddress":"","phone":"","foodType":"","mainFood":"","designatedDate":"2026-01-15","lat":34.71071368,"lng":128.047771561,"region":"경상남도","source":"safefood","safeFoodGrade":"매우우수","safeFoodCertNo":"HG260000332"},{"id":"safefood-gyeongnam-HG260000331","name":"맘스터치 남해미조점","address":"경상남도 남해군 미조면 미조로 28(1층)","jibunAddress":"","phone":"","foodType":"","mainFood":"","designatedDate":"2026-01-15","lat":34.71071368,"lng":128.047771561,"region":"경상남도","source":"safefood","safeFoodGrade":"매우우수","safeFoodCertNo":"HG260000331"},{"id":"safefood-gyeongnam-HG250642246","name":"카페봄봄유니시티점","address":"경상남도 창원시 의창구 중동중앙로 47(어반브릭스타워103-1호 중동)","jibunAddress":"","phone":"","foodType":"","mainFood":"","designatedDate":"2025-11-27","lat":35.26458553,"lng":128.621168894,"region":"경상남도","source":"safefood","safeFoodGrade":"매우우수","safeFoodCertNo":"HG250642246"},{"id":"safefood-gyeongnam-HG220000357","name":"네네치킨","address":"경상남도 함양군 함양읍 용평3길 25-1","jibunAddress":"","phone":"","foodType":"","mainFood":"","designatedDate":"2026-01-21","lat":35.517530677,"lng":127.726433126,"region":"경상남도","source":"safefood","safeFoodGrade":"매우우수","safeFoodCertNo":"HG220000357"},{"id":"safefood-gyeongnam-HG250642837","name":"네네치킨","address":"경상남도 고성군 고성읍 성내로 31(협동그린타운 상가동 1층)","jibunAddress":"","phone":"","foodType":"","mainFood":"","designatedDate":"2025-12-11","lat":34.952455058,"lng":128.331786605,"region":"경상남도","source":"safefood","safeFoodGrade":"매우우수","safeFoodCertNo":"HG250642837"},{"id":"safefood-gyeongnam-HG260000330","name":"솔방구리삼겹살 어방직영점","address":"경상남도 김해시 분성로 520(어방동)","jibunAddress":"","phone":"","foodType":"","mainFood":"","designatedDate":"2026-01-15","lat":35.233407527,"lng":128.878289637,"region":"경상남도","source":"safefood","safeFoodGrade":"매우우수","safeFoodCertNo":"HG260000330"},{"id":"safefood-gyeongnam-HG240000337","name":"폴바셋(PaulBassett) 거제아주DT점","address":"경상남도 거제시 거제대로 3573(주건축물제1동 1~2층 아주동)","jibunAddress":"","phone":"","foodType":"","mainFood":"","designatedDate":"2026-01-22","lat":34.889058137,"lng":128.596684675,"region":"경상남도","source":"safefood","safeFoodGrade":"매우우수","safeFoodCertNo":"HG240000337"},{"id":"safefood-gyeongnam-HG250642386","name":"투썸플레이스 남해창선점","address":"경상남도 남해군 창선면 동부대로2964번길 9(1,2층)","jibunAddress":"","phone":"","foodType":"","mainFood":"","designatedDate":"2025-12-01","lat":34.916109429,"lng":128.02923344,"region":"경상남도","source":"safefood","safeFoodGrade":"매우우수","safeFoodCertNo":"HG250642386"},{"id":"safefood-gyeongnam-HG240000181","name":"맥도날드 옥포 SK DT점","address":"경상남도 거제시 거제대로 3714(옥포동,1,2층)","jibunAddress":"","phone":"","foodType":"","mainFood":"","designatedDate":"2026-01-15","lat":34.889058137,"lng":128.596684675,"region":"경상남도","source":"safefood","safeFoodGrade":"매우우수","safeFoodCertNo":"HG240000181"},{"id":"safefood-gyeongnam-HG200000206","name":"7번가피자통영점","address":"경상남도 통영시 무전4길 29(1층 111A호 무전동, 휴엔하임)","jibunAddress":"","phone":"","foodType":"","mainFood":"","designatedDate":"2026-01-22","lat":34.859120639,"lng":128.423594289,"region":"경상남도","source":"safefood","safeFoodGrade":"매우우수","safeFoodCertNo":"HG200000206"},{"id":"safefood-gyeongnam-HG220000154","name":"네네치킨죽림점","address":"경상남도 통영시 광도면 신죽1길 12(613동 상가 5호 주영더팰리스6차아파트)","jibunAddress":"","phone":"","foodType":"","mainFood":"","designatedDate":"2026-01-14","lat":34.886145823,"lng":128.418824469,"region":"경상남도","source":"safefood","safeFoodGrade":"매우우수","safeFoodCertNo":"HG220000154"},{"id":"safefood-gyeongnam-HG250642690","name":"올선데이통영죽림점","address":"경상남도 통영시 광도면 죽림5로 65(103호)","jibunAddress":"","phone":"","foodType":"","mainFood":"","designatedDate":"2025-12-09","lat":34.886145823,"lng":128.418824469,"region":"경상남도","source":"safefood","safeFoodGrade":"매우우수","safeFoodCertNo":"HG250642690"},{"id":"safefood-gyeongnam-HG250642689","name":"블루샥통영무전점","address":"경상남도 통영시 무전5길 11-24(무전동)","jibunAddress":"","phone":"","foodType":"","mainFood":"","designatedDate":"2025-12-09","lat":34.860854785,"lng":128.425684629,"region":"경상남도","source":"safefood","safeFoodGrade":"매우우수","safeFoodCertNo":"HG250642689"},{"id":"safefood-gyeongnam-HG250642925","name":"큰별돈까스","address":"경상남도 남해군 남해읍 화전로 7-1","jibunAddress":"","phone":"","foodType":"","mainFood":"","designatedDate":"2025-12-15","lat":34.837285294,"lng":127.895073297,"region":"경상남도","source":"safefood","safeFoodGrade":"매우우수","safeFoodCertNo":"HG250642925"},{"id":"safefood-gyeongnam-HG240000300","name":"60계 아주점","address":"경상남도 거제시 아주1로2길 65(1일부층 아주동)","jibunAddress":"","phone":"","foodType":"","mainFood":"","designatedDate":"2026-01-22","lat":34.867079974,"lng":128.686684847,"region":"경상남도","source":"safefood","safeFoodGrade":"매우우수","safeFoodCertNo":"HG240000300"},{"id":"safefood-gyeongnam-HG220000350","name":"60계치킨 경남창녕남지점","address":"경상남도 창녕군 남지읍 문화길 66-1(1층)","jibunAddress":"","phone":"","foodType":"","mainFood":"","designatedDate":"2026-01-21","lat":35.386075098,"lng":128.478299027,"region":"경상남도","source":"safefood","safeFoodGrade":"매우우수","safeFoodCertNo":"HG220000350"},{"id":"safefood-gyeongnam-HG250642821","name":"다반(켄싱턴리조트)","address":"경상남도 하동군 화개면 쌍계로 532-6","jibunAddress":"","phone":"","foodType":"","mainFood":"","designatedDate":"2025-12-10","lat":35.22990694,"lng":127.644253854,"region":"경상남도","source":"safefood","safeFoodGrade":"매우우수","safeFoodCertNo":"HG250642821"},{"id":"safefood-gyeongnam-HG250642033","name":"할매손충무김밥","address":"경상남도 통영시 통영해안로 311-1(1층 항남동)","jibunAddress":"","phone":"","foodType":"","mainFood":"","designatedDate":"2025-11-25","lat":34.841051305,"lng":128.420442434,"region":"경상남도","source":"safefood","safeFoodGrade":"매우우수","safeFoodCertNo":"HG250642033"},{"id":"safefood-gyeongnam-HG250641751","name":"파리바게뜨창원SM타운점","address":"경상남도 창원시 의창구 창원대로397번길 11(201동 지상층 111호 팔용동, 힐스테이트 아티움시티)","jibunAddress":"","phone":"","foodType":"","mainFood":"","designatedDate":"2025-11-19","lat":35.26458553,"lng":128.621168894,"region":"경상남도","source":"safefood","safeFoodGrade":"매우우수","safeFoodCertNo":"HG250641751"},{"id":"safefood-gyeongnam-HG250641877","name":"호텔인터내셔널 뷔페레스토랑","address":"경상남도 창원시 성산구 중앙대로 69(중앙동,3층)","jibunAddress":"","phone":"","foodType":"","mainFood":"","designatedDate":"2025-11-20","lat":35.222440649,"lng":128.676636652,"region":"경상남도","source":"safefood","safeFoodGrade":"매우우수","safeFoodCertNo":"HG250641877"},{"id":"safefood-gyeongnam-HG220000334","name":"누마루(켄싱턴리조트)","address":"경상남도 하동군 화개면 쌍계로 532-6","jibunAddress":"","phone":"","foodType":"","mainFood":"","designatedDate":"2026-01-21","lat":35.22990694,"lng":127.644253854,"region":"경상남도","source":"safefood","safeFoodGrade":"매우우수","safeFoodCertNo":"HG220000334"},{"id":"safefood-gyeongnam-HG250641279","name":"사랑해베이글 창원상남점","address":"경상남도 창원시 성산구 단정로76번길 22-15(1층 상남동)","jibunAddress":"","phone":"","foodType":"","mainFood":"","designatedDate":"2025-11-10","lat":35.222440649,"lng":128.676636652,"region":"경상남도","source":"safefood","safeFoodGrade":"매우우수","safeFoodCertNo":"HG250641279"},{"id":"safefood-gyeongnam-HG220000737","name":"노브랜드버거마산경남대점","address":"경상남도 창원시 마산합포구 월영동2길 2(103,104호 해운동)","jibunAddress":"","phone":"","foodType":"","mainFood":"","designatedDate":"2026-02-10","lat":35.187469394,"lng":128.560855079,"region":"경상남도","source":"safefood","safeFoodGrade":"매우우수","safeFoodCertNo":"HG220000737"},{"id":"safefood-gyeongnam-HG250642200","name":"불닭발땡초동대문엽기떡볶이 진주평거점","address":"경상남도 진주시 남강로309번길 42-21(1층일부 평거동)","jibunAddress":"","phone":"","foodType":"","mainFood":"","designatedDate":"2025-11-27","lat":35.168971757,"lng":128.063131123,"region":"경상남도","source":"safefood","safeFoodGrade":"매우우수","safeFoodCertNo":"HG250642200"},{"id":"safefood-gyeongnam-HG250641734","name":"정선생해물아구찜&공룡닭발(공룡포차)","address":"경상남도 거제시 중곡로1길 19(1층 고현동)","jibunAddress":"","phone":"","foodType":"","mainFood":"","designatedDate":"2025-11-19","lat":34.893056593,"lng":128.628274918,"region":"경상남도","source":"safefood","safeFoodGrade":"매우우수","safeFoodCertNo":"HG250641734"},{"id":"safefood-gyeongnam-HG250641731","name":"KFC밀양","address":"경상남도 밀양시 밀양대로 1770(1층 삼문동)","jibunAddress":"","phone":"","foodType":"","mainFood":"","designatedDate":"2025-11-19","lat":35.512836462,"lng":128.763211898,"region":"경상남도","source":"safefood","safeFoodGrade":"매우우수","safeFoodCertNo":"HG250641731"},{"id":"safefood-gyeongnam-HG250641271","name":"메가엠지씨커피(MEGA MGC COFFEE) 진주금산초교점","address":"경상남도 진주시 금산면 금산순환로 9(세종빌딩 101호)","jibunAddress":"","phone":"","foodType":"","mainFood":"","designatedDate":"2025-11-10","lat":35.212251433,"lng":128.150456889,"region":"경상남도","source":"safefood","safeFoodGrade":"매우우수","safeFoodCertNo":"HG250641271"},{"id":"safefood-gyeongnam-HG250640860","name":"할리스 김해복음병원점","address":"경상남도 김해시 활천로 42(1층 삼정동)","jibunAddress":"","phone":"","foodType":"","mainFood":"","designatedDate":"2025-10-29","lat":35.2303608818843,"lng":128.894020019824,"region":"경상남도","source":"safefood","safeFoodGrade":"매우우수","safeFoodCertNo":"HG250640860"},{"id":"safefood-gyeongnam-HG250641269","name":"침니 하우스","address":"경상남도 거제시 중곡로3길 28(1층 고현동)","jibunAddress":"","phone":"","foodType":"","mainFood":"","designatedDate":"2025-11-10","lat":34.894185725,"lng":128.626377698,"region":"경상남도","source":"safefood","safeFoodGrade":"매우우수","safeFoodCertNo":"HG250641269"},{"id":"safefood-gyeongnam-HG210011508","name":"파리바게트양곡점","address":"경상남도 창원시 성산구 신촌로 102(라동 1층 110호 신촌동, 양곡상가아파트)","jibunAddress":"","phone":"","foodType":"","mainFood":"","designatedDate":"2025-12-14","lat":35.222440649,"lng":128.676636652,"region":"경상남도","source":"safefood","safeFoodGrade":"매우우수","safeFoodCertNo":"HG210011508"},{"id":"safefood-gyeongnam-HG250641267","name":"굽네치킨 창녕읍점","address":"경상남도 창녕군 창녕읍 명덕로 6-1","jibunAddress":"","phone":"","foodType":"","mainFood":"","designatedDate":"2025-11-10","lat":35.541749234,"lng":128.488582426,"region":"경상남도","source":"safefood","safeFoodGrade":"매우우수","safeFoodCertNo":"HG250641267"},{"id":"safefood-gyeongnam-HG250640826","name":"자담치킨 신촌점","address":"경상남도 창원시 성산구 신촌로 101(신촌동,양곡상가아파트A-다동 109-11호)","jibunAddress":"","phone":"","foodType":"","mainFood":"","designatedDate":"2025-10-29","lat":35.222440649,"lng":128.676636652,"region":"경상남도","source":"safefood","safeFoodGrade":"매우우수","safeFoodCertNo":"HG250640826"},{"id":"safefood-gyeongnam-HG230010309","name":"네네치킨팔용점","address":"경상남도 창원시 의창구 남산로 32(벽산블루밍아파트C단지1층 102호103호 팔용동)","jibunAddress":"","phone":"","foodType":"","mainFood":"","designatedDate":"2025-12-18","lat":35.26458553,"lng":128.621168894,"region":"경상남도","source":"safefood","safeFoodGrade":"매우우수","safeFoodCertNo":"HG230010309"},{"id":"safefood-gyeongnam-HG250641034","name":"(주)커피빈코리아창원시티세븐점","address":"경상남도 창원시 성산구 원이대로 320(더시티세븐S-105호 대원동)","jibunAddress":"","phone":"","foodType":"","mainFood":"","designatedDate":"2025-11-04","lat":35.222440649,"lng":128.676636652,"region":"경상남도","source":"safefood","safeFoodGrade":"매우우수","safeFoodCertNo":"HG250641034"},{"id":"safefood-gyeongnam-HG250641262","name":"컴포즈창원현동점","address":"경상남도 창원시 마산합포구 현동4길 4(1층 103호호 우산동)","jibunAddress":"","phone":"","foodType":"","mainFood":"","designatedDate":"2025-11-10","lat":35.187469394,"lng":128.560855079,"region":"경상남도","source":"safefood","safeFoodGrade":"매우우수","safeFoodCertNo":"HG250641262"},{"id":"safefood-gyeongnam-HG240000068","name":"스텔라떡볶이 경남마산내서점","address":"경상남도 창원시 마산회원구 내서읍 광려천북로 184-1(지팝프라자 101호)","jibunAddress":"","phone":"","foodType":"","mainFood":"","designatedDate":"2026-01-10","lat":35.230872174,"lng":128.577452822,"region":"경상남도","source":"safefood","safeFoodGrade":"매우우수","safeFoodCertNo":"HG240000068"},{"id":"safefood-gyeongnam-HG230010038","name":"한국맥도날드(유)진주혁신지에스디티점","address":"경상남도 진주시 동진로 581(충무공동, 1,2층 일부)","jibunAddress":"","phone":"","foodType":"","mainFood":"","designatedDate":"2025-12-11","lat":35.180346172,"lng":128.112783425,"region":"경상남도","source":"safefood","safeFoodGrade":"매우우수","safeFoodCertNo":"HG230010038"},{"id":"safefood-gyeongnam-HG250640621","name":"동경만향 롯데백화점창원점","address":"경상남도 창원시 성산구 중앙대로 124(롯데백화점 지하1층 일부호 상남동)","jibunAddress":"","phone":"","foodType":"","mainFood":"","designatedDate":"2025-10-22","lat":35.222440649,"lng":128.676636652,"region":"경상남도","source":"safefood","safeFoodGrade":"매우우수","safeFoodCertNo":"HG250640621"},{"id":"safefood-gyeongnam-HG250640620","name":"라우포(롯데백화점 창원점)","address":"경상남도 창원시 성산구 중앙대로 124(롯데백화점 지하1층 일부호 상남동)","jibunAddress":"","phone":"","foodType":"","mainFood":"","designatedDate":"2025-10-22","lat":35.222440649,"lng":128.676636652,"region":"경상남도","source":"safefood","safeFoodGrade":"매우우수","safeFoodCertNo":"HG250640620"},{"id":"safefood-gyeongnam-HG210011288","name":"호식이 두마리 치킨 신월점","address":"경상남도 창원시 성산구 신사로45번길 22(신월동)","jibunAddress":"","phone":"","foodType":"","mainFood":"","designatedDate":"2025-12-06","lat":35.222440649,"lng":128.676636652,"region":"경상남도","source":"safefood","safeFoodGrade":"매우우수","safeFoodCertNo":"HG210011288"},{"id":"safefood-gyeongnam-HG250641239","name":"맘스피자(Mom`s Pizza) 거제수월점","address":"경상남도 거제시 수양로 432(1층 수월동)","jibunAddress":"","phone":"","foodType":"","mainFood":"","designatedDate":"2025-11-10","lat":34.893098061,"lng":128.64157562,"region":"경상남도","source":"safefood","safeFoodGrade":"매우우수","safeFoodCertNo":"HG250641239"},{"id":"safefood-gyeongnam-HG250641236","name":"맘스터치","address":"경상남도 창녕군 남지읍 동포로 47","jibunAddress":"","phone":"","foodType":"","mainFood":"","designatedDate":"2025-11-10","lat":35.386075098,"lng":128.478299027,"region":"경상남도","source":"safefood","safeFoodGrade":"매우우수","safeFoodCertNo":"HG250641236"},{"id":"safefood-gyeongnam-HG250641235","name":"맘스터치 김해인제대점","address":"경상남도 김해시 인제로 194(2층 어방동)","jibunAddress":"","phone":"","foodType":"","mainFood":"","designatedDate":"2025-11-10","lat":35.236834926,"lng":128.904170991,"region":"경상남도","source":"safefood","safeFoodGrade":"매우우수","safeFoodCertNo":"HG250641235"},{"id":"safefood-gyeongnam-HG250641231","name":"맘스터치(Mom`s touch) 거제수월점","address":"경상남도 거제시 수양로 432(수월동,1층)","jibunAddress":"","phone":"","foodType":"","mainFood":"","designatedDate":"2025-11-10","lat":34.893098061,"lng":128.64157562,"region":"경상남도","source":"safefood","safeFoodGrade":"매우우수","safeFoodCertNo":"HG250641231"},{"id":"safefood-gyeongnam-HG210011576","name":"60계치킨경남통영죽림점","address":"경상남도 통영시 광도면 신죽2길 1(102호)","jibunAddress":"","phone":"","foodType":"","mainFood":"","designatedDate":"2025-12-21","lat":34.886145823,"lng":128.418824469,"region":"경상남도","source":"safefood","safeFoodGrade":"매우우수","safeFoodCertNo":"HG210011576"},{"id":"safefood-gyeongnam-HG190002169","name":"배스킨라빈스 경남하동점","address":"경상남도 하동군 하동읍 경서대로 143","jibunAddress":"","phone":"","foodType":"","mainFood":"","designatedDate":"2025-12-04","lat":35.069919526,"lng":127.746841773,"region":"경상남도","source":"safefood","safeFoodGrade":"매우우수","safeFoodCertNo":"HG190002169"},{"id":"safefood-gyeongnam-HG250641407","name":"뚜레쥬르대방점","address":"경상남도 창원시 성산구 창이대로881번길 9(101호 대방동, 다성빌딩)","jibunAddress":"","phone":"","foodType":"","mainFood":"","designatedDate":"2025-11-12","lat":35.222440649,"lng":128.676636652,"region":"경상남도","source":"safefood","safeFoodGrade":"매우우수","safeFoodCertNo":"HG250641407"},{"id":"safefood-gyeongnam-HG230010090","name":"빽보이피자 진해용원점","address":"경상남도 창원시 진해구 용원로 48(1층 일부호 용원동)","jibunAddress":"","phone":"","foodType":"","mainFood":"","designatedDate":"2025-12-11","lat":35.14443217531215,"lng":128.67158887020904,"region":"경상남도","source":"safefood","safeFoodGrade":"매우우수","safeFoodCertNo":"HG230010090"},{"id":"safefood-gyeongnam-HG250640907","name":"씨유편의점스넥","address":"경상남도 창원시 마산회원구 율림교로 6(양덕동, 지상1층)","jibunAddress":"","phone":"","foodType":"","mainFood":"","designatedDate":"2025-10-30","lat":35.230872174,"lng":128.577452822,"region":"경상남도","source":"safefood","safeFoodGrade":"매우우수","safeFoodCertNo":"HG250640907"},{"id":"safefood-gyeongnam-HG230009688","name":"호식이두마리치킨 거창점","address":"경상남도 거창군 거창읍 강양5길 45","jibunAddress":"","phone":"","foodType":"","mainFood":"","designatedDate":"2025-11-29","lat":35.683323016,"lng":127.912800945,"region":"경상남도","source":"safefood","safeFoodGrade":"매우우수","safeFoodCertNo":"HG230009688"},{"id":"safefood-gyeongnam-HG250641163","name":"양산왕돼지국밥","address":"경상남도 양산시 물금읍 물금역1길 27(1층)","jibunAddress":"","phone":"","foodType":"","mainFood":"","designatedDate":"2025-11-06","lat":35.3268002893287,"lng":129.011151832235,"region":"경상남도","source":"safefood","safeFoodGrade":"매우우수","safeFoodCertNo":"HG250641163"},{"id":"safefood-gyeongnam-HG250640733","name":"파스쿠찌마산역DI점","address":"경상남도 창원시 마산회원구 3·15대로 703(1,2,3층 석전동)","jibunAddress":"","phone":"","foodType":"","mainFood":"","designatedDate":"2025-10-27","lat":35.230872174,"lng":128.577452822,"region":"경상남도","source":"safefood","safeFoodGrade":"매우우수","safeFoodCertNo":"HG250640733"},{"id":"safefood-gyeongnam-HG250640615","name":"뉴욕러브베이글","address":"경상남도 창원시 성산구 중앙대로 124(롯데백화점 창원점 지하1층 일부호 상남동)","jibunAddress":"","phone":"","foodType":"","mainFood":"","designatedDate":"2025-10-22","lat":35.222440649,"lng":128.676636652,"region":"경상남도","source":"safefood","safeFoodGrade":"매우우수","safeFoodCertNo":"HG250640615"},{"id":"safefood-gyeongnam-HG250640614","name":"광장동나루가온","address":"경상남도 창원시 성산구 중앙대로 124(롯데백화점 지하1층 일부호 상남동)","jibunAddress":"","phone":"","foodType":"","mainFood":"","designatedDate":"2025-10-22","lat":35.222440649,"lng":128.676636652,"region":"경상남도","source":"safefood","safeFoodGrade":"매우우수","safeFoodCertNo":"HG250640614"},{"id":"safefood-gyeongnam-HG250640613","name":"깐깐 롯데백화점창원점","address":"경상남도 창원시 성산구 중앙대로 124(롯데백화점 지하1층 일부호 상남동)","jibunAddress":"","phone":"","foodType":"","mainFood":"","designatedDate":"2025-10-22","lat":35.222440649,"lng":128.676636652,"region":"경상남도","source":"safefood","safeFoodGrade":"매우우수","safeFoodCertNo":"HG250640613"},{"id":"safefood-gyeongnam-HG250640612","name":"우츄진 롯데창원점","address":"경상남도 창원시 성산구 중앙대로 124(롯데백화점 지하1층 일부호 상남동)","jibunAddress":"","phone":"","foodType":"","mainFood":"","designatedDate":"2025-10-22","lat":35.222440649,"lng":128.676636652,"region":"경상남도","source":"safefood","safeFoodGrade":"매우우수","safeFoodCertNo":"HG250640612"},{"id":"safefood-gyeongnam-HG250640611","name":"구오(GUO)","address":"경상남도 창원시 성산구 중앙대로 124(롯데백화점 지하1층 일부호 상남동)","jibunAddress":"","phone":"","foodType":"","mainFood":"","designatedDate":"2025-10-22","lat":35.222440649,"lng":128.676636652,"region":"경상남도","source":"safefood","safeFoodGrade":"매우우수","safeFoodCertNo":"HG250640611"},{"id":"safefood-gyeongnam-HG230009486","name":"호식이두마리치킨 물금신도시점","address":"경상남도 양산시 물금읍 백호2길 17-20(1층)","jibunAddress":"","phone":"","foodType":"","mainFood":"","designatedDate":"2025-11-24","lat":35.3268002893287,"lng":129.011151832235,"region":"경상남도","source":"safefood","safeFoodGrade":"매우우수","safeFoodCertNo":"HG230009486"},{"id":"safefood-gyeongnam-HG210011528","name":"60계경남통영점","address":"경상남도 통영시 무전4길 29(1층 118A호 무전동, 휴엔하임)","jibunAddress":"","phone":"","foodType":"","mainFood":"","designatedDate":"2025-12-16","lat":34.859120639,"lng":128.423594289,"region":"경상남도","source":"safefood","safeFoodGrade":"매우우수","safeFoodCertNo":"HG210011528"},{"id":"safefood-gyeongnam-HG250640273","name":"베이커리코너 창원중앙점","address":"경상남도 창원시 성산구 중앙대로 123(롯데마트 창원중앙점 지하1층 일부호 중앙동)","jibunAddress":"","phone":"","foodType":"","mainFood":"","designatedDate":"2025-10-14","lat":35.222440649,"lng":128.676636652,"region":"경상남도","source":"safefood","safeFoodGrade":"매우우수","safeFoodCertNo":"HG250640273"},{"id":"safefood-gyeongnam-HG190002447","name":"스타벅스창원상남로점","address":"경상남도 창원시 성산구 상남로 88(1층,2층 상남동)","jibunAddress":"","phone":"","foodType":"","mainFood":"","designatedDate":"2025-12-12","lat":35.222440649,"lng":128.676636652,"region":"경상남도","source":"safefood","safeFoodGrade":"매우우수","safeFoodCertNo":"HG190002447"},{"id":"safefood-gyeongnam-HG230010135","name":"스타벅스 양산물금DT점","address":"경상남도 양산시 물금읍 황산로 346(1~2층)","jibunAddress":"","phone":"","foodType":"","mainFood":"","designatedDate":"2025-12-13","lat":35.3268002893287,"lng":129.011151832235,"region":"경상남도","source":"safefood","safeFoodGrade":"매우우수","safeFoodCertNo":"HG230010135"},{"id":"safefood-gyeongnam-HG250640792","name":"노랑통닭 경남하동점","address":"경상남도 하동군 하동읍 경서대로 141","jibunAddress":"","phone":"","foodType":"","mainFood":"","designatedDate":"2025-10-29","lat":35.069919526,"lng":127.746841773,"region":"경상남도","source":"safefood","safeFoodGrade":"매우우수","safeFoodCertNo":"HG250640792"},{"id":"safefood-gyeongnam-HG210011280","name":"이디야 커피숍 산청점","address":"경상남도 산청군 산청읍 산엔청로 15","jibunAddress":"","phone":"","foodType":"","mainFood":"","designatedDate":"2025-12-06","lat":35.414924751,"lng":127.867727812,"region":"경상남도","source":"safefood","safeFoodGrade":"매우우수","safeFoodCertNo":"HG210011280"},{"id":"safefood-gyeongnam-HG190002512","name":"스타벅스 양산범어점","address":"경상남도 양산시 물금읍 범어로 62(103,104,105,106호)","jibunAddress":"","phone":"","foodType":"","mainFood":"","designatedDate":"2025-12-13","lat":35.3268002893287,"lng":129.011151832235,"region":"경상남도","source":"safefood","safeFoodGrade":"매우우수","safeFoodCertNo":"HG190002512"},{"id":"safefood-gyeongnam-HG250640539","name":"푸라닭 김해주촌점","address":"경상남도 김해시 주촌면 천곡로15번길 20(1층)","jibunAddress":"","phone":"","foodType":"","mainFood":"","designatedDate":"2025-10-20","lat":35.244950119,"lng":128.833029284,"region":"경상남도","source":"safefood","safeFoodGrade":"매우우수","safeFoodCertNo":"HG250640539"},{"id":"safefood-gyeongnam-HG190002472","name":"스타벅스양산가촌점","address":"경상남도 양산시 물금읍 야리로 25(1,2,3층)","jibunAddress":"","phone":"","foodType":"","mainFood":"","designatedDate":"2025-12-13","lat":35.3268002893287,"lng":129.011151832235,"region":"경상남도","source":"safefood","safeFoodGrade":"매우우수","safeFoodCertNo":"HG190002472"},{"id":"safefood-gyeongnam-HG250640268","name":"불닭발땡초동대문엽기떡볶이 양산범어점","address":"경상남도 양산시 물금읍 범어로 76(네오코아 105호)","jibunAddress":"","phone":"","foodType":"","mainFood":"","designatedDate":"2025-10-14","lat":35.3268002893287,"lng":129.011151832235,"region":"경상남도","source":"safefood","safeFoodGrade":"매우우수","safeFoodCertNo":"HG250640268"},{"id":"safefood-gyeongnam-HG200004409","name":"공차(영산고속도로휴게소점)","address":"경상남도 창녕군 영산면 장척호수길 56-110","jibunAddress":"","phone":"","foodType":"","mainFood":"","designatedDate":"2024-07-15","lat":35.456059564,"lng":128.52724724,"region":"경상남도","source":"safefood","safeFoodGrade":"매우우수","safeFoodCertNo":"HG200004409"},{"id":"safefood-gyeongnam-HG230009678","name":"하이오커피거창상림점","address":"경상남도 거창군 거창읍 거열로7길 43(103호)","jibunAddress":"","phone":"","foodType":"","mainFood":"","designatedDate":"2025-11-29","lat":35.683323016,"lng":127.912800945,"region":"경상남도","source":"safefood","safeFoodGrade":"매우우수","safeFoodCertNo":"HG230009678"},{"id":"safefood-gyeongnam-HG250640536","name":"씨유 뉴양덕베스트점","address":"경상남도 창원시 마산회원구 양덕동2길 19(1층 양덕동)","jibunAddress":"","phone":"","foodType":"","mainFood":"","designatedDate":"2025-10-20","lat":35.230872174,"lng":128.577452822,"region":"경상남도","source":"safefood","safeFoodGrade":"매우우수","safeFoodCertNo":"HG250640536"},{"id":"safefood-gyeongnam-HG250640266","name":"컴포즈커피 마산산호베스티움점","address":"경상남도 창원시 마산합포구 회원천북길 491(1층 103호 산호동, 산호 베스티움)","jibunAddress":"","phone":"","foodType":"","mainFood":"","designatedDate":"2025-10-14","lat":35.187469394,"lng":128.560855079,"region":"경상남도","source":"safefood","safeFoodGrade":"매우우수","safeFoodCertNo":"HG250640266"},{"id":"safefood-gyeongnam-HG250636579","name":"최강곱도리","address":"경상남도 창원시 마산합포구 산호북1길 15(102동 상가 104호 산호동, 삼성타운)","jibunAddress":"","phone":"","foodType":"","mainFood":"","designatedDate":"2025-07-25","lat":35.187469394,"lng":128.560855079,"region":"경상남도","source":"safefood","safeFoodGrade":"매우우수","safeFoodCertNo":"HG250636579"},{"id":"safefood-gyeongnam-HG250640534","name":"CU마산산호무학점","address":"경상남도 창원시 마산회원구 산호서6길 1(1층 회원동)","jibunAddress":"","phone":"","foodType":"","mainFood":"","designatedDate":"2025-10-20","lat":35.230872174,"lng":128.577452822,"region":"경상남도","source":"safefood","safeFoodGrade":"매우우수","safeFoodCertNo":"HG250640534"},{"id":"safefood-gyeongnam-HG190002492","name":"스타벅스 양산증산역점","address":"경상남도 양산시 물금읍 증산역로 177(라피에스타양산 1층 1-001,1-002,1-003,1-004,1-005호)","jibunAddress":"","phone":"","foodType":"","mainFood":"","designatedDate":"2025-12-13","lat":35.3268002893287,"lng":129.011151832235,"region":"경상남도","source":"safefood","safeFoodGrade":"매우우수","safeFoodCertNo":"HG190002492"},{"id":"safefood-gyeongnam-HG250640601","name":"그린앤롤스","address":"경상남도 창원시 성산구 중앙대로 124(지하층 상남동, 롯데백화점)","jibunAddress":"","phone":"","foodType":"","mainFood":"","designatedDate":"2025-10-22","lat":35.222440649,"lng":128.676636652,"region":"경상남도","source":"safefood","safeFoodGrade":"매우우수","safeFoodCertNo":"HG250640601"},{"id":"safefood-gyeongnam-HG230010028","name":"한국맥도날드(유)진해자은D/T점","address":"경상남도 창원시 진해구 진해대로 950(자은동, 1, 2층)","jibunAddress":"","phone":"","foodType":"","mainFood":"","designatedDate":"2025-12-11","lat":35.14443217531215,"lng":128.67158887020904,"region":"경상남도","source":"safefood","safeFoodGrade":"매우우수","safeFoodCertNo":"HG230010028"},{"id":"safefood-gyeongnam-HG230009268","name":"비비큐(bbq)성산성주점","address":"경상남도 창원시 성산구 삼정자로43번길 2(성산빌딩 2층 206호 성주동)","jibunAddress":"","phone":"","foodType":"","mainFood":"","designatedDate":"2025-11-20","lat":35.222440649,"lng":128.676636652,"region":"경상남도","source":"safefood","safeFoodGrade":"매우우수","safeFoodCertNo":"HG230009268"},{"id":"safefood-gyeongnam-HG250640708","name":"뚜레쥬르창원팔용아티움점","address":"경상남도 창원시 의창구 창원대로397번길 11(202동 1층 120호 팔용동, 힐스테이트 아티움시티)","jibunAddress":"","phone":"","foodType":"","mainFood":"","designatedDate":"2025-10-27","lat":35.26458553,"lng":128.621168894,"region":"경상남도","source":"safefood","safeFoodGrade":"매우우수","safeFoodCertNo":"HG250640708"},{"id":"safefood-gyeongnam-HG230009815","name":"롯데리아북마산점","address":"경상남도 창원시 마산회원구 북성로 118(한효프라자 빌딩 1층 105-119호 회원동)","jibunAddress":"","phone":"","foodType":"","mainFood":"","designatedDate":"2025-12-04","lat":35.230872174,"lng":128.577452822,"region":"경상남도","source":"safefood","safeFoodGrade":"매우우수","safeFoodCertNo":"HG230009815"},{"id":"safefood-gyeongnam-HG250640520","name":"교촌치킨 중동유니시티점","address":"경상남도 창원시 의창구 의창대로254번길 9(1층 102호 서상동, 중동상가)","jibunAddress":"","phone":"","foodType":"","mainFood":"","designatedDate":"2025-10-20","lat":35.26458553,"lng":128.621168894,"region":"경상남도","source":"safefood","safeFoodGrade":"매우우수","safeFoodCertNo":"HG250640520"},{"id":"safefood-gyeongnam-HG250640511","name":"본죽&비빔밥","address":"경상남도 창원시 의창구 팔용로 428(팔용동,드림피아 114호)","jibunAddress":"","phone":"","foodType":"","mainFood":"","designatedDate":"2025-10-20","lat":35.26458553,"lng":128.621168894,"region":"경상남도","source":"safefood","safeFoodGrade":"매우우수","safeFoodCertNo":"HG250640511"},{"id":"safefood-gyeongnam-HG250640103","name":"컴포즈커피(compose coffee)거제수월점","address":"경상남도 거제시 수양로 477(1층 양정동)","jibunAddress":"","phone":"","foodType":"","mainFood":"","designatedDate":"2025-10-02","lat":34.893098061,"lng":128.64157562,"region":"경상남도","source":"safefood","safeFoodGrade":"매우우수","safeFoodCertNo":"HG250640103"},{"id":"safefood-gyeongnam-HG250640498","name":"교촌치킨남양점","address":"경상남도 창원시 성산구 가음정로43번길 3(더원빌딩 1층 104호 가음동)","jibunAddress":"","phone":"","foodType":"","mainFood":"","designatedDate":"2025-10-20","lat":35.222440649,"lng":128.676636652,"region":"경상남도","source":"safefood","safeFoodGrade":"우수","safeFoodCertNo":"HG250640498"},{"id":"safefood-gyeongnam-HG250640013","name":"청년피자 진해남문점","address":"경상남도 창원시 진해구 웅천동로106번길 19(남문에코프라자 1층 104호 남문동)","jibunAddress":"","phone":"","foodType":"","mainFood":"","designatedDate":"2025-09-30","lat":35.14443217531215,"lng":128.67158887020904,"region":"경상남도","source":"safefood","safeFoodGrade":"매우우수","safeFoodCertNo":"HG250640013"},{"id":"safefood-gyeongnam-HG250639355","name":"마듀 신세계백화점마산점","address":"경상남도 창원시 마산합포구 합포로 251(신세계백화점 지하1층 산호동)","jibunAddress":"","phone":"","foodType":"","mainFood":"","designatedDate":"2025-09-17","lat":35.187469394,"lng":128.560855079,"region":"경상남도","source":"safefood","safeFoodGrade":"매우우수","safeFoodCertNo":"HG250639355"},{"id":"safefood-gyeongnam-HG250640063","name":"교촌치킨하동점","address":"경상남도 하동군 하동읍 시장3길 6(주1, 1층)","jibunAddress":"","phone":"","foodType":"","mainFood":"","designatedDate":"2025-10-01","lat":35.069919526,"lng":127.746841773,"region":"경상남도","source":"safefood","safeFoodGrade":"매우우수","safeFoodCertNo":"HG250640063"},{"id":"safefood-gyeongnam-HG250640302","name":"교촌치킨 칠원점","address":"경상남도 함안군 칠원읍 용산1길 27(1층)","jibunAddress":"","phone":"","foodType":"","mainFood":"","designatedDate":"2025-10-15","lat":35.309790313,"lng":128.515502779,"region":"경상남도","source":"safefood","safeFoodGrade":"매우우수","safeFoodCertNo":"HG250640302"},{"id":"safefood-gyeongnam-HG250640476","name":"일도아구","address":"경상남도 창원시 의창구 동읍 주남로71번길 7-5(1층)","jibunAddress":"","phone":"","foodType":"","mainFood":"","designatedDate":"2025-10-20","lat":35.26458553,"lng":128.621168894,"region":"경상남도","source":"safefood","safeFoodGrade":"매우우수","safeFoodCertNo":"HG250640476"},{"id":"safefood-gyeongnam-HG230009684","name":"60계 양산북정점","address":"경상남도 양산시 중앙로 312(1층 북정동)","jibunAddress":"","phone":"","foodType":"","mainFood":"","designatedDate":"2025-11-29","lat":35.356555053,"lng":129.042629719,"region":"경상남도","source":"safefood","safeFoodGrade":"매우우수","safeFoodCertNo":"HG230009684"},{"id":"safefood-gyeongnam-HG250640060","name":"안민옥샤브칼국수 마산가포점","address":"경상남도 창원시 마산합포구 가포신항북2길 5-2(1층 가포동)","jibunAddress":"","phone":"","foodType":"","mainFood":"","designatedDate":"2025-10-01","lat":35.187469394,"lng":128.560855079,"region":"경상남도","source":"safefood","safeFoodGrade":"매우우수","safeFoodCertNo":"HG250640060"},{"id":"safefood-gyeongnam-HG230008642","name":"네네치킨","address":"경상남도 창원시 성산구 외동반림로 206(무학아파트 2층 20호 용호동)","jibunAddress":"","phone":"","foodType":"","mainFood":"","designatedDate":"2025-11-10","lat":35.222440649,"lng":128.676636652,"region":"경상남도","source":"safefood","safeFoodGrade":"매우우수","safeFoodCertNo":"HG230008642"},{"id":"safefood-gyeongnam-HG250639853","name":"별미미풍국수","address":"경상남도 통영시 무전4길 47(태민빌딩 1층 2호 북신동)","jibunAddress":"","phone":"","foodType":"","mainFood":"","designatedDate":"2025-09-26","lat":34.859120639,"lng":128.423594289,"region":"경상남도","source":"safefood","safeFoodGrade":"매우우수","safeFoodCertNo":"HG250639853"},{"id":"safefood-gyeongnam-HG230009436","name":"만나충무김밥통영강구안점","address":"경상남도 통영시 통영해안로 317-1(1~2층 항남동)","jibunAddress":"","phone":"","foodType":"","mainFood":"","designatedDate":"2025-11-23","lat":34.841051305,"lng":128.420442434,"region":"경상남도","source":"safefood","safeFoodGrade":"매우우수","safeFoodCertNo":"HG230009436"},{"id":"safefood-gyeongnam-HG230008574","name":"피자덕통영점","address":"경상남도 통영시 무전4길 46-7(1층 좌측호 북신동)","jibunAddress":"","phone":"","foodType":"","mainFood":"","designatedDate":"2025-11-09","lat":34.859120639,"lng":128.423594289,"region":"경상남도","source":"safefood","safeFoodGrade":"매우우수","safeFoodCertNo":"HG230008574"},{"id":"safefood-gyeongnam-HG230008573","name":"순이네","address":"경상남도 통영시 광도면 죽림5로 47(3,4호)","jibunAddress":"","phone":"","foodType":"","mainFood":"","designatedDate":"2025-11-09","lat":34.886145823,"lng":128.418824469,"region":"경상남도","source":"safefood","safeFoodGrade":"매우우수","safeFoodCertNo":"HG230008573"},{"id":"safefood-gyeongnam-HG190001964","name":"스타벅스경남사천DT점","address":"경상남도 사천시 사천읍 사천대로 1844(1,2층)","jibunAddress":"","phone":"","foodType":"","mainFood":"","designatedDate":"2025-11-26","lat":35.08094715,"lng":128.089387786,"region":"경상남도","source":"safefood","safeFoodGrade":"매우우수","safeFoodCertNo":"HG190001964"},{"id":"safefood-gyeongnam-HG230008640","name":"(주)푸르웰 거제해양Park커피점","address":"경상남도 거제시 장목면 거가대로 1068(1층)","jibunAddress":"","phone":"","foodType":"","mainFood":"","designatedDate":"2025-11-10","lat":34.939506136,"lng":128.7176748,"region":"경상남도","source":"safefood","safeFoodGrade":"매우우수","safeFoodCertNo":"HG230008640"},{"id":"safefood-gyeongnam-HG230008638","name":"(주)푸르웰 거제해양Park 푸드코트2","address":"경상남도 거제시 장목면 거가대로 1068(1층)","jibunAddress":"","phone":"","foodType":"","mainFood":"","designatedDate":"2025-11-10","lat":34.939506136,"lng":128.7176748,"region":"경상남도","source":"safefood","safeFoodGrade":"매우우수","safeFoodCertNo":"HG230008638"},{"id":"safefood-gyeongnam-HG230008639","name":"(주)푸르웰 거제해양Park 푸드코트1","address":"경상남도 거제시 장목면 거가대로 1068(1층)","jibunAddress":"","phone":"","foodType":"","mainFood":"","designatedDate":"2025-11-10","lat":34.939506136,"lng":128.7176748,"region":"경상남도","source":"safefood","safeFoodGrade":"매우우수","safeFoodCertNo":"HG230008639"},{"id":"safefood-gyeongnam-HG230008886","name":"던킨창원한마음점","address":"경상남도 창원시 의창구 용동로57번길 18(시그니처 M 제1동 101호 사림동)","jibunAddress":"","phone":"","foodType":"","mainFood":"","designatedDate":"2025-11-13","lat":35.26458553,"lng":128.621168894,"region":"경상남도","source":"safefood","safeFoodGrade":"매우우수","safeFoodCertNo":"HG230008886"},{"id":"safefood-gyeongnam-HG250639794","name":"카페로빈(CAFE로빈)","address":"경상남도 진주시 초전북로39번길 5-23(1층 초전동)","jibunAddress":"","phone":"","foodType":"","mainFood":"","designatedDate":"2025-09-25","lat":35.208296146,"lng":128.110648723,"region":"경상남도","source":"safefood","safeFoodGrade":"매우우수","safeFoodCertNo":"HG250639794"},{"id":"safefood-gyeongnam-HG250640591","name":"하바네로 롯데백화점창원점","address":"경상남도 창원시 성산구 중앙대로 124(롯데백화점 6층 일부호 상남동)","jibunAddress":"","phone":"","foodType":"","mainFood":"","designatedDate":"2025-10-22","lat":35.222440649,"lng":128.676636652,"region":"경상남도","source":"safefood","safeFoodGrade":"매우우수","safeFoodCertNo":"HG250640591"},{"id":"safefood-gyeongnam-HG190001544","name":"스타벅스창원역DT","address":"경상남도 창원시 의창구 의창대로 68(1,2층 팔용동)","jibunAddress":"","phone":"","foodType":"","mainFood":"","designatedDate":"2025-11-01","lat":35.26458553,"lng":128.621168894,"region":"경상남도","source":"safefood","safeFoodGrade":"매우우수","safeFoodCertNo":"HG190001544"},{"id":"safefood-gyeongnam-HG190002430","name":"스타벅스창원상남중앙점","address":"경상남도 창원시 성산구 마디미로 20(유탑빌딩 103호,202호 상남동)","jibunAddress":"","phone":"","foodType":"","mainFood":"","designatedDate":"2025-12-12","lat":35.222440649,"lng":128.676636652,"region":"경상남도","source":"safefood","safeFoodGrade":"매우우수","safeFoodCertNo":"HG190002430"},{"id":"safefood-gyeongnam-HG220004133","name":"호식이두마리치킨 하이점","address":"경상남도 고성군 하이면 남일로 408","jibunAddress":"","phone":"","foodType":"","mainFood":"","designatedDate":"2024-06-07","lat":34.909668998,"lng":128.154641513,"region":"경상남도","source":"safefood","safeFoodGrade":"매우우수","safeFoodCertNo":"HG220004133"},{"id":"safefood-gyeongnam-HG250639793","name":"설초당","address":"경상남도 진주시 금산면 월아산로1440번길 62(1층일부)","jibunAddress":"","phone":"","foodType":"","mainFood":"","designatedDate":"2025-09-25","lat":35.212251433,"lng":128.150456889,"region":"경상남도","source":"safefood","safeFoodGrade":"매우우수","safeFoodCertNo":"HG250639793"},{"id":"safefood-gyeongnam-HG250640411","name":"진주팥죽칠암점","address":"경상남도 진주시 진주대로 928-1(1층일부 칠암동)","jibunAddress":"","phone":"","foodType":"","mainFood":"","designatedDate":"2025-10-20","lat":35.193976,"lng":128.060696,"region":"경상남도","source":"safefood","safeFoodGrade":"매우우수","safeFoodCertNo":"HG250640411"},{"id":"safefood-gyeongnam-HG190001971","name":"스타벅스진주경상대점","address":"경상남도 진주시 진주대로 510(가좌동, 104호,105호,2층 202호)","jibunAddress":"","phone":"","foodType":"","mainFood":"","designatedDate":"2025-11-26","lat":35.193976,"lng":128.060696,"region":"경상남도","source":"safefood","safeFoodGrade":"매우우수","safeFoodCertNo":"HG190001971"},{"id":"safefood-gyeongnam-HG250639091","name":"청년피자함양점","address":"경상남도 함양군 함양읍 고운로 80(1층)","jibunAddress":"","phone":"","foodType":"","mainFood":"","designatedDate":"2025-09-11","lat":35.517530677,"lng":127.726433126,"region":"경상남도","source":"safefood","safeFoodGrade":"좋음","safeFoodCertNo":"HG250639091"},{"id":"safefood-gyeongnam-HG210010236","name":"투썸플레이스 김해주촌선천지구점","address":"경상남도 김해시 주촌면 선천남로 62(SW타워 103,202호)","jibunAddress":"","phone":"","foodType":"","mainFood":"","designatedDate":"2025-11-01","lat":35.244950119,"lng":128.833029284,"region":"경상남도","source":"safefood","safeFoodGrade":"매우우수","safeFoodCertNo":"HG210010236"},{"id":"safefood-gyeongnam-HG230008311","name":"호식이두마리 화개장터점","address":"경상남도 하동군 화개면 화개로 23(주2동)","jibunAddress":"","phone":"","foodType":"","mainFood":"","designatedDate":"2025-10-31","lat":35.22990694,"lng":127.644253854,"region":"경상남도","source":"safefood","safeFoodGrade":"매우우수","safeFoodCertNo":"HG230008311"},{"id":"safefood-gyeongnam-HG190002613","name":"배스킨라빈스석전점","address":"경상남도 창원시 마산회원구 율림교로 13(104-1호, 105호 양덕동)","jibunAddress":"","phone":"","foodType":"","mainFood":"","designatedDate":"2025-12-20","lat":35.230872174,"lng":128.577452822,"region":"경상남도","source":"safefood","safeFoodGrade":"매우우수","safeFoodCertNo":"HG190002613"},{"id":"safefood-gyeongnam-HG250640685","name":"뚜레쥬르창원성원점","address":"경상남도 창원시 성산구 가음로15번길 52(1층 107,108호 남양동, 성원2차 아파트상가)","jibunAddress":"","phone":"","foodType":"","mainFood":"","designatedDate":"2025-10-27","lat":35.222440649,"lng":128.676636652,"region":"경상남도","source":"safefood","safeFoodGrade":"매우우수","safeFoodCertNo":"HG250640685"},{"id":"safefood-gyeongnam-HG170000385","name":"예지원식당","address":"경상남도 창원시 성산구 마디미로64번길 1(상남동,미광빌딩9층901호)","jibunAddress":"","phone":"","foodType":"","mainFood":"","designatedDate":"2025-10-16","lat":35.222440649,"lng":128.676636652,"region":"경상남도","source":"safefood","safeFoodGrade":"매우우수","safeFoodCertNo":"HG170000385"},{"id":"safefood-gyeongnam-HG230009129","name":"빽다방 진주시청점","address":"경상남도 진주시 도동천로 112(1층일부 상대동)","jibunAddress":"","phone":"","foodType":"","mainFood":"","designatedDate":"2025-11-20","lat":35.179113,"lng":128.109509,"region":"경상남도","source":"safefood","safeFoodGrade":"매우우수","safeFoodCertNo":"HG230009129"},{"id":"safefood-gyeongnam-HG240624233","name":"BBQ 김해주촌점","address":"경상남도 김해시 주촌면 선지로58번길 1(1층)","jibunAddress":"","phone":"","foodType":"","mainFood":"","designatedDate":"2024-06-07","lat":35.244950119,"lng":128.833029284,"region":"경상남도","source":"safefood","safeFoodGrade":"우수","safeFoodCertNo":"HG240624233"},{"id":"safefood-gyeongnam-HG250639662","name":"봉명동내커피진주1호점","address":"경상남도 진주시 돗골로 118(1층일부 상대동)","jibunAddress":"","phone":"","foodType":"","mainFood":"","designatedDate":"2025-09-23","lat":35.18069631,"lng":128.111958735,"region":"경상남도","source":"safefood","safeFoodGrade":"매우우수","safeFoodCertNo":"HG250639662"},{"id":"safefood-gyeongnam-HG250639332","name":"한솥도시락 창원어반브릭스점","address":"경상남도 창원시 의창구 중동중앙로 47(어반브릭스 STUDIO STREET MALL 1층 1092호 중동)","jibunAddress":"","phone":"","foodType":"","mainFood":"","designatedDate":"2025-09-17","lat":35.26458553,"lng":128.621168894,"region":"경상남도","source":"safefood","safeFoodGrade":"매우우수","safeFoodCertNo":"HG250639332"},{"id":"safefood-gyeongnam-HG230009158","name":"투썸플레이스김해인제대점","address":"경상남도 김해시 인제로 192(어방동)","jibunAddress":"","phone":"","foodType":"","mainFood":"","designatedDate":"2025-11-20","lat":35.236834926,"lng":128.904170991,"region":"경상남도","source":"safefood","safeFoodGrade":"매우우수","safeFoodCertNo":"HG230009158"},{"id":"safefood-gyeongnam-HG190002201","name":"고래사롯데백화점창원점","address":"경상남도 창원시 성산구 중앙대로 124(롯데백화점 지하1층 상남동)","jibunAddress":"","phone":"","foodType":"","mainFood":"","designatedDate":"2025-12-09","lat":35.222440649,"lng":128.676636652,"region":"경상남도","source":"safefood","safeFoodGrade":"매우우수","safeFoodCertNo":"HG190002201"},{"id":"safefood-gyeongnam-HG230010258","name":"이디야 남해 앵강점","address":"경상남도 남해군 이동면 남서대로 208","jibunAddress":"","phone":"","foodType":"","mainFood":"","designatedDate":"2025-12-15","lat":34.76760963,"lng":127.951520323,"region":"경상남도","source":"safefood","safeFoodGrade":"매우우수","safeFoodCertNo":"HG230010258"},{"id":"safefood-gyeongnam-HG230009766","name":"투썸플레이스","address":"경상남도 창원시 성산구 원이대로773번길 27-1(1, 2층 사파동)","jibunAddress":"","phone":"","foodType":"","mainFood":"","designatedDate":"2025-12-04","lat":35.222440649,"lng":128.676636652,"region":"경상남도","source":"safefood","safeFoodGrade":"매우우수","safeFoodCertNo":"HG230009766"},{"id":"safefood-gyeongnam-HG230009154","name":"60계치킨 어방점","address":"경상남도 김해시 인제로 149(1층 어방동)","jibunAddress":"","phone":"","foodType":"","mainFood":"","designatedDate":"2025-11-20","lat":35.236834926,"lng":128.904170991,"region":"경상남도","source":"safefood","safeFoodGrade":"매우우수","safeFoodCertNo":"HG230009154"},{"id":"safefood-gyeongnam-HG210010737","name":"60계 경남의령점","address":"경상남도 의령군 의령읍 의병로20길 56","jibunAddress":"","phone":"","foodType":"","mainFood":"","designatedDate":"2025-11-17","lat":35.320286735,"lng":128.261535716,"region":"경상남도","source":"safefood","safeFoodGrade":"매우우수","safeFoodCertNo":"HG210010737"},{"id":"safefood-gyeongnam-HG240000014","name":"비에이치씨(BHC)진주초장점","address":"경상남도 진주시 초전북로39번길 6-22(1층 일부 초전동)","jibunAddress":"","phone":"","foodType":"","mainFood":"","designatedDate":"2026-01-08","lat":35.208296146,"lng":128.110648723,"region":"경상남도","source":"safefood","safeFoodGrade":"매우우수","safeFoodCertNo":"HG240000014"},{"id":"safefood-gyeongnam-HG190001362","name":"두리원","address":"경상남도 거제시 거제대로 4943-8(1~2층 장평동)","jibunAddress":"","phone":"","foodType":"","mainFood":"","designatedDate":"2025-10-22","lat":34.889058137,"lng":128.596684675,"region":"경상남도","source":"safefood","safeFoodGrade":"매우우수","safeFoodCertNo":"HG190001362"},{"id":"safefood-gyeongnam-HG210010819","name":"던킨도너츠대안점","address":"경상남도 진주시 진주대로 1061(대안동,1,2층)","jibunAddress":"","phone":"","foodType":"","mainFood":"","designatedDate":"2025-11-22","lat":35.193976,"lng":128.060696,"region":"경상남도","source":"safefood","safeFoodGrade":"매우우수","safeFoodCertNo":"HG210010819"},{"id":"safefood-gyeongnam-HG250640035","name":"맘스터치 진교점","address":"경상남도 하동군 진교면 진교시장길 17-11(1층)","jibunAddress":"","phone":"","foodType":"","mainFood":"","designatedDate":"2025-10-01","lat":35.023902233,"lng":127.906730761,"region":"경상남도","source":"safefood","safeFoodGrade":"좋음","safeFoodCertNo":"HG250640035"},{"id":"safefood-gyeongnam-HG250639149","name":"본죽앤비빔밥까페","address":"경상남도 창원시 의창구 중동중앙로 47(어반브릭스스튜디오스트리트몰 1층 1082호 중동)","jibunAddress":"","phone":"","foodType":"","mainFood":"","designatedDate":"2025-09-11","lat":35.26458553,"lng":128.621168894,"region":"경상남도","source":"safefood","safeFoodGrade":"매우우수","safeFoodCertNo":"HG250639149"},{"id":"safefood-gyeongnam-HG250638809","name":"해쉬커피석동진해경찰서점","address":"경상남도 창원시 진해구 석동로 51(세븐코아 1층 105일부호 석동)","jibunAddress":"","phone":"","foodType":"","mainFood":"","designatedDate":"2025-09-04","lat":35.14443217531215,"lng":128.67158887020904,"region":"경상남도","source":"safefood","safeFoodGrade":"매우우수","safeFoodCertNo":"HG250638809"},{"id":"safefood-gyeongnam-HG250638803","name":"앤티앤스창원","address":"경상남도 창원시 의창구 창원대로 415(1층 X2,Y2호 팔용동, 홈플러스창원점)","jibunAddress":"","phone":"","foodType":"","mainFood":"","designatedDate":"2025-09-04","lat":35.26458553,"lng":128.621168894,"region":"경상남도","source":"safefood","safeFoodGrade":"매우우수","safeFoodCertNo":"HG250638803"},{"id":"safefood-gyeongnam-HG250639377","name":"맘스터치 칠원광려천점","address":"경상남도 함안군 칠원읍 오곡로 92(1층)","jibunAddress":"","phone":"","foodType":"","mainFood":"","designatedDate":"2025-09-17","lat":35.309790313,"lng":128.515502779,"region":"경상남도","source":"safefood","safeFoodGrade":"매우우수","safeFoodCertNo":"HG250639377"},{"id":"safefood-gyeongnam-HG250640031","name":"맘스터치","address":"경상남도 창원시 마산합포구 진동면 진북산업로 23(지상1층)","jibunAddress":"","phone":"","foodType":"","mainFood":"","designatedDate":"2025-10-01","lat":35.187469394,"lng":128.560855079,"region":"경상남도","source":"safefood","safeFoodGrade":"매우우수","safeFoodCertNo":"HG250640031"},{"id":"safefood-gyeongnam-HG250639266","name":"배스킨라빈스(진해석동점)","address":"경상남도 창원시 진해구 진해대로776번길 29(1층 이동)","jibunAddress":"","phone":"","foodType":"","mainFood":"","designatedDate":"2025-09-17","lat":35.14443217531215,"lng":128.67158887020904,"region":"경상남도","source":"safefood","safeFoodGrade":"매우우수","safeFoodCertNo":"HG250639266"},{"id":"safefood-gyeongnam-HG250639519","name":"맘스피자(창원가음점)","address":"경상남도 창원시 성산구 원이대로883번길 15-24(가음동상가 2층 201호 일부호 가음동)","jibunAddress":"","phone":"","foodType":"","mainFood":"","designatedDate":"2025-09-19","lat":35.222440649,"lng":128.676636652,"region":"경상남도","source":"safefood","safeFoodGrade":"매우우수","safeFoodCertNo":"HG250639519"},{"id":"safefood-gyeongnam-HG250639518","name":"맘스터치(창원가음점)","address":"경상남도 창원시 성산구 원이대로883번길 15-24(가음동상가 2층 201호 일부호 가음동)","jibunAddress":"","phone":"","foodType":"","mainFood":"","designatedDate":"2025-09-19","lat":35.222440649,"lng":128.676636652,"region":"경상남도","source":"safefood","safeFoodGrade":"매우우수","safeFoodCertNo":"HG250639518"},{"id":"safefood-gyeongnam-HG250638389","name":"본죽&비빔밥 마산합포오동점","address":"경상남도 창원시 마산합포구 회원천북길 491(1층 102호 산호동, 산호 베스티움)","jibunAddress":"","phone":"","foodType":"","mainFood":"","designatedDate":"2025-08-28","lat":35.187469394,"lng":128.560855079,"region":"경상남도","source":"safefood","safeFoodGrade":"매우우수","safeFoodCertNo":"HG250638389"},{"id":"safefood-gyeongnam-HG210010723","name":"배스킨라빈스 경남의령점","address":"경상남도 의령군 의령읍 행복로1길 87","jibunAddress":"","phone":"","foodType":"","mainFood":"","designatedDate":"2025-11-17","lat":35.320286735,"lng":128.261535716,"region":"경상남도","source":"safefood","safeFoodGrade":"매우우수","safeFoodCertNo":"HG210010723"},{"id":"safefood-gyeongnam-HG250638312","name":"패스네이트(fascinate)","address":"경상남도 양산시 물금읍 범구2길 20(1층 일부호)","jibunAddress":"","phone":"","foodType":"","mainFood":"","designatedDate":"2025-08-26","lat":35.3268002893287,"lng":129.011151832235,"region":"경상남도","source":"safefood","safeFoodGrade":"매우우수","safeFoodCertNo":"HG250638312"},{"id":"safefood-gyeongnam-HG250638388","name":"메가엠지씨커피 창원대원힐스테이트점","address":"경상남도 창원시 성산구 창원천로 60(118동 107호 대원동)","jibunAddress":"","phone":"","foodType":"","mainFood":"","designatedDate":"2025-08-28","lat":35.222440649,"lng":128.676636652,"region":"경상남도","source":"safefood","safeFoodGrade":"매우우수","safeFoodCertNo":"HG250638388"},{"id":"safefood-gyeongnam-HG190001613","name":"스타벅스마산해안대로DT점","address":"경상남도 창원시 마산합포구 해안대로 383(1~3층 오동동)","jibunAddress":"","phone":"","foodType":"","mainFood":"","designatedDate":"2025-11-11","lat":35.187469394,"lng":128.560855079,"region":"경상남도","source":"safefood","safeFoodGrade":"매우우수","safeFoodCertNo":"HG190001613"},{"id":"safefood-gyeongnam-HG210010260","name":"육십계창원상남점","address":"경상남도 창원시 성산구 동산로 122(스카이웰빙파크 2층 214-1호 상남동)","jibunAddress":"","phone":"","foodType":"","mainFood":"","designatedDate":"2025-11-01","lat":35.222440649,"lng":128.676636652,"region":"경상남도","source":"safefood","safeFoodGrade":"매우우수","safeFoodCertNo":"HG210010260"},{"id":"safefood-gyeongnam-HG250639141","name":"바나프레소(banapresso) 거제옥포점","address":"경상남도 거제시 거제대로 3730(영진상가 2층 205,206호 옥포동)","jibunAddress":"","phone":"","foodType":"","mainFood":"","designatedDate":"2025-09-11","lat":34.889058137,"lng":128.596684675,"region":"경상남도","source":"safefood","safeFoodGrade":"매우우수","safeFoodCertNo":"HG250639141"},{"id":"safefood-gyeongnam-HG210010240","name":"60계 경남창원감계점","address":"경상남도 창원시 의창구 북면 감계로110번길 54-15(1층 107호)","jibunAddress":"","phone":"","foodType":"","mainFood":"","designatedDate":"2025-11-01","lat":35.26458553,"lng":128.621168894,"region":"경상남도","source":"safefood","safeFoodGrade":"매우우수","safeFoodCertNo":"HG210010240"},{"id":"safefood-gyeongnam-HG250640318","name":"미소비 카페","address":"경상남도 창원시 마산회원구 마산역광장로 18(KTX 마산역 내  3층 합성동)","jibunAddress":"","phone":"","foodType":"","mainFood":"","designatedDate":"2025-10-20","lat":35.230872174,"lng":128.577452822,"region":"경상남도","source":"safefood","safeFoodGrade":"매우우수","safeFoodCertNo":"HG250640318"},{"id":"safefood-gyeongnam-HG250637784","name":"뮤즈펍레스토랑","address":"경상남도 창원시 성산구 중앙대로 69(지하1층 중앙동)","jibunAddress":"","phone":"","foodType":"","mainFood":"","designatedDate":"2025-08-18","lat":35.222440649,"lng":128.676636652,"region":"경상남도","source":"safefood","safeFoodGrade":"매우우수","safeFoodCertNo":"HG250637784"},{"id":"safefood-gyeongnam-HG250639687","name":"마성떡볶이 창원중앙역점","address":"경상남도 창원시 의창구 상남로 381(창원중앙역사 1층 용동)","jibunAddress":"","phone":"","foodType":"","mainFood":"","designatedDate":"2025-09-24","lat":35.26458553,"lng":128.621168894,"region":"경상남도","source":"safefood","safeFoodGrade":"좋음","safeFoodCertNo":"HG250639687"},{"id":"safefood-gyeongnam-HG250637783","name":"비스트로미 창원점","address":"경상남도 창원시 성산구 중앙대로 69(중앙동,1층)","jibunAddress":"","phone":"","foodType":"","mainFood":"","designatedDate":"2025-08-18","lat":35.222440649,"lng":128.676636652,"region":"경상남도","source":"safefood","safeFoodGrade":"매우우수","safeFoodCertNo":"HG250637783"},{"id":"safefood-gyeongnam-HG250638682","name":"하이오커피 창원법원점","address":"경상남도 창원시 성산구 창이대로706번길 4-24(남양빌딩 1층 102호 사파동)","jibunAddress":"","phone":"","foodType":"","mainFood":"","designatedDate":"2025-09-02","lat":35.222440649,"lng":128.676636652,"region":"경상남도","source":"safefood","safeFoodGrade":"매우우수","safeFoodCertNo":"HG250638682"},{"id":"safefood-gyeongnam-HG190002420","name":"스타벅스 창원상남동","address":"경상남도 창원시 성산구 상남로 132(상남동,외1필지 1층)","jibunAddress":"","phone":"","foodType":"","mainFood":"","designatedDate":"2025-12-12","lat":35.222440649,"lng":128.676636652,"region":"경상남도","source":"safefood","safeFoodGrade":"매우우수","safeFoodCertNo":"HG190002420"},{"id":"safefood-gyeongnam-HG250638092","name":"김씨마구로","address":"경상남도 창원시 마산합포구 합포로 251(신세계백화점 지하1층호 산호동)","jibunAddress":"","phone":"","foodType":"","mainFood":"","designatedDate":"2025-08-22","lat":35.187469394,"lng":128.560855079,"region":"경상남도","source":"safefood","safeFoodGrade":"매우우수","safeFoodCertNo":"HG250638092"},{"id":"safefood-gyeongnam-HG190001360","name":"스타벅스 마산회원DT점","address":"경상남도 창원시 마산회원구 3·15대로 518(1,2층 회원동)","jibunAddress":"","phone":"","foodType":"","mainFood":"","designatedDate":"2025-10-22","lat":35.230872174,"lng":128.577452822,"region":"경상남도","source":"safefood","safeFoodGrade":"매우우수","safeFoodCertNo":"HG190001360"},{"id":"safefood-gyeongnam-HG250638219","name":"씨유유니시티점","address":"경상남도 창원시 의창구 중동로 60(창원중동유니시티4단지425동 104호일부 중동)","jibunAddress":"","phone":"","foodType":"","mainFood":"","designatedDate":"2025-08-26","lat":35.26458553,"lng":128.621168894,"region":"경상남도","source":"safefood","safeFoodGrade":"매우우수","safeFoodCertNo":"HG250638219"},{"id":"safefood-gyeongnam-HG230008134","name":"아르떼마르코 창원맥스점","address":"경상남도 창원시 성산구 중앙대로 123(롯데마트 창원중앙점 1층 일부호 중앙동)","jibunAddress":"","phone":"","foodType":"","mainFood":"","designatedDate":"2025-10-30","lat":35.222440649,"lng":128.676636652,"region":"경상남도","source":"safefood","safeFoodGrade":"매우우수","safeFoodCertNo":"HG230008134"},{"id":"safefood-gyeongnam-HG230008135","name":"모스버거 창원맥스점","address":"경상남도 창원시 성산구 중앙대로 123(롯데마트 창원중앙점 1층 일부호 중앙동)","jibunAddress":"","phone":"","foodType":"","mainFood":"","designatedDate":"2025-10-30","lat":35.222440649,"lng":128.676636652,"region":"경상남도","source":"safefood","safeFoodGrade":"매우우수","safeFoodCertNo":"HG230008135"},{"id":"safefood-gyeongnam-HG250638629","name":"60계경남사천사남점","address":"경상남도 사천시 사남면 월성1길 92","jibunAddress":"","phone":"","foodType":"","mainFood":"","designatedDate":"2025-09-02","lat":35.067695923,"lng":128.07612216,"region":"경상남도","source":"safefood","safeFoodGrade":"매우우수","safeFoodCertNo":"HG250638629"},{"id":"safefood-gyeongnam-HG250638293","name":"물금역달팽이식당","address":"경상남도 양산시 물금읍 버들2길 7-10(1층)","jibunAddress":"","phone":"","foodType":"","mainFood":"","designatedDate":"2025-08-26","lat":35.3268002893287,"lng":129.011151832235,"region":"경상남도","source":"safefood","safeFoodGrade":"매우우수","safeFoodCertNo":"HG250638293"},{"id":"safefood-gyeongnam-HG220010483","name":"사랑해베이글 함양점","address":"경상남도 함양군 함양읍 상림2길 22(1층)","jibunAddress":"","phone":"","foodType":"","mainFood":"","designatedDate":"2024-11-29","lat":35.517530677,"lng":127.726433126,"region":"경상남도","source":"safefood","safeFoodGrade":"매우우수","safeFoodCertNo":"HG220010483"},{"id":"safefood-gyeongnam-HG250637781","name":"플러스82&요아잇 창원의창점","address":"경상남도 창원시 의창구 도계로18번길 6(101호 도계동, 빨마데파트)","jibunAddress":"","phone":"","foodType":"","mainFood":"","designatedDate":"2025-08-18","lat":35.26458553,"lng":128.621168894,"region":"경상남도","source":"safefood","safeFoodGrade":"우수","safeFoodCertNo":"HG250637781"},{"id":"safefood-gyeongnam-HG230007775","name":"메가엠지씨커피 거제아주점(MEGA MGC COFFEE)","address":"경상남도 거제시 아주1로2길 30(1일부층 아주동)","jibunAddress":"","phone":"","foodType":"","mainFood":"","designatedDate":"2025-10-18","lat":34.867079974,"lng":128.686684847,"region":"경상남도","source":"safefood","safeFoodGrade":"매우우수","safeFoodCertNo":"HG230007775"},{"id":"safefood-gyeongnam-HG250638619","name":"교촌치킨동읍점","address":"경상남도 창원시 의창구 동읍 의창대로 860(1층)","jibunAddress":"","phone":"","foodType":"","mainFood":"","designatedDate":"2025-09-02","lat":35.26458553,"lng":128.621168894,"region":"경상남도","source":"safefood","safeFoodGrade":"좋음","safeFoodCertNo":"HG250638619"},{"id":"safefood-gyeongnam-HG250638070","name":"일품전골","address":"경상남도 창원시 마산합포구 합포로 251(지하1층 산호동)","jibunAddress":"","phone":"","foodType":"","mainFood":"","designatedDate":"2025-08-22","lat":35.187469394,"lng":128.560855079,"region":"경상남도","source":"safefood","safeFoodGrade":"매우우수","safeFoodCertNo":"HG250638070"},{"id":"safefood-gyeongnam-HG230007669","name":"브라운베이글통영죽림점","address":"경상남도 통영시 광도면 죽림3로 43(강남빌딩 101호)","jibunAddress":"","phone":"","foodType":"","mainFood":"","designatedDate":"2025-10-16","lat":34.886145823,"lng":128.418824469,"region":"경상남도","source":"safefood","safeFoodGrade":"매우우수","safeFoodCertNo":"HG230007669"},