[{"id":"safefood-jeonbuk-HG260003029","name":"메가엠지씨커피 임실상통교차로점","address":"전북특별자치도 임실군 임실읍 운수로 51","jibunAddress":"","phone":"","foodType":"","mainFood":"","designatedDate":"2026-03-31","lat":35.626948881,"lng":127.298372535,"region":"전북특별자치도","source":"safefood","safeFoodGrade":"적합","safeFoodCertNo":"HG260003029"},{"id":"safefood-jeonbuk-HG260003031","name":"메가엠지씨커피 무주리조트점","address":"전북특별자치도 무주군 설천면 구천동로 1102(1층 101호)","jibunAddress":"","phone":"","foodType":"","mainFood":"","designatedDate":"2026-03-31","lat":35.900270276,"lng":127.776933175,"region":"전북특별자치도","source":"safefood","safeFoodGrade":"적합","safeFoodCertNo":"HG260003031"},{"id":"safefood-jeonbuk-HG260002964","name":"씨유금산사IC점","address":"전북특별자치도 김제시 금산면 금평로 342","jibunAddress":"","phone":"","foodType":"","mainFood":"","designatedDate":"2026-03-30","lat":35.717714778,"lng":127.041024143,"region":"전북특별자치도","source":"safefood","safeFoodGrade":"적합","safeFoodCertNo":"HG260002964"},{"id":"safefood-jeonbuk-HG260002963","name":"롯데리아 김제점","address":"전북특별자치도 김제시 동서로 170(요촌동)","jibunAddress":"","phone":"","foodType":"","mainFood":"","designatedDate":"2026-03-30","lat":35.799353658,"lng":126.887457238,"region":"전북특별자치도","source":"safefood","safeFoodGrade":"적합","safeFoodCertNo":"HG260002963"},{"id":"safefood-jeonbuk-HG260003040","name":"씨유 정읍서영점","address":"전북특별자치도 정읍시 수성로 19(수성동)","jibunAddress":"","phone":"","foodType":"","mainFood":"","designatedDate":"2026-03-31","lat":35.580553569,"lng":126.854249205,"region":"전북특별자치도","source":"safefood","safeFoodGrade":"적합","safeFoodCertNo":"HG260003040"},{"id":"safefood-jeonbuk-HG260003224","name":"맘스터치 익산황등점","address":"전북특별자치도 익산시 황등면 황등로 91(1층)","jibunAddress":"","phone":"","foodType":"","mainFood":"","designatedDate":"2026-04-03","lat":36.001385197,"lng":126.944739471,"region":"전북특별자치도","source":"safefood","safeFoodGrade":"적합","safeFoodCertNo":"HG260003224"},{"id":"safefood-jeonbuk-HG260003192","name":"맘스피자 익산황등점","address":"전북특별자치도 익산시 황등면 황등로 91(1층)","jibunAddress":"","phone":"","foodType":"","mainFood":"","designatedDate":"2026-04-03","lat":36.001385197,"lng":126.944739471,"region":"전북특별자치도","source":"safefood","safeFoodGrade":"적합","safeFoodCertNo":"HG260003192"},{"id":"safefood-jeonbuk-HG260003181","name":"컴포즈커피전북사대부고점","address":"전북특별자치도 전주시 덕진구 조경단로 105(1층 일부호 금암동)","jibunAddress":"","phone":"","foodType":"","mainFood":"","designatedDate":"2026-04-02","lat":35.846560658,"lng":127.120637568,"region":"전북특별자치도","source":"safefood","safeFoodGrade":"적합","safeFoodCertNo":"HG260003181"},{"id":"safefood-jeonbuk-HG260003180","name":"스타벅스전북대병원점","address":"전북특별자치도 전주시 덕진구 건지로 20(전북대학교병원 본관1층 금암동)","jibunAddress":"","phone":"","foodType":"","mainFood":"","designatedDate":"2026-04-02","lat":35.846560658,"lng":127.120637568,"region":"전북특별자치도","source":"safefood","safeFoodGrade":"적합","safeFoodCertNo":"HG260003180"},{"id":"safefood-jeonbuk-HG260003179","name":"이디야전북대병원점","address":"전북특별자치도 전주시 덕진구 건지로 20(1층 금암동, 어린이병원 및 호흡기질환전문센터 1층)","jibunAddress":"","phone":"","foodType":"","mainFood":"","designatedDate":"2026-04-02","lat":35.846560658,"lng":127.120637568,"region":"전북특별자치도","source":"safefood","safeFoodGrade":"적합","safeFoodCertNo":"HG260003179"},{"id":"safefood-jeonbuk-HG260002705","name":"빽다방전주아중견훤로점","address":"전북특별자치도 전주시 덕진구 견훤로 233(1층 일부호 인후동1가)","jibunAddress":"","phone":"","foodType":"","mainFood":"","designatedDate":"2026-03-20","lat":35.846560658,"lng":127.120637568,"region":"전북특별자치도","source":"safefood","safeFoodGrade":"적합","safeFoodCertNo":"HG260002705"},{"id":"safefood-jeonbuk-HG260002704","name":"오일내전북대점","address":"전북특별자치도 전주시 덕진구 명륜3길 20(덕진동1가)","jibunAddress":"","phone":"","foodType":"","mainFood":"","designatedDate":"2026-03-20","lat":35.846560658,"lng":127.120637568,"region":"전북특별자치도","source":"safefood","safeFoodGrade":"적합","safeFoodCertNo":"HG260002704"},{"id":"safefood-jeonbuk-HG260003226","name":"꾸브라꼬숯불두마리치킨 효자점","address":"전북특별자치도 전주시 완산구 홍산1길 7(1층 139호 효자동2가, 전주 효자 SK Leaders VIEW)","jibunAddress":"","phone":"","foodType":"","mainFood":"","designatedDate":"2026-04-03","lat":35.817944035,"lng":127.14117396,"region":"전북특별자치도","source":"safefood","safeFoodGrade":"적합","safeFoodCertNo":"HG260003226"},{"id":"safefood-jeonbuk-HG260002915","name":"불닭발땡초동대문엽기떡볶이 효자점","address":"전북특별자치도 전주시 완산구 거마평로 169(102호 효자동1가)","jibunAddress":"","phone":"","foodType":"","mainFood":"","designatedDate":"2026-03-27","lat":35.817944035,"lng":127.14117396,"region":"전북특별자치도","source":"safefood","safeFoodGrade":"적합","safeFoodCertNo":"HG260002915"},{"id":"safefood-jeonbuk-HG260002914","name":"파스쿠찌 전주중화산점","address":"전북특별자치도 전주시 완산구 효자로 290(1, 2층 101, 201호 중화산동2가)","jibunAddress":"","phone":"","foodType":"","mainFood":"","designatedDate":"2026-03-27","lat":35.817944035,"lng":127.14117396,"region":"전북특별자치도","source":"safefood","safeFoodGrade":"적합","safeFoodCertNo":"HG260002914"},{"id":"safefood-jeonbuk-HG240001904","name":"교촌치킨 평화점","address":"전북특별자치도 전주시 완산구 평화로 132(104,105,107호 평화동2가)","jibunAddress":"","phone":"","foodType":"","mainFood":"","designatedDate":"2026-03-26","lat":35.817944035,"lng":127.14117396,"region":"전북특별자치도","source":"safefood","safeFoodGrade":"적합","safeFoodCertNo":"HG240001904"},{"id":"safefood-jeonbuk-HG260002552","name":"서울깍두기 전북도청점","address":"전북특별자치도 전주시 완산구 홍산4길 6(1층 106.107호 효자동3가, 골든시티)","jibunAddress":"","phone":"","foodType":"","mainFood":"","designatedDate":"2026-03-18","lat":35.817944035,"lng":127.14117396,"region":"전북특별자치도","source":"safefood","safeFoodGrade":"적합","safeFoodCertNo":"HG260002552"},{"id":"safefood-jeonbuk-HG260002506","name":"메가엠지씨커피 전주서부시장점","address":"전북특별자치도 전주시 완산구 용머리로 165(1층 효자동1가)","jibunAddress":"","phone":"","foodType":"","mainFood":"","designatedDate":"2026-03-17","lat":35.817944035,"lng":127.14117396,"region":"전북특별자치도","source":"safefood","safeFoodGrade":"적합","safeFoodCertNo":"HG260002506"},{"id":"safefood-jeonbuk-HG220004342","name":"이디야커피 전주효자우전점","address":"전북특별자치도 전주시 완산구 우전2길 34(1층 효자동2가)","jibunAddress":"","phone":"","foodType":"","mainFood":"","designatedDate":"2024-06-13","lat":35.817944035,"lng":127.14117396,"region":"전북특별자치도","source":"safefood","safeFoodGrade":"매우우수","safeFoodCertNo":"HG220004342"},{"id":"safefood-jeonbuk-HG260002217","name":"파리바게트서일점","address":"전북특별자치도 전주시 완산구 서신로 106(1층 서신동)","jibunAddress":"","phone":"","foodType":"","mainFood":"","designatedDate":"2026-03-10","lat":35.817944035,"lng":127.14117396,"region":"전북특별자치도","source":"safefood","safeFoodGrade":"매우우수","safeFoodCertNo":"HG260002217"},{"id":"safefood-jeonbuk-HG260002476","name":"우지커피 전주혁신도시점","address":"전북특별자치도 완주군 이서면 기지로 54(104호)","jibunAddress":"","phone":"","foodType":"","mainFood":"","designatedDate":"2026-03-12","lat":35.801843506,"lng":127.025788907,"region":"전북특별자치도","source":"safefood","safeFoodGrade":"매우우수","safeFoodCertNo":"HG260002476"},{"id":"safefood-jeonbuk-HG260002444","name":"컴포즈커피 완주이서점","address":"전북특별자치도 완주군 이서면 이서로 90-7(1층)","jibunAddress":"","phone":"","foodType":"","mainFood":"","designatedDate":"2026-03-12","lat":35.801843506,"lng":127.025788907,"region":"전북특별자치도","source":"safefood","safeFoodGrade":"매우우수","safeFoodCertNo":"HG260002444"},{"id":"safefood-jeonbuk-HG260002186","name":"투썸플레이스 격포점","address":"전북특별자치도 부안군 변산면 변산해변로 147","jibunAddress":"","phone":"","foodType":"","mainFood":"","designatedDate":"2026-03-10","lat":35.688663221,"lng":126.558562314,"region":"전북특별자치도","source":"safefood","safeFoodGrade":"매우우수","safeFoodCertNo":"HG260002186"},{"id":"safefood-jeonbuk-HG260002181","name":"이디야(수송점)","address":"전북특별자치도 군산시 수송로 174(수송동)","jibunAddress":"","phone":"","foodType":"","mainFood":"","designatedDate":"2026-03-10","lat":35.964463355,"lng":126.730276825,"region":"전북특별자치도","source":"safefood","safeFoodGrade":"매우우수","safeFoodCertNo":"HG260002181"},{"id":"safefood-jeonbuk-HG260002392","name":"푸디스트(주)덕유산하행휴게소점(공차)","address":"전북특별자치도 장수군 계북면 통영대전고속도로 147(덕유산휴게소)","jibunAddress":"","phone":"","foodType":"","mainFood":"","designatedDate":"2026-03-12","lat":35.801960667,"lng":127.657527996,"region":"전북특별자치도","source":"safefood","safeFoodGrade":"매우우수","safeFoodCertNo":"HG260002392"},{"id":"safefood-jeonbuk-HG200005500","name":"이서(순천)휴게소 탐앤탐스","address":"전북특별자치도 완주군 이서면 호남고속도로 161","jibunAddress":"","phone":"","foodType":"","mainFood":"","designatedDate":"2024-08-13","lat":35.801843506,"lng":127.025788907,"region":"전북특별자치도","source":"safefood","safeFoodGrade":"매우우수","safeFoodCertNo":"HG200005500"},{"id":"safefood-jeonbuk-HG260001146","name":"에그박스 익산역점","address":"전북특별자치도 익산시 익산대로 153(익산역 3층 창인동2가)","jibunAddress":"","phone":"","foodType":"","mainFood":"","designatedDate":"2026-02-04","lat":35.953110472,"lng":126.952600153,"region":"전북특별자치도","source":"safefood","safeFoodGrade":"매우우수","safeFoodCertNo":"HG260001146"},{"id":"safefood-jeonbuk-HG250002451","name":"설빙삼천점","address":"전북특별자치도 전주시 완산구 용리로 35(2층 삼천동1가)","jibunAddress":"","phone":"","foodType":"","mainFood":"","designatedDate":"2025-03-20","lat":35.817944035,"lng":127.14117396,"region":"전북특별자치도","source":"safefood","safeFoodGrade":"매우우수","safeFoodCertNo":"HG250002451"},{"id":"safefood-jeonbuk-HG260002134","name":"나운동춘천닭갈비","address":"전북특별자치도 군산시 수송로 32(1층 나운동)","jibunAddress":"","phone":"","foodType":"","mainFood":"","designatedDate":"2026-03-10","lat":35.964463355,"lng":126.730276825,"region":"전북특별자치도","source":"safefood","safeFoodGrade":"우수","safeFoodCertNo":"HG260002134"},{"id":"safefood-jeonbuk-HG240001475","name":"씨유전주효자일등점","address":"전북특별자치도 전주시 완산구 효자천변2길 17(1층 효자동1가)","jibunAddress":"","phone":"","foodType":"","mainFood":"","designatedDate":"2026-03-13","lat":35.817944035,"lng":127.14117396,"region":"전북특별자치도","source":"safefood","safeFoodGrade":"매우우수","safeFoodCertNo":"HG240001475"},{"id":"safefood-jeonbuk-HG240001455","name":"설빙전북대점","address":"전북특별자치도 전주시 덕진구 명륜4길 19(덕진동1가)","jibunAddress":"","phone":"","foodType":"","mainFood":"","designatedDate":"2026-03-13","lat":35.846560658,"lng":127.120637568,"region":"전북특별자치도","source":"safefood","safeFoodGrade":"우수","safeFoodCertNo":"HG240001455"},{"id":"safefood-jeonbuk-HG240001456","name":"설빙(서신점)","address":"전북특별자치도 전주시 완산구 당산로 114(서신동)","jibunAddress":"","phone":"","foodType":"","mainFood":"","designatedDate":"2026-03-13","lat":35.817944035,"lng":127.14117396,"region":"전북특별자치도","source":"safefood","safeFoodGrade":"매우우수","safeFoodCertNo":"HG240001456"},{"id":"safefood-jeonbuk-HG220001910","name":"스타벅스 군산조촌DT점","address":"전북특별자치도 군산시 번영로 133(조촌동)","jibunAddress":"","phone":"","foodType":"","mainFood":"","designatedDate":"2026-03-25","lat":35.962965922,"lng":126.757758978,"region":"전북특별자치도","source":"safefood","safeFoodGrade":"매우우수","safeFoodCertNo":"HG220001910"},{"id":"safefood-jeonbuk-HG260002358","name":"스타벅스 익산원광대점","address":"전북특별자치도 익산시 무왕로 888(1층 신동)","jibunAddress":"","phone":"","foodType":"","mainFood":"","designatedDate":"2026-03-12","lat":35.967725005,"lng":127.016576438,"region":"전북특별자치도","source":"safefood","safeFoodGrade":"매우우수","safeFoodCertNo":"HG260002358"},{"id":"safefood-jeonbuk-HG220011088","name":"고창고인돌(하)휴게소 (델리만쥬외)","address":"전북특별자치도 고창군 신림면 서해안고속도로 81","jibunAddress":"","phone":"","foodType":"","mainFood":"","designatedDate":"2024-12-13","lat":35.468928579,"lng":126.673805215,"region":"전북특별자치도","source":"safefood","safeFoodGrade":"매우우수","safeFoodCertNo":"HG220011088"},{"id":"safefood-jeonbuk-HG250639877","name":"고창고인돌(하)휴게소 (푸드코너)","address":"전북특별자치도 고창군 신림면 서해안고속도로 81","jibunAddress":"","phone":"","foodType":"","mainFood":"","designatedDate":"2025-09-29","lat":35.468928579,"lng":126.673805215,"region":"전북특별자치도","source":"safefood","safeFoodGrade":"매우우수","safeFoodCertNo":"HG250639877"},{"id":"safefood-jeonbuk-HG250639873","name":"고창고인돌(하)휴게소 (카츠랑)","address":"전북특별자치도 고창군 신림면 서해안고속도로 81","jibunAddress":"","phone":"","foodType":"","mainFood":"","designatedDate":"2025-09-29","lat":35.468928579,"lng":126.673805215,"region":"전북특별자치도","source":"safefood","safeFoodGrade":"매우우수","safeFoodCertNo":"HG250639873"},{"id":"safefood-jeonbuk-HG190002117","name":"고창고인돌(하)휴게소 스며드낵(우동)","address":"전북특별자치도 고창군 신림면 서해안고속도로 81","jibunAddress":"","phone":"","foodType":"","mainFood":"","designatedDate":"2025-11-29","lat":35.468928579,"lng":126.673805215,"region":"전북특별자치도","source":"safefood","safeFoodGrade":"매우우수","safeFoodCertNo":"HG190002117"},{"id":"safefood-jeonbuk-HG190002124","name":"고창고인돌(하)휴게소 스며드낵(라면)","address":"전북특별자치도 고창군 신림면 서해안고속도로 81","jibunAddress":"","phone":"","foodType":"","mainFood":"","designatedDate":"2025-11-29","lat":35.468928579,"lng":126.673805215,"region":"전북특별자치도","source":"safefood","safeFoodGrade":"매우우수","safeFoodCertNo":"HG190002124"},{"id":"safefood-jeonbuk-HG250639876","name":"고창고인돌(하)휴게소 (스낵코너)","address":"전북특별자치도 고창군 신림면 서해안고속도로 81","jibunAddress":"","phone":"","foodType":"","mainFood":"","designatedDate":"2025-09-29","lat":35.468928579,"lng":126.673805215,"region":"전북특별자치도","source":"safefood","safeFoodGrade":"매우우수","safeFoodCertNo":"HG250639876"},{"id":"safefood-jeonbuk-HG210008368","name":"고창고인돌(하)휴게소(소담뚝배기)","address":"전북특별자치도 고창군 신림면 서해안고속도로 81","jibunAddress":"","phone":"","foodType":"","mainFood":"","designatedDate":"2025-08-31","lat":35.468928579,"lng":126.673805215,"region":"전북특별자치도","source":"safefood","safeFoodGrade":"매우우수","safeFoodCertNo":"HG210008368"},{"id":"safefood-jeonbuk-HG220008753","name":"고창고인돌(상)휴게소(호두과자,델리만쥬외)","address":"전북특별자치도 고창군 고창읍 서해안고속도로 80","jibunAddress":"","phone":"","foodType":"","mainFood":"","designatedDate":"2024-10-13","lat":35.434296653,"lng":126.702283308,"region":"전북특별자치도","source":"safefood","safeFoodGrade":"매우우수","safeFoodCertNo":"HG220008753"},{"id":"safefood-jeonbuk-HG230005970","name":"고창고인돌(상)휴게소(스낵1,스낵2)","address":"전북특별자치도 고창군 고창읍 서해안고속도로 80","jibunAddress":"","phone":"","foodType":"","mainFood":"","designatedDate":"2025-08-21","lat":35.434296653,"lng":126.702283308,"region":"전북특별자치도","source":"safefood","safeFoodGrade":"매우우수","safeFoodCertNo":"HG230005970"},{"id":"safefood-jeonbuk-HG200005594","name":"신가네 고창상행휴게소점","address":"전북특별자치도 고창군 고창읍 서해안고속도로 80","jibunAddress":"","phone":"","foodType":"","mainFood":"","designatedDate":"2024-08-18","lat":35.434296653,"lng":126.702283308,"region":"전북특별자치도","source":"safefood","safeFoodGrade":"매우우수","safeFoodCertNo":"HG200005594"},{"id":"safefood-jeonbuk-HG250641718","name":"고창고인돌(상)휴게소 스며드낵(우동)","address":"전북특별자치도 고창군 고창읍 신월리 263-19","jibunAddress":"","phone":"","foodType":"","mainFood":"","designatedDate":"2025-11-19","lat":35.434296653,"lng":126.702283308,"region":"전북특별자치도","source":"safefood","safeFoodGrade":"매우우수","safeFoodCertNo":"HG250641718"},{"id":"safefood-jeonbuk-HG200005581","name":"고창고인돌(상)휴게소 스며드낵(라면)","address":"전북특별자치도 고창군 고창읍 신월리 263-19","jibunAddress":"","phone":"","foodType":"","mainFood":"","designatedDate":"2024-08-18","lat":35.434296653,"lng":126.702283308,"region":"전북특별자치도","source":"safefood","safeFoodGrade":"매우우수","safeFoodCertNo":"HG200005581"},{"id":"safefood-jeonbuk-HG170000317","name":"고창고인돌(상)휴게소(소담뚝배기)","address":"전북특별자치도 고창군 고창읍 서해안고속도로 80","jibunAddress":"","phone":"","foodType":"","mainFood":"","designatedDate":"2025-09-26","lat":35.434296653,"lng":126.702283308,"region":"전북특별자치도","source":"safefood","safeFoodGrade":"매우우수","safeFoodCertNo":"HG170000317"},{"id":"safefood-jeonbuk-HG260002346","name":"봉구스 밥버거 진안점","address":"전북특별자치도 진안군 진안읍 진용로 13(1층)","jibunAddress":"","phone":"","foodType":"","mainFood":"","designatedDate":"2026-03-12","lat":35.792865888,"lng":127.433491894,"region":"전북특별자치도","source":"safefood","safeFoodGrade":"우수","safeFoodCertNo":"HG260002346"},{"id":"safefood-jeonbuk-HG260002459","name":"읍천리382 전주중앙점","address":"전북특별자치도 완주군 이서면 기지로 41(성원빌딩 101호)","jibunAddress":"","phone":"","foodType":"","mainFood":"","designatedDate":"2026-03-12","lat":35.801843506,"lng":127.025788907,"region":"전북특별자치도","source":"safefood","safeFoodGrade":"매우우수","safeFoodCertNo":"HG260002459"},{"id":"safefood-jeonbuk-HG200004558","name":"푸디스트(주) 덕유산하행휴게소점(투썸플레이스)","address":"전북특별자치도 장수군 계북면 통영대전고속도로 147","jibunAddress":"","phone":"","foodType":"","mainFood":"","designatedDate":"2024-07-16","lat":35.801960667,"lng":127.657527996,"region":"전북특별자치도","source":"safefood","safeFoodGrade":"매우우수","safeFoodCertNo":"HG200004558"},{"id":"safefood-jeonbuk-HG210005493","name":"푸디스트(주) 덕유산하행휴게소점(알밤빵, 군밤)","address":"전북특별자치도 장수군 계북면 통영대전고속도로 147(덕유산휴게소)","jibunAddress":"","phone":"","foodType":"","mainFood":"","designatedDate":"2025-06-22","lat":35.801960667,"lng":127.657527996,"region":"전북특별자치도","source":"safefood","safeFoodGrade":"매우우수","safeFoodCertNo":"HG210005493"},{"id":"safefood-jeonbuk-HG200004555","name":"푸디스트(주) 덕유산하행휴게소점(스며드낵, 하오츠미엔)","address":"전북특별자치도 장수군 계북면 통영대전고속도로 147","jibunAddress":"","phone":"","foodType":"","mainFood":"","designatedDate":"2024-07-16","lat":35.801960667,"lng":127.657527996,"region":"전북특별자치도","source":"safefood","safeFoodGrade":"매우우수","safeFoodCertNo":"HG200004555"},{"id":"safefood-jeonbuk-HG260002322","name":"푸디스트(주)덕유산상행휴게소점(공차)","address":"전북특별자치도 무주군 안성면 통영대전고속도로 148(덕유산고속도로휴게소)","jibunAddress":"","phone":"","foodType":"","mainFood":"","designatedDate":"2026-03-12","lat":35.841848322,"lng":127.682317286,"region":"전북특별자치도","source":"safefood","safeFoodGrade":"매우우수","safeFoodCertNo":"HG260002322"},{"id":"safefood-jeonbuk-HG260001881","name":"또봉이통닭 전북정읍수성점","address":"전북특별자치도 정읍시 수성로 51-1(수성동)","jibunAddress":"","phone":"","foodType":"","mainFood":"","designatedDate":"2026-03-10","lat":35.580553569,"lng":126.854249205,"region":"전북특별자치도","source":"safefood","safeFoodGrade":"우수","safeFoodCertNo":"HG260001881"},{"id":"safefood-jeonbuk-HG240000887","name":"빽다방 전주마전점","address":"전북특별자치도 전주시 완산구 홍산로 375(효자동3가)","jibunAddress":"","phone":"","foodType":"","mainFood":"","designatedDate":"2026-02-15","lat":35.817944035,"lng":127.14117396,"region":"전북특별자치도","source":"safefood","safeFoodGrade":"매우우수","safeFoodCertNo":"HG240000887"},{"id":"safefood-jeonbuk-HG260001875","name":"꽈배기진 부안점","address":"전북특별자치도 부안군 부안읍 수정길 13(디저트카페)","jibunAddress":"","phone":"","foodType":"","mainFood":"","designatedDate":"2026-03-10","lat":35.730542852,"lng":126.735884107,"region":"전북특별자치도","source":"safefood","safeFoodGrade":"매우우수","safeFoodCertNo":"HG260001875"},{"id":"safefood-jeonbuk-HG260001861","name":"머든전북대점","address":"전북특별자치도 전주시 덕진구 명륜4길 18-5(1층 일부호 금암동)","jibunAddress":"","phone":"","foodType":"","mainFood":"","designatedDate":"2026-03-10","lat":35.846560658,"lng":127.120637568,"region":"전북특별자치도","source":"safefood","safeFoodGrade":"매우우수","safeFoodCertNo":"HG260001861"},{"id":"safefood-jeonbuk-HG260001414","name":"팔각낙원","address":"전북특별자치도 부안군 변산면 변산해변로 39","jibunAddress":"","phone":"","foodType":"","mainFood":"","designatedDate":"2026-02-12","lat":35.688663221,"lng":126.558562314,"region":"전북특별자치도","source":"safefood","safeFoodGrade":"매우우수","safeFoodCertNo":"HG260001414"},{"id":"safefood-jeonbuk-HG250636004","name":"컴포즈커피전주인후부영점","address":"전북특별자치도 전주시 덕진구 무삼지로 43(1층 일부호 인후동1가)","jibunAddress":"","phone":"","foodType":"","mainFood":"","designatedDate":"2025-07-14","lat":35.846560658,"lng":127.120637568,"region":"전북특별자치도","source":"safefood","safeFoodGrade":"매우우수","safeFoodCertNo":"HG250636004"},{"id":"safefood-jeonbuk-HG260001819","name":"기영이 숯불두마리치킨 전주중화산점","address":"전북특별자치도 전주시 완산구 인정4길 14-1(1층 중화산동2가)","jibunAddress":"","phone":"","foodType":"","mainFood":"","designatedDate":"2026-03-10","lat":35.817944035,"lng":127.14117396,"region":"전북특별자치도","source":"safefood","safeFoodGrade":"매우우수","safeFoodCertNo":"HG260001819"},{"id":"safefood-jeonbuk-HG260001691","name":"달하빛","address":"전북특별자치도 정읍시 천변로 308(상가동 102,103호 시기동)","jibunAddress":"","phone":"","foodType":"","mainFood":"","designatedDate":"2026-02-26","lat":35.558857976,"lng":126.857752814,"region":"전북특별자치도","source":"safefood","safeFoodGrade":"매우우수","safeFoodCertNo":"HG260001691"},{"id":"safefood-jeonbuk-HG260001808","name":"네네치킨앤봉구스밥버거혁신점","address":"전북특별자치도 전주시 덕진구 오공로 136(1층 101호,102호 만성동)","jibunAddress":"","phone":"","foodType":"","mainFood":"","designatedDate":"2026-03-10","lat":35.846560658,"lng":127.120637568,"region":"전북특별자치도","source":"safefood","safeFoodGrade":"매우우수","safeFoodCertNo":"HG260001808"},{"id":"safefood-jeonbuk-HG260001792","name":"파리바게뜨전주서신점","address":"전북특별자치도 전주시 완산구 당산로 46(서신동)","jibunAddress":"","phone":"","foodType":"","mainFood":"","designatedDate":"2026-03-10","lat":35.817944035,"lng":127.14117396,"region":"전북특별자치도","source":"safefood","safeFoodGrade":"매우우수","safeFoodCertNo":"HG260001792"},{"id":"safefood-jeonbuk-HG260000253","name":"파리바게뜨 전주근영점","address":"전북특별자치도 전주시 완산구 어은로 19(1층 중화산동2가)","jibunAddress":"","phone":"","foodType":"","mainFood":"","designatedDate":"2026-01-13","lat":35.817944035,"lng":127.14117396,"region":"전북특별자치도","source":"safefood","safeFoodGrade":"우수","safeFoodCertNo":"HG260000253"},{"id":"safefood-jeonbuk-HG260001791","name":"파리바게트삼례점","address":"전북특별자치도 완주군 삼례읍 동학로 40","jibunAddress":"","phone":"","foodType":"","mainFood":"","designatedDate":"2026-03-10","lat":35.923180991,"lng":127.108132149,"region":"전북특별자치도","source":"safefood","safeFoodGrade":"매우우수","safeFoodCertNo":"HG260001791"},{"id":"safefood-jeonbuk-HG260001788","name":"(유)으뜸 버거킹","address":"전북특별자치도 군산시 대학로 543(1층 미룡동)","jibunAddress":"","phone":"","foodType":"","mainFood":"","designatedDate":"2026-03-10","lat":35.9827595,"lng":126.708185799,"region":"전북특별자치도","source":"safefood","safeFoodGrade":"매우우수","safeFoodCertNo":"HG260001788"},{"id":"safefood-jeonbuk-HG260001784","name":"파리바게뜨 완주삼봉점","address":"전북특별자치도 완주군 삼례읍 삼봉1로 2(101,102호)","jibunAddress":"","phone":"","foodType":"","mainFood":"","designatedDate":"2026-03-10","lat":35.923180991,"lng":127.108132149,"region":"전북특별자치도","source":"safefood","safeFoodGrade":"매우우수","safeFoodCertNo":"HG260001784"},{"id":"safefood-jeonbuk-HG250641001","name":"컴포즈커피 전주신일강변점","address":"전북특별자치도 전주시 완산구 강변로 98-1(상가1동 1층 103호 삼천동1가)","jibunAddress":"","phone":"","foodType":"","mainFood":"","designatedDate":"2025-11-03","lat":35.817944035,"lng":127.14117396,"region":"전북특별자치도","source":"safefood","safeFoodGrade":"매우우수","safeFoodCertNo":"HG250641001"},{"id":"safefood-jeonbuk-HG260001686","name":"청화루","address":"전북특별자치도 정읍시 상동중앙로 67-5(상동)","jibunAddress":"","phone":"","foodType":"","mainFood":"","designatedDate":"2026-02-26","lat":35.558627862,"lng":126.867721216,"region":"전북특별자치도","source":"safefood","safeFoodGrade":"매우우수","safeFoodCertNo":"HG260001686"},{"id":"safefood-jeonbuk-HG240628080","name":"지티커피 전주점(GT커피 전주점)","address":"전북특별자치도 전주시 완산구 홍산로 261(1층 효자동2가)","jibunAddress":"","phone":"","foodType":"","mainFood":"","designatedDate":"2024-08-29","lat":35.817944035,"lng":127.14117396,"region":"전북특별자치도","source":"safefood","safeFoodGrade":"매우우수","safeFoodCertNo":"HG240628080"},{"id":"safefood-jeonbuk-HG190002677","name":"(주)한남여산휴게소 하행선제1호점","address":"전북특별자치도 익산시 여산면 호남고속도로 191(1층)","jibunAddress":"","phone":"","foodType":"","mainFood":"","designatedDate":"2025-12-24","lat":36.048033842,"lng":127.105312054,"region":"전북특별자치도","source":"safefood","safeFoodGrade":"매우우수","safeFoodCertNo":"HG190002677"},{"id":"safefood-jeonbuk-HG190002687","name":"(주)한남여산휴게소하행선제1호점","address":"전북특별자치도 익산시 여산면 호남고속도로 191(1층)","jibunAddress":"","phone":"","foodType":"","mainFood":"","designatedDate":"2025-12-24","lat":36.048033842,"lng":127.105312054,"region":"전북특별자치도","source":"safefood","safeFoodGrade":"매우우수","safeFoodCertNo":"HG190002687"},{"id":"safefood-jeonbuk-HG190002542","name":"(주)한남여산휴게소하행선제7호점(드롭탑)","address":"전북특별자치도 익산시 여산면 호남고속도로 191(1층 여산휴게소하행선 내)","jibunAddress":"","phone":"","foodType":"","mainFood":"","designatedDate":"2025-12-18","lat":36.048033842,"lng":127.105312054,"region":"전북특별자치도","source":"safefood","safeFoodGrade":"매우우수","safeFoodCertNo":"HG190002542"},{"id":"safefood-jeonbuk-HG190002539","name":"(주)한남여산휴게소하행선제5호점","address":"전북특별자치도 익산시 여산면 호남고속도로 191(1층)","jibunAddress":"","phone":"","foodType":"","mainFood":"","designatedDate":"2025-12-18","lat":36.048033842,"lng":127.105312054,"region":"전북특별자치도","source":"safefood","safeFoodGrade":"매우우수","safeFoodCertNo":"HG190002539"},{"id":"safefood-jeonbuk-HG190002541","name":"(주)한남여산휴게소하행선제4호점","address":"전북특별자치도 익산시 여산면 호남고속도로 191(1층)","jibunAddress":"","phone":"","foodType":"","mainFood":"","designatedDate":"2025-12-18","lat":36.048033842,"lng":127.105312054,"region":"전북특별자치도","source":"safefood","safeFoodGrade":"매우우수","safeFoodCertNo":"HG190002541"},{"id":"safefood-jeonbuk-HG190002667","name":"(주)한남여산휴게소하행선제3호점","address":"전북특별자치도 익산시 여산면 호남고속도로 191(1층)","jibunAddress":"","phone":"","foodType":"","mainFood":"","designatedDate":"2025-12-24","lat":36.048033842,"lng":127.105312054,"region":"전북특별자치도","source":"safefood","safeFoodGrade":"매우우수","safeFoodCertNo":"HG190002667"},{"id":"safefood-jeonbuk-HG190002703","name":"(주)한남여산휴게소하행선제2호점","address":"전북특별자치도 익산시 여산면 호남고속도로 191(1층)","jibunAddress":"","phone":"","foodType":"","mainFood":"","designatedDate":"2025-12-24","lat":36.048033842,"lng":127.105312054,"region":"전북특별자치도","source":"safefood","safeFoodGrade":"매우우수","safeFoodCertNo":"HG190002703"},{"id":"safefood-jeonbuk-HG190002697","name":"(주)한남여산휴게소하행선제2호점","address":"전북특별자치도 익산시 여산면 호남고속도로 191(1층)","jibunAddress":"","phone":"","foodType":"","mainFood":"","designatedDate":"2025-12-24","lat":36.048033842,"lng":127.105312054,"region":"전북특별자치도","source":"safefood","safeFoodGrade":"매우우수","safeFoodCertNo":"HG190002697"},{"id":"safefood-jeonbuk-HG190002543","name":"(주)한남여산휴게소하행선커피온전히","address":"전북특별자치도 익산시 여산면 호남고속도로 191(여산휴게소 하행선 1층)","jibunAddress":"","phone":"","foodType":"","mainFood":"","designatedDate":"2025-12-18","lat":36.048033842,"lng":127.105312054,"region":"전북특별자치도","source":"safefood","safeFoodGrade":"매우우수","safeFoodCertNo":"HG190002543"},{"id":"safefood-jeonbuk-HG260001740","name":"카페분홍","address":"전북특별자치도 정읍시 샘골로 74(수성동)","jibunAddress":"","phone":"","foodType":"","mainFood":"","designatedDate":"2026-03-03","lat":35.581218566,"lng":126.858364035,"region":"전북특별자치도","source":"safefood","safeFoodGrade":"매우우수","safeFoodCertNo":"HG260001740"},{"id":"safefood-jeonbuk-HG260001385","name":"메가엠지씨커피 전주상산타운점","address":"전북특별자치도 전주시 완산구 거마평로 113(상가3동 1층 102호, 104호 효자동1가)","jibunAddress":"","phone":"","foodType":"","mainFood":"","designatedDate":"2026-02-12","lat":35.817944035,"lng":127.14117396,"region":"전북특별자치도","source":"safefood","safeFoodGrade":"매우우수","safeFoodCertNo":"HG260001385"},{"id":"safefood-jeonbuk-HG260001733","name":"본죽&비빔밥 익산송학점","address":"전북특별자치도 익산시 배산로 44(송학동,1층)","jibunAddress":"","phone":"","foodType":"","mainFood":"","designatedDate":"2026-03-03","lat":35.944400145,"lng":126.938177476,"region":"전북특별자치도","source":"safefood","safeFoodGrade":"매우우수","safeFoodCertNo":"HG260001733"},{"id":"safefood-jeonbuk-HG260001728","name":"BISTRO BRILL(비스트로 브릴)","address":"전북특별자치도 부안군 부안읍 부풍로 69(1층)","jibunAddress":"","phone":"","foodType":"","mainFood":"","designatedDate":"2026-03-03","lat":35.730542852,"lng":126.735884107,"region":"전북특별자치도","source":"safefood","safeFoodGrade":"매우우수","safeFoodCertNo":"HG260001728"},{"id":"safefood-jeonbuk-HG260001727","name":"불닭발땡초동대문엽기떡볶이송천점","address":"전북특별자치도 전주시 덕진구 천마산로 73(1층 108호 송천동2가)","jibunAddress":"","phone":"","foodType":"","mainFood":"","designatedDate":"2026-03-03","lat":35.846560658,"lng":127.120637568,"region":"전북특별자치도","source":"safefood","safeFoodGrade":"매우우수","safeFoodCertNo":"HG260001727"},{"id":"safefood-jeonbuk-HG260001720","name":"파리바게뜨전주팔복점","address":"전북특별자치도 전주시 덕진구 기린대로 695(팔복동2가)","jibunAddress":"","phone":"","foodType":"","mainFood":"","designatedDate":"2026-03-03","lat":35.846560658,"lng":127.120637568,"region":"전북특별자치도","source":"safefood","safeFoodGrade":"매우우수","safeFoodCertNo":"HG260001720"},{"id":"safefood-jeonbuk-HG260001719","name":"파리바게뜨전주터미널점","address":"전북특별자치도 전주시 덕진구 가리내로 34(1층 101호 금암동)","jibunAddress":"","phone":"","foodType":"","mainFood":"","designatedDate":"2026-03-03","lat":35.846560658,"lng":127.120637568,"region":"전북특별자치도","source":"safefood","safeFoodGrade":"매우우수","safeFoodCertNo":"HG260001719"},{"id":"safefood-jeonbuk-HG260001664","name":"파리바게뜨 군산미장센트럴점","address":"전북특별자치도 군산시 수송로 285(105호 미장동, 한림빌딩)","jibunAddress":"","phone":"","foodType":"","mainFood":"","designatedDate":"2026-02-26","lat":35.964463355,"lng":126.730276825,"region":"전북특별자치도","source":"safefood","safeFoodGrade":"매우우수","safeFoodCertNo":"HG260001664"},{"id":"safefood-jeonbuk-HG260001607","name":"파리바게뜨전주만성점","address":"전북특별자치도 전주시 덕진구 만성중앙로 45(센터프라자 104, 105호 만성동)","jibunAddress":"","phone":"","foodType":"","mainFood":"","designatedDate":"2026-02-23","lat":35.846560658,"lng":127.120637568,"region":"전북특별자치도","source":"safefood","safeFoodGrade":"매우우수","safeFoodCertNo":"HG260001607"},{"id":"safefood-jeonbuk-HG260001717","name":"정읍수성점파리바게뜨","address":"전북특별자치도 정읍시 수성로 44(수성동)","jibunAddress":"","phone":"","foodType":"","mainFood":"","designatedDate":"2026-03-03","lat":35.580553569,"lng":126.854249205,"region":"전북특별자치도","source":"safefood","safeFoodGrade":"매우우수","safeFoodCertNo":"HG260001717"},{"id":"safefood-jeonbuk-HG260001605","name":"파리바게트하가점","address":"전북특별자치도 전주시 덕진구 가련산로 18(덕진동2가,리더빌딩 102호)","jibunAddress":"","phone":"","foodType":"","mainFood":"","designatedDate":"2026-02-23","lat":35.846560658,"lng":127.120637568,"region":"전북특별자치도","source":"safefood","safeFoodGrade":"우수","safeFoodCertNo":"HG260001605"},{"id":"safefood-jeonbuk-HG260001663","name":"파리바게트군산보람점","address":"전북특별자치도 군산시 대학로 243(106호 나운동, 보람더하임아파트 상가)","jibunAddress":"","phone":"","foodType":"","mainFood":"","designatedDate":"2026-02-26","lat":35.9827595,"lng":126.708185799,"region":"전북특별자치도","source":"safefood","safeFoodGrade":"매우우수","safeFoodCertNo":"HG260001663"},{"id":"safefood-jeonbuk-HG240000877","name":"선비꼬마김밥 전주삼천","address":"전북특별자치도 전주시 완산구 용리로 143(상가동 1층 8호 삼천동1가)","jibunAddress":"","phone":"","foodType":"","mainFood":"","designatedDate":"2026-02-15","lat":35.817944035,"lng":127.14117396,"region":"전북특별자치도","source":"safefood","safeFoodGrade":"매우우수","safeFoodCertNo":"HG240000877"},{"id":"safefood-jeonbuk-HG240000790","name":"스토리오브라망 익산역점","address":"전북특별자치도 익산시 익산대로 153(3층 창인동2가)","jibunAddress":"","phone":"","foodType":"","mainFood":"","designatedDate":"2026-02-07","lat":35.953110472,"lng":126.952600153,"region":"전북특별자치도","source":"safefood","safeFoodGrade":"매우우수","safeFoodCertNo":"HG240000790"},{"id":"safefood-jeonbuk-HG240000791","name":"카페스토리웨이","address":"전북특별자치도 익산시 익산대로 153(3층 창인동2가)","jibunAddress":"","phone":"","foodType":"","mainFood":"","designatedDate":"2026-02-07","lat":35.953110472,"lng":126.952600153,"region":"전북특별자치도","source":"safefood","safeFoodGrade":"매우우수","safeFoodCertNo":"HG240000791"},{"id":"safefood-jeonbuk-HG200004556","name":"푸디스트(주)덕유산하행휴게소점(호두과자,알뜰,스낵,십원빵)","address":"전북특별자치도 장수군 계북면 통영대전고속도로 147","jibunAddress":"","phone":"","foodType":"","mainFood":"","designatedDate":"2024-07-16","lat":35.801960667,"lng":127.657527996,"region":"전북특별자치도","source":"safefood","safeFoodGrade":"매우우수","safeFoodCertNo":"HG200004556"},{"id":"safefood-jeonbuk-HG220003690","name":"공주알밤빵","address":"전북특별자치도 무주군 안성면 통영대전고속도로 148(덕유산고속도로휴게소)","jibunAddress":"","phone":"","foodType":"","mainFood":"","designatedDate":"2024-05-23","lat":35.841848322,"lng":127.682317286,"region":"전북특별자치도","source":"safefood","safeFoodGrade":"매우우수","safeFoodCertNo":"HG220003690"},{"id":"safefood-jeonbuk-HG240001027","name":"진안마이산(익산)휴게소-한식ㆍ양식ㆍ새집추어탕","address":"전북특별자치도 진안군 진안읍 익산장수고속도로 41","jibunAddress":"","phone":"","foodType":"","mainFood":"","designatedDate":"2026-02-22","lat":35.792865888,"lng":127.433491894,"region":"전북특별자치도","source":"safefood","safeFoodGrade":"매우우수","safeFoodCertNo":"HG240001027"},{"id":"safefood-jeonbuk-HG240001029","name":"진안마이산(익산)휴게소-커피ㆍ핫바류ㆍ호도과자ㆍ로띠번","address":"전북특별자치도 진안군 진안읍 익산장수고속도로 41","jibunAddress":"","phone":"","foodType":"","mainFood":"","designatedDate":"2026-02-22","lat":35.792865888,"lng":127.433491894,"region":"전북특별자치도","source":"safefood","safeFoodGrade":"매우우수","safeFoodCertNo":"HG240001029"},{"id":"safefood-jeonbuk-HG240001028","name":"진안마이산(익산)휴게소-우동·라면","address":"전북특별자치도 진안군 진안읍 익산장수고속도로 41","jibunAddress":"","phone":"","foodType":"","mainFood":"","designatedDate":"2026-02-22","lat":35.792865888,"lng":127.433491894,"region":"전북특별자치도","source":"safefood","safeFoodGrade":"매우우수","safeFoodCertNo":"HG240001028"},{"id":"safefood-jeonbuk-HG250641717","name":"투썸플레이스 고창상행휴게소점","address":"전북특별자치도 고창군 고창읍 서해안고속도로 80","jibunAddress":"","phone":"","foodType":"","mainFood":"","designatedDate":"2025-11-19","lat":35.434296653,"lng":126.702283308,"region":"전북특별자치도","source":"safefood","safeFoodGrade":"매우우수","safeFoodCertNo":"HG250641717"},{"id":"safefood-jeonbuk-HG220000697","name":"엔제리너스 다이닝 남원도통점","address":"전북특별자치도 남원시 용성로 222(1,2층 도통동)","jibunAddress":"","phone":"","foodType":"","mainFood":"","designatedDate":"2026-02-08","lat":35.41462425,"lng":127.394161238,"region":"전북특별자치도","source":"safefood","safeFoodGrade":"매우우수","safeFoodCertNo":"HG220000697"},{"id":"safefood-jeonbuk-HG260001432","name":"파리바게뜨군산터미널점","address":"전북특별자치도 군산시 해망로 19(대명동)","jibunAddress":"","phone":"","foodType":"","mainFood":"","designatedDate":"2026-02-13","lat":35.989773643,"lng":126.713147622,"region":"전북특별자치도","source":"safefood","safeFoodGrade":"매우우수","safeFoodCertNo":"HG260001432"},{"id":"safefood-jeonbuk-HG260001431","name":"파리바게뜨군산지곡점","address":"전북특별자치도 군산시 백토로 229(지곡동)","jibunAddress":"","phone":"","foodType":"","mainFood":"","designatedDate":"2026-02-13","lat":35.954079599,"lng":126.702785044,"region":"전북특별자치도","source":"safefood","safeFoodGrade":"우수","safeFoodCertNo":"HG260001431"},{"id":"safefood-jeonbuk-HG200007179","name":"군산(무안)휴게소 투썸플레이스","address":"전북특별자치도 군산시 성산면 서해안고속도로 141","jibunAddress":"","phone":"","foodType":"","mainFood":"","designatedDate":"2024-09-28","lat":36.01465408,"lng":126.759144796,"region":"전북특별자치도","source":"safefood","safeFoodGrade":"매우우수","safeFoodCertNo":"HG200007179"},{"id":"safefood-jeonbuk-HG210008420","name":"투썸플레이스 고창하행휴게소점","address":"전북특별자치도 고창군 신림면 서해안고속도로 81","jibunAddress":"","phone":"","foodType":"","mainFood":"","designatedDate":"2025-08-31","lat":35.468928579,"lng":126.673805215,"region":"전북특별자치도","source":"safefood","safeFoodGrade":"매우우수","safeFoodCertNo":"HG210008420"},{"id":"safefood-jeonbuk-HG260001408","name":"자담치킨 정읍상동점","address":"전북특별자치도 정읍시 충정로 72-2(상동)","jibunAddress":"","phone":"","foodType":"","mainFood":"","designatedDate":"2026-02-12","lat":35.557883886,"lng":126.871016623,"region":"전북특별자치도","source":"safefood","safeFoodGrade":"매우우수","safeFoodCertNo":"HG260001408"},{"id":"safefood-jeonbuk-HG260001377","name":"노브랜드버거 전주평화점","address":"전북특별자치도 전주시 완산구 모악로 4692(1층일부 평화동2가)","jibunAddress":"","phone":"","foodType":"","mainFood":"","designatedDate":"2026-02-12","lat":35.817944035,"lng":127.14117396,"region":"전북특별자치도","source":"safefood","safeFoodGrade":"매우우수","safeFoodCertNo":"HG260001377"},{"id":"safefood-jeonbuk-HG240000615","name":"빽다방 전주근영점","address":"전북특별자치도 전주시 완산구 백제대로 264(1층일부층 중화산동2가)","jibunAddress":"","phone":"","foodType":"","mainFood":"","designatedDate":"2026-02-01","lat":35.817944035,"lng":127.14117396,"region":"전북특별자치도","source":"safefood","safeFoodGrade":"매우우수","safeFoodCertNo":"HG240000615"},{"id":"safefood-jeonbuk-HG220000944","name":"60계치킨전북순창점","address":"전북특별자치도 순창군 순창읍 남계로 104(1층)","jibunAddress":"","phone":"","foodType":"","mainFood":"","designatedDate":"2026-02-17","lat":35.373226919,"lng":127.142915608,"region":"전북특별자치도","source":"safefood","safeFoodGrade":"매우우수","safeFoodCertNo":"HG220000944"},{"id":"safefood-jeonbuk-HG260001199","name":"비에이치씨수송롯데점","address":"전북특별자치도 군산시 축동안길 41(수송동)","jibunAddress":"","phone":"","foodType":"","mainFood":"","designatedDate":"2026-02-09","lat":35.968651578,"lng":126.714085925,"region":"전북특별자치도","source":"safefood","safeFoodGrade":"매우우수","safeFoodCertNo":"HG260001199"},{"id":"safefood-jeonbuk-HG260001276","name":"비에이치씨(BHC)롯데몰점","address":"전북특별자치도 군산시 궁포3로 7(101호 조촌동)","jibunAddress":"","phone":"","foodType":"","mainFood":"","designatedDate":"2026-02-10","lat":35.976756489,"lng":126.741054986,"region":"전북특별자치도","source":"safefood","safeFoodGrade":"좋음","safeFoodCertNo":"HG260001276"},{"id":"safefood-jeonbuk-HG260001417","name":"BHC치킨 동산점","address":"전북특별자치도 익산시 서동로 102-7(1동 1층 110호 동산동, 제일아파트상가)","jibunAddress":"","phone":"","foodType":"","mainFood":"","designatedDate":"2026-02-12","lat":35.936437629,"lng":126.967469476,"region":"전북특별자치도","source":"safefood","safeFoodGrade":"매우우수","safeFoodCertNo":"HG260001417"},{"id":"safefood-jeonbuk-HG260001416","name":"비에이치씨(BHC)익산모현BEER점","address":"전북특별자치도 익산시 선화로3길 31-11(2층 모현동1가)","jibunAddress":"","phone":"","foodType":"","mainFood":"","designatedDate":"2026-02-12","lat":35.950728909,"lng":126.938809957,"region":"전북특별자치도","source":"safefood","safeFoodGrade":"매우우수","safeFoodCertNo":"HG260001416"},{"id":"safefood-jeonbuk-HG260001415","name":"비에이치씨 익산영등beer점","address":"전북특별자치도 익산시 궁동로 80(1층 영등동)","jibunAddress":"","phone":"","foodType":"","mainFood":"","designatedDate":"2026-02-12","lat":35.962832812,"lng":126.988791612,"region":"전북특별자치도","source":"safefood","safeFoodGrade":"매우우수","safeFoodCertNo":"HG260001415"},{"id":"safefood-jeonbuk-HG250642970","name":"GS편의점(고피자)고창휴게소상행점","address":"전북특별자치도 고창군 고창읍 서해안고속도로 80","jibunAddress":"","phone":"","foodType":"","mainFood":"","designatedDate":"2025-12-15","lat":35.434296653,"lng":126.702283308,"region":"전북특별자치도","source":"safefood","safeFoodGrade":"매우우수","safeFoodCertNo":"HG250642970"},{"id":"safefood-jeonbuk-HG220000602","name":"배스킨라빈스31 남원도통점","address":"전북특별자치도 남원시 용성로 216(도통동)","jibunAddress":"","phone":"","foodType":"","mainFood":"","designatedDate":"2026-02-03","lat":35.41462425,"lng":127.394161238,"region":"전북특별자치도","source":"safefood","safeFoodGrade":"매우우수","safeFoodCertNo":"HG220000602"},{"id":"safefood-jeonbuk-HG260001400","name":"빽다방 완주삼례터미널점","address":"전북특별자치도 완주군 삼례읍 동학로 28","jibunAddress":"","phone":"","foodType":"","mainFood":"","designatedDate":"2026-02-12","lat":35.923180991,"lng":127.108132149,"region":"전북특별자치도","source":"safefood","safeFoodGrade":"매우우수","safeFoodCertNo":"HG260001400"},{"id":"safefood-jeonbuk-HG250636391","name":"불닭발땡초동대문엽기떡볶이전북대점","address":"전북특별자치도 전주시 덕진구 권삼득로 321(2층 덕진동1가)","jibunAddress":"","phone":"","foodType":"","mainFood":"","designatedDate":"2025-07-21","lat":35.846560658,"lng":127.120637568,"region":"전북특별자치도","source":"safefood","safeFoodGrade":"매우우수","safeFoodCertNo":"HG250636391"},{"id":"safefood-jeonbuk-HG260001399","name":"파스쿠찌 소노벨변산점","address":"전북특별자치도 부안군 변산면 소노로 10(소노벨 변산)","jibunAddress":"","phone":"","foodType":"","mainFood":"","designatedDate":"2026-02-12","lat":35.688663221,"lng":126.558562314,"region":"전북특별자치도","source":"safefood","safeFoodGrade":"매우우수","safeFoodCertNo":"HG260001399"},{"id":"safefood-jeonbuk-HG260001174","name":"롯데리아 전주서곡점","address":"전북특별자치도 전주시 완산구 세내로 523(1층 효자동3가)","jibunAddress":"","phone":"","foodType":"","mainFood":"","designatedDate":"2026-02-09","lat":35.817944035,"lng":127.14117396,"region":"전북특별자치도","source":"safefood","safeFoodGrade":"매우우수","safeFoodCertNo":"HG260001174"},{"id":"safefood-jeonbuk-HG240000682","name":"스타벅스전주만성DT점","address":"전북특별자치도 전주시 덕진구 정여립로 972(1,2층 전체호 만성동)","jibunAddress":"","phone":"","foodType":"","mainFood":"","designatedDate":"2026-02-05","lat":35.846560658,"lng":127.120637568,"region":"전북특별자치도","source":"safefood","safeFoodGrade":"매우우수","safeFoodCertNo":"HG240000682"},{"id":"safefood-jeonbuk-HG260001165","name":"빽다방 전북순창점","address":"전북특별자치도 순창군 순창읍 순창로 225(101호)","jibunAddress":"","phone":"","foodType":"","mainFood":"","designatedDate":"2026-02-05","lat":35.373226919,"lng":127.142915608,"region":"전북특별자치도","source":"safefood","safeFoodGrade":"매우우수","safeFoodCertNo":"HG260001165"},{"id":"safefood-jeonbuk-HG220000574","name":"설빙전주송천점","address":"전북특별자치도 전주시 덕진구 천마산로 73(2층 206호 송천동2가)","jibunAddress":"","phone":"","foodType":"","mainFood":"","designatedDate":"2026-02-03","lat":35.846560658,"lng":127.120637568,"region":"전북특별자치도","source":"safefood","safeFoodGrade":"매우우수","safeFoodCertNo":"HG220000574"},{"id":"safefood-jeonbuk-HG260001019","name":"컴포즈커피군산미장점","address":"전북특별자치도 군산시 수송로 279(1층 102호 미장동)","jibunAddress":"","phone":"","foodType":"","mainFood":"","designatedDate":"2026-02-02","lat":35.964463355,"lng":126.730276825,"region":"전북특별자치도","source":"safefood","safeFoodGrade":"매우우수","safeFoodCertNo":"HG260001019"},{"id":"safefood-jeonbuk-HG260001014","name":"파리바게뜨 김제터미널점","address":"전북특별자치도 김제시 동서로 232(요촌동)","jibunAddress":"","phone":"","foodType":"","mainFood":"","designatedDate":"2026-02-02","lat":35.799353658,"lng":126.887457238,"region":"전북특별자치도","source":"safefood","safeFoodGrade":"매우우수","safeFoodCertNo":"HG260001014"},{"id":"safefood-jeonbuk-HG240000262","name":"할리스 완주삼봉점","address":"전북특별자치도 완주군 삼례읍 신기길 5-3(1층)","jibunAddress":"","phone":"","foodType":"","mainFood":"","designatedDate":"2026-01-18","lat":35.923180991,"lng":127.108132149,"region":"전북특별자치도","source":"safefood","safeFoodGrade":"매우우수","safeFoodCertNo":"HG240000262"},{"id":"safefood-jeonbuk-HG220000382","name":"네네치킨 앤 봉구스밥버거 부안점","address":"전북특별자치도 부안군 부안읍 오리정로 160","jibunAddress":"","phone":"","foodType":"","mainFood":"","designatedDate":"2026-01-24","lat":35.730542852,"lng":126.735884107,"region":"전북특별자치도","source":"safefood","safeFoodGrade":"매우우수","safeFoodCertNo":"HG220000382"},{"id":"safefood-jeonbuk-HG260000094","name":"메가엠지씨커피전북사대부고점","address":"전북특별자치도 전주시 덕진구 조경단로 108(1층 101호 금암동)","jibunAddress":"","phone":"","foodType":"","mainFood":"","designatedDate":"2026-01-08","lat":35.846560658,"lng":127.120637568,"region":"전북특별자치도","source":"safefood","safeFoodGrade":"매우우수","safeFoodCertNo":"HG260000094"},{"id":"safefood-jeonbuk-HG250642943","name":"푸디스트(주)덕유산상행휴게소점(델리만쥬, 군밤)","address":"전북특별자치도 무주군 안성면 통영대전고속도로 148(덕유산고속도로휴게소)","jibunAddress":"","phone":"","foodType":"","mainFood":"","designatedDate":"2025-12-15","lat":35.841848322,"lng":127.682317286,"region":"전북특별자치도","source":"safefood","safeFoodGrade":"매우우수","safeFoodCertNo":"HG250642943"},{"id":"safefood-jeonbuk-HG250642942","name":"푸디스트(주)덕유산상행휴게소점(호두과자, 알뜰, 스낵, 오징어)","address":"전북특별자치도 무주군 안성면 통영대전고속도로 148(덕유산고속도로휴게소)","jibunAddress":"","phone":"","foodType":"","mainFood":"","designatedDate":"2025-12-15","lat":35.841848322,"lng":127.682317286,"region":"전북특별자치도","source":"safefood","safeFoodGrade":"매우우수","safeFoodCertNo":"HG250642942"},{"id":"safefood-jeonbuk-HG240000833","name":"피자알볼로(군산점)","address":"전북특별자치도 군산시 수송로 289(1층 103호 미장동)","jibunAddress":"","phone":"","foodType":"","mainFood":"","designatedDate":"2026-02-14","lat":35.964463355,"lng":126.730276825,"region":"전북특별자치도","source":"safefood","safeFoodGrade":"매우우수","safeFoodCertNo":"HG240000833"},{"id":"safefood-jeonbuk-HG260000876","name":"파리바게뜨전주아중점","address":"전북특별자치도 전주시 덕진구 석소로 31(아중제일아파트상가 108동 104호 인후동1가)","jibunAddress":"","phone":"","foodType":"","mainFood":"","designatedDate":"2026-01-29","lat":35.846560658,"lng":127.120637568,"region":"전북특별자치도","source":"safefood","safeFoodGrade":"매우우수","safeFoodCertNo":"HG260000876"},{"id":"safefood-jeonbuk-HG260000873","name":"비에이치씨전주만성지구점","address":"전북특별자치도 전주시 덕진구 만성중앙로 51(1층 101,102호 만성동)","jibunAddress":"","phone":"","foodType":"","mainFood":"","designatedDate":"2026-01-29","lat":35.846560658,"lng":127.120637568,"region":"전북특별자치도","source":"safefood","safeFoodGrade":"매우우수","safeFoodCertNo":"HG260000873"},{"id":"safefood-jeonbuk-HG250643047","name":"(주)한남여산휴게소하행선제3호점","address":"전북특별자치도 익산시 여산면 호남고속도로 191(1층)","jibunAddress":"","phone":"","foodType":"","mainFood":"","designatedDate":"2025-12-16","lat":36.048033842,"lng":127.105312054,"region":"전북특별자치도","source":"safefood","safeFoodGrade":"매우우수","safeFoodCertNo":"HG250643047"},{"id":"safefood-jeonbuk-HG260000621","name":"파스쿠찌 군산은파호수공원DI","address":"전북특별자치도 군산시 은파순환길 78(강변 미룡동)","jibunAddress":"","phone":"","foodType":"","mainFood":"","designatedDate":"2026-01-22","lat":35.94505797,"lng":126.694235484,"region":"전북특별자치도","source":"safefood","safeFoodGrade":"매우우수","safeFoodCertNo":"HG260000621"},{"id":"safefood-jeonbuk-HG260000087","name":"파리바게뜨전주남도점","address":"전북특별자치도 전주시 덕진구 기린대로 400(남도빌딩 1층 일부호 금암동)","jibunAddress":"","phone":"","foodType":"","mainFood":"","designatedDate":"2026-01-08","lat":35.846560658,"lng":127.120637568,"region":"전북특별자치도","source":"safefood","safeFoodGrade":"우수","safeFoodCertNo":"HG260000087"},{"id":"safefood-jeonbuk-HG240000168","name":"본죽앤비빔밥 전주전북도청점","address":"전북특별자치도 전주시 완산구 홍산남로 45(104호 효자동3가)","jibunAddress":"","phone":"","foodType":"","mainFood":"","designatedDate":"2026-01-15","lat":35.817944035,"lng":127.14117396,"region":"전북특별자치도","source":"safefood","safeFoodGrade":"매우우수","safeFoodCertNo":"HG240000168"},{"id":"safefood-jeonbuk-HG260000754","name":"컴포즈커피 전주서신쌍용점","address":"전북특별자치도 전주시 완산구 당산로 11-1(쌍용서신아파트 상가2동 1층 1,2호 서신동)","jibunAddress":"","phone":"","foodType":"","mainFood":"","designatedDate":"2026-01-27","lat":35.817944035,"lng":127.14117396,"region":"전북특별자치도","source":"safefood","safeFoodGrade":"매우우수","safeFoodCertNo":"HG260000754"},{"id":"safefood-jeonbuk-HG240000672","name":"스타벅스전주에코DT점","address":"전북특별자치도 전주시 덕진구 백석로 170(1,2,옥탑층 전미동1가)","jibunAddress":"","phone":"","foodType":"","mainFood":"","designatedDate":"2026-02-05","lat":35.846560658,"lng":127.120637568,"region":"전북특별자치도","source":"safefood","safeFoodGrade":"매우우수","safeFoodCertNo":"HG240000672"},{"id":"safefood-jeonbuk-HG250642244","name":"이서(순천)휴게소 스넥3","address":"전북특별자치도 완주군 이서면 호남고속도로 161","jibunAddress":"","phone":"","foodType":"","mainFood":"","designatedDate":"2025-11-27","lat":35.801843506,"lng":127.025788907,"region":"전북특별자치도","source":"safefood","safeFoodGrade":"매우우수","safeFoodCertNo":"HG250642244"},{"id":"safefood-jeonbuk-HG260000752","name":"메가엠지씨커피 김제검산행복센터점","address":"전북특별자치도 김제시 검산택지5길 6(1층 검산동)","jibunAddress":"","phone":"","foodType":"","mainFood":"","designatedDate":"2026-01-27","lat":35.801264963,"lng":126.90322846,"region":"전북특별자치도","source":"safefood","safeFoodGrade":"매우우수","safeFoodCertNo":"HG260000752"},{"id":"safefood-jeonbuk-HG250642241","name":"비에이치씨치킨 전북도청점","address":"전북특별자치도 전주시 완산구 홍산중앙로 18(102호 효자동3가)","jibunAddress":"","phone":"","foodType":"","mainFood":"","designatedDate":"2025-11-27","lat":35.817944035,"lng":127.14117396,"region":"전북특별자치도","source":"safefood","safeFoodGrade":"매우우수","safeFoodCertNo":"HG250642241"},{"id":"safefood-jeonbuk-HG240000190","name":"돈초야","address":"전북특별자치도 전주시 완산구 송정로 43(1층 효자동1가)","jibunAddress":"","phone":"","foodType":"","mainFood":"","designatedDate":"2026-01-16","lat":35.817944035,"lng":127.14117396,"region":"전북특별자치도","source":"safefood","safeFoodGrade":"매우우수","safeFoodCertNo":"HG240000190"},{"id":"safefood-jeonbuk-HG250641772","name":"파스쿠찌전주삼천점","address":"전북특별자치도 전주시 완산구 용리로 54(주건축물제1동 1층101호일부,2층201호 삼천동1가)","jibunAddress":"","phone":"","foodType":"","mainFood":"","designatedDate":"2025-11-19","lat":35.817944035,"lng":127.14117396,"region":"전북특별자치도","source":"safefood","safeFoodGrade":"매우우수","safeFoodCertNo":"HG250641772"},{"id":"safefood-jeonbuk-HG260000217","name":"파리바게트남원향교점","address":"전북특별자치도 남원시 동림로 107(향교동)","jibunAddress":"","phone":"","foodType":"","mainFood":"","designatedDate":"2026-01-13","lat":35.414456995,"lng":127.386441027,"region":"전북특별자치도","source":"safefood","safeFoodGrade":"매우우수","safeFoodCertNo":"HG260000217"},{"id":"safefood-jeonbuk-HG260000080","name":"파리바게뜨전주센트럴점","address":"전북특별자치도 전주시 덕진구 송천로 1(1-2블럭동 2-118,119,138일부호 송천동1가, 송천동센트럴파크아파트)","jibunAddress":"","phone":"","foodType":"","mainFood":"","designatedDate":"2026-01-08","lat":35.846560658,"lng":127.120637568,"region":"전북특별자치도","source":"safefood","safeFoodGrade":"좋음","safeFoodCertNo":"HG260000080"},{"id":"safefood-jeonbuk-HG260000079","name":"파리바게뜨전주우아점","address":"전북특별자치도 전주시 덕진구 건산로 260(인후동1가)","jibunAddress":"","phone":"","foodType":"","mainFood":"","designatedDate":"2026-01-08","lat":35.846560658,"lng":127.120637568,"region":"전북특별자치도","source":"safefood","safeFoodGrade":"매우우수","safeFoodCertNo":"HG260000079"},{"id":"safefood-jeonbuk-HG250642038","name":"파리바게뜨수송점","address":"전북특별자치도 군산시 수송로 211(102호 수송동)","jibunAddress":"","phone":"","foodType":"","mainFood":"","designatedDate":"2025-11-25","lat":35.964463355,"lng":126.730276825,"region":"전북특별자치도","source":"safefood","safeFoodGrade":"매우우수","safeFoodCertNo":"HG250642038"},{"id":"safefood-jeonbuk-HG260000360","name":"파리바게뜨","address":"전북특별자치도 고창군 고창읍 중앙로 235(1층)","jibunAddress":"","phone":"","foodType":"","mainFood":"","designatedDate":"2026-01-16","lat":35.434296653,"lng":126.702283308,"region":"전북특별자치도","source":"safefood","safeFoodGrade":"매우우수","safeFoodCertNo":"HG260000360"},{"id":"safefood-jeonbuk-HG260000359","name":"파리바게뜨 고창농협하나로점","address":"전북특별자치도 고창군 고창읍 성산로 22(성산로22)","jibunAddress":"","phone":"","foodType":"","mainFood":"","designatedDate":"2026-01-16","lat":35.434296653,"lng":126.702283308,"region":"전북특별자치도","source":"safefood","safeFoodGrade":"매우우수","safeFoodCertNo":"HG260000359"},{"id":"safefood-jeonbuk-HG260000076","name":"파리바게뜨전주우아한시티점","address":"전북특별자치도 전주시 덕진구 우아로 30(1동 1층 일부호 우아동3가)","jibunAddress":"","phone":"","foodType":"","mainFood":"","designatedDate":"2026-01-08","lat":35.846560658,"lng":127.120637568,"region":"전북특별자치도","source":"safefood","safeFoodGrade":"매우우수","safeFoodCertNo":"HG260000076"},{"id":"safefood-jeonbuk-HG260000358","name":"파리바게뜨전북대","address":"전북특별자치도 전주시 덕진구 명륜4길 19(1층 일부호 덕진동1가)","jibunAddress":"","phone":"","foodType":"","mainFood":"","designatedDate":"2026-01-16","lat":35.846560658,"lng":127.120637568,"region":"전북특별자치도","source":"safefood","safeFoodGrade":"매우우수","safeFoodCertNo":"HG260000358"},{"id":"safefood-jeonbuk-HG260000215","name":"불닭발 땡초 동대문엽기떡볶이 남원점","address":"전북특별자치도 남원시 역재1길 6(1층 도통동)","jibunAddress":"","phone":"","foodType":"","mainFood":"","designatedDate":"2026-01-13","lat":35.418251742,"lng":127.398315365,"region":"전북특별자치도","source":"safefood","safeFoodGrade":"우수","safeFoodCertNo":"HG260000215"},{"id":"safefood-jeonbuk-HG250632370","name":"(주)원일유통 강천산(광주)휴게소 푸드코트","address":"전북특별자치도 순창군 순창읍 광주대구고속도로 27","jibunAddress":"","phone":"","foodType":"","mainFood":"","designatedDate":"2025-04-28","lat":35.373226919,"lng":127.142915608,"region":"전북특별자치도","source":"safefood","safeFoodGrade":"우수","safeFoodCertNo":"HG250632370"},{"id":"safefood-jeonbuk-HG200005793","name":"(주)원일유통 강천산(광주)휴게소","address":"전북특별자치도 순창군 순창읍 광주대구고속도로 27","jibunAddress":"","phone":"","foodType":"","mainFood":"","designatedDate":"2024-08-24","lat":35.373226919,"lng":127.142915608,"region":"전북특별자치도","source":"safefood","safeFoodGrade":"매우우수","safeFoodCertNo":"HG200005793"},{"id":"safefood-jeonbuk-HG200005806","name":"(주)원일유통 강천산(광주)휴게소","address":"전북특별자치도 순창군 순창읍 광주대구고속도로 27","jibunAddress":"","phone":"","foodType":"","mainFood":"","designatedDate":"2024-08-24","lat":35.373226919,"lng":127.142915608,"region":"전북특별자치도","source":"safefood","safeFoodGrade":"매우우수","safeFoodCertNo":"HG200005806"},{"id":"safefood-jeonbuk-HG250642036","name":"푸디스트(주) 덕유산하행휴게소점(소담뚝배기, 카츠랑)","address":"전북특별자치도 장수군 계북면 통영대전고속도로 147(덕유산휴게소)","jibunAddress":"","phone":"","foodType":"","mainFood":"","designatedDate":"2025-11-25","lat":35.801960667,"lng":127.657527996,"region":"전북특별자치도","source":"safefood","safeFoodGrade":"매우우수","safeFoodCertNo":"HG250642036"},{"id":"safefood-jeonbuk-HG200005745","name":"(주)원일유통 강천산(대구)휴게소 열린매장Ⅱ","address":"전북특별자치도 순창군 순창읍 광주대구고속도로 28","jibunAddress":"","phone":"","foodType":"","mainFood":"","designatedDate":"2024-08-24","lat":35.373226919,"lng":127.142915608,"region":"전북특별자치도","source":"safefood","safeFoodGrade":"매우우수","safeFoodCertNo":"HG200005745"},{"id":"safefood-jeonbuk-HG200005719","name":"두성유통(주) 강천산(대구)휴게소 로띠번","address":"전북특별자치도 순창군 순창읍 광주대구고속도로 28","jibunAddress":"","phone":"","foodType":"","mainFood":"","designatedDate":"2024-08-24","lat":35.373226919,"lng":127.142915608,"region":"전북특별자치도","source":"safefood","safeFoodGrade":"매우우수","safeFoodCertNo":"HG200005719"},{"id":"safefood-jeonbuk-HG250632369","name":"두성유통(주) 강천산(대구)휴게소 푸드코트","address":"전북특별자치도 순창군 순창읍 광주대구고속도로 28","jibunAddress":"","phone":"","foodType":"","mainFood":"","designatedDate":"2025-04-28","lat":35.373226919,"lng":127.142915608,"region":"전북특별자치도","source":"safefood","safeFoodGrade":"매우우수","safeFoodCertNo":"HG250632369"},{"id":"safefood-jeonbuk-HG250642218","name":"투썸플레이스진북점","address":"전북특별자치도 전주시 덕진구 전주천동로 342(2층일부,3층 진북동)","jibunAddress":"","phone":"","foodType":"","mainFood":"","designatedDate":"2025-11-27","lat":35.846560658,"lng":127.120637568,"region":"전북특별자치도","source":"safefood","safeFoodGrade":"매우우수","safeFoodCertNo":"HG250642218"},{"id":"safefood-jeonbuk-HG240000183","name":"스타벅스 익산모현점","address":"전북특별자치도 익산시 선화로 106(모현동1가)","jibunAddress":"","phone":"","foodType":"","mainFood":"","designatedDate":"2026-01-16","lat":35.948830113,"lng":126.943179512,"region":"전북특별자치도","source":"safefood","safeFoodGrade":"매우우수","safeFoodCertNo":"HG240000183"},{"id":"safefood-jeonbuk-HG250641757","name":"메가엠지씨커피동전주IC점","address":"전북특별자치도 전주시 덕진구 전진로 48(1층 일부호 산정동)","jibunAddress":"","phone":"","foodType":"","mainFood":"","designatedDate":"2025-11-19","lat":35.846560658,"lng":127.120637568,"region":"전북특별자치도","source":"safefood","safeFoodGrade":"매우우수","safeFoodCertNo":"HG250641757"},{"id":"safefood-jeonbuk-HG250642672","name":"스타벅스 익산부송","address":"전북특별자치도 익산시 부송로 41(부송동)","jibunAddress":"","phone":"","foodType":"","mainFood":"","designatedDate":"2025-12-09","lat":35.953616724,"lng":126.992289663,"region":"전북특별자치도","source":"safefood","safeFoodGrade":"매우우수","safeFoodCertNo":"HG250642672"},{"id":"safefood-jeonbuk-HG250642671","name":"카페(CAFE) 960","address":"전북특별자치도 익산시 금마면 제석사지로 8(1-2층)","jibunAddress":"","phone":"","foodType":"","mainFood":"","designatedDate":"2025-12-09","lat":36.011564075,"lng":127.02427907,"region":"전북특별자치도","source":"safefood","safeFoodGrade":"매우우수","safeFoodCertNo":"HG250642671"},{"id":"safefood-jeonbuk-HG250641003","name":"덮덮밥 삼첩분식 임실점","address":"전북특별자치도 임실군 임실읍 운수로 15(1층 2호)","jibunAddress":"","phone":"","foodType":"","mainFood":"","designatedDate":"2025-11-03","lat":35.626948881,"lng":127.298372535,"region":"전북특별자치도","source":"safefood","safeFoodGrade":"매우우수","safeFoodCertNo":"HG250641003"},{"id":"safefood-jeonbuk-HG250642810","name":"임실흑염소탕 원조집","address":"전북특별자치도 임실군 임실읍 봉황11길 66(4호)","jibunAddress":"","phone":"","foodType":"","mainFood":"","designatedDate":"2025-12-10","lat":35.626948881,"lng":127.298372535,"region":"전북특별자치도","source":"safefood","safeFoodGrade":"매우우수","safeFoodCertNo":"HG250642810"},{"id":"safefood-jeonbuk-HG250642808","name":"육회바른연어 전북임실중앙점","address":"전북특별자치도 임실군 임실읍 중동로 31(1층)","jibunAddress":"","phone":"","foodType":"","mainFood":"","designatedDate":"2025-12-10","lat":35.626948881,"lng":127.298372535,"region":"전북특별자치도","source":"safefood","safeFoodGrade":"매우우수","safeFoodCertNo":"HG250642808"},{"id":"safefood-jeonbuk-HG250642904","name":"파리바게뜨전주포스코점","address":"전북특별자치도 전주시 완산구 봉곡로 122(1층 효자동2가)","jibunAddress":"","phone":"","foodType":"","mainFood":"","designatedDate":"2025-12-15","lat":35.817944035,"lng":127.14117396,"region":"전북특별자치도","source":"safefood","safeFoodGrade":"매우우수","safeFoodCertNo":"HG250642904"},{"id":"safefood-jeonbuk-HG220000439","name":"남원의료원장례식당","address":"전북특별자치도 남원시 충정로 365(월락동)","jibunAddress":"","phone":"","foodType":"","mainFood":"","designatedDate":"2026-01-26","lat":35.428690125,"lng":127.406090431,"region":"전북특별자치도","source":"safefood","safeFoodGrade":"매우우수","safeFoodCertNo":"HG220000439"},{"id":"safefood-jeonbuk-HG250642798","name":"파리바게트여의점","address":"전북특별자치도 전주시 덕진구 쪽구름로 61(여의동)","jibunAddress":"","phone":"","foodType":"","mainFood":"","designatedDate":"2025-12-10","lat":35.846560658,"lng":127.120637568,"region":"전북특별자치도","source":"safefood","safeFoodGrade":"매우우수","safeFoodCertNo":"HG250642798"},{"id":"safefood-jeonbuk-HG250642208","name":"파리바게뜨전주마전점","address":"전북특별자치도 전주시 완산구 홍산로 371(효자동3가)","jibunAddress":"","phone":"","foodType":"","mainFood":"","designatedDate":"2025-11-27","lat":35.817944035,"lng":127.14117396,"region":"전북특별자치도","source":"safefood","safeFoodGrade":"매우우수","safeFoodCertNo":"HG250642208"},{"id":"safefood-jeonbuk-HG250641376","name":"교촌치킨 순창점","address":"전북특별자치도 순창군 순창읍 순창로 185(1층)","jibunAddress":"","phone":"","foodType":"","mainFood":"","designatedDate":"2025-11-11","lat":35.373226919,"lng":127.142915608,"region":"전북특별자치도","source":"safefood","safeFoodGrade":"매우우수","safeFoodCertNo":"HG250641376"},{"id":"safefood-jeonbuk-HG250642794","name":"파리바게뜨전주에코자이점","address":"전북특별자치도 전주시 덕진구 세병로 111(116동 1층 108호 일부, 109호 송천동2가, 에코시티자이)","jibunAddress":"","phone":"","foodType":"","mainFood":"","designatedDate":"2025-12-10","lat":35.846560658,"lng":127.120637568,"region":"전북특별자치도","source":"safefood","safeFoodGrade":"매우우수","safeFoodCertNo":"HG250642794"},{"id":"safefood-jeonbuk-HG250641375","name":"파리바게뜨 완주첨단점","address":"전북특별자치도 완주군 봉동읍 완주산단9로 24(1층)","jibunAddress":"","phone":"","foodType":"","mainFood":"","designatedDate":"2025-11-11","lat":35.935051257,"lng":127.152932723,"region":"전북특별자치도","source":"safefood","safeFoodGrade":"매우우수","safeFoodCertNo":"HG250641375"},{"id":"safefood-jeonbuk-HG250642793","name":"파리바게뜨호성점","address":"전북특별자치도 전주시 덕진구 소리로 192(호성동1가)","jibunAddress":"","phone":"","foodType":"","mainFood":"","designatedDate":"2025-12-10","lat":35.846560658,"lng":127.120637568,"region":"전북특별자치도","source":"safefood","safeFoodGrade":"매우우수","safeFoodCertNo":"HG250642793"},{"id":"safefood-jeonbuk-HG250641747","name":"파리바게트더블진흥점","address":"전북특별자치도 전주시 덕진구 동부대로 879(1층 101,102호 호성동1가)","jibunAddress":"","phone":"","foodType":"","mainFood":"","designatedDate":"2025-11-19","lat":35.846560658,"lng":127.120637568,"region":"전북특별자치도","source":"safefood","safeFoodGrade":"매우우수","safeFoodCertNo":"HG250641747"},{"id":"safefood-jeonbuk-HG250639945","name":"전주아중리맛집백운면","address":"전북특별자치도 전주시 덕진구 견훤로 198(1층 인후동1가)","jibunAddress":"","phone":"","foodType":"","mainFood":"","designatedDate":"2025-09-30","lat":35.846560658,"lng":127.120637568,"region":"전북특별자치도","source":"safefood","safeFoodGrade":"매우우수","safeFoodCertNo":"HG250639945"},{"id":"safefood-jeonbuk-HG250641724","name":"메가엠지씨커피 군산구암삼거리점","address":"전북특별자치도 군산시 개정면 구암로 206(1층)","jibunAddress":"","phone":"","foodType":"","mainFood":"","designatedDate":"2025-11-19","lat":35.983147181,"lng":126.77176559,"region":"전북특별자치도","source":"safefood","safeFoodGrade":"매우우수","safeFoodCertNo":"HG250641724"},{"id":"safefood-jeonbuk-HG250641374","name":"한오백년 추어탕","address":"전북특별자치도 순창군 순창읍 순창11길 31-16","jibunAddress":"","phone":"","foodType":"","mainFood":"","designatedDate":"2025-11-11","lat":35.373226919,"lng":127.142915608,"region":"전북특별자치도","source":"safefood","safeFoodGrade":"우수","safeFoodCertNo":"HG250641374"},{"id":"safefood-jeonbuk-HG250641373","name":"할리스커피모현점","address":"전북특별자치도 익산시 선화로3길 16-10(1층 102~104호, 101호 일부호 모현동1가, 금오빌딩)","jibunAddress":"","phone":"","foodType":"","mainFood":"","designatedDate":"2025-11-11","lat":35.950728909,"lng":126.938809957,"region":"전북특별자치도","source":"safefood","safeFoodGrade":"매우우수","safeFoodCertNo":"HG250641373"},{"id":"safefood-jeonbuk-HG240000061","name":"스타벅스전주평화DT","address":"전북특별자치도 전주시 완산구 모악로 4696(1,2층 평화동2가)","jibunAddress":"","phone":"","foodType":"","mainFood":"","designatedDate":"2026-01-10","lat":35.817944035,"lng":127.14117396,"region":"전북특별자치도","source":"safefood","safeFoodGrade":"매우우수","safeFoodCertNo":"HG240000061"},{"id":"safefood-jeonbuk-HG250641701","name":"파스쿠찌송천파인트리몰점","address":"전북특별자치도 전주시 덕진구 송천중앙로 225(파인트리몰 1층 134,135,136,137,138호 송천동2가)","jibunAddress":"","phone":"","foodType":"","mainFood":"","designatedDate":"2025-11-19","lat":35.846560658,"lng":127.120637568,"region":"전북특별자치도","source":"safefood","safeFoodGrade":"매우우수","safeFoodCertNo":"HG250641701"},{"id":"safefood-jeonbuk-HG250641700","name":"파스쿠찌 전북도청점","address":"전북특별자치도 전주시 완산구 효자로 167(1-2층 101, 201호 효자동3가)","jibunAddress":"","phone":"","foodType":"","mainFood":"","designatedDate":"2025-11-19","lat":35.817944035,"lng":127.14117396,"region":"전북특별자치도","source":"safefood","safeFoodGrade":"매우우수","safeFoodCertNo":"HG250641700"},{"id":"safefood-jeonbuk-HG250641698","name":"파스쿠찌 변산해수욕장점","address":"전북특별자치도 부안군 변산면 변산로 2120-22(1,2층)","jibunAddress":"","phone":"","foodType":"","mainFood":"","designatedDate":"2025-11-19","lat":35.688663221,"lng":126.558562314,"region":"전북특별자치도","source":"safefood","safeFoodGrade":"매우우수","safeFoodCertNo":"HG250641698"},{"id":"safefood-jeonbuk-HG250641369","name":"파스쿠찌 전주한옥마을점","address":"전북특별자치도 전주시 완산구 어진길 58(1~3층 풍남동1가)","jibunAddress":"","phone":"","foodType":"","mainFood":"","designatedDate":"2025-11-11","lat":35.817944035,"lng":127.14117396,"region":"전북특별자치도","source":"safefood","safeFoodGrade":"매우우수","safeFoodCertNo":"HG250641369"},{"id":"safefood-jeonbuk-HG240000137","name":"호식이두마리치킨전북대점","address":"전북특별자치도 전주시 덕진구 조경단로 104(금암동)","jibunAddress":"","phone":"","foodType":"","mainFood":"","designatedDate":"2026-01-15","lat":35.846560658,"lng":127.120637568,"region":"전북특별자치도","source":"safefood","safeFoodGrade":"매우우수","safeFoodCertNo":"HG240000137"},{"id":"safefood-jeonbuk-HG190002548","name":"(주)한남여산휴게소상행선제7호점(엔제리너스)","address":"전북특별자치도 익산시 여산면 호남고속도로 192(1층)","jibunAddress":"","phone":"","foodType":"","mainFood":"","designatedDate":"2025-12-18","lat":36.048033842,"lng":127.105312054,"region":"전북특별자치도","source":"safefood","safeFoodGrade":"매우우수","safeFoodCertNo":"HG190002548"},{"id":"safefood-jeonbuk-HG190002547","name":"(주)한남여산휴게소상행선제6호점","address":"전북특별자치도 익산시 여산면 호남고속도로 192(1층)","jibunAddress":"","phone":"","foodType":"","mainFood":"","designatedDate":"2025-12-18","lat":36.048033842,"lng":127.105312054,"region":"전북특별자치도","source":"safefood","safeFoodGrade":"매우우수","safeFoodCertNo":"HG190002547"},{"id":"safefood-jeonbuk-HG190002546","name":"(주)한남여산휴게소상행선제5호점(로띠번)","address":"전북특별자치도 익산시 여산면 호남고속도로 192(1층)","jibunAddress":"","phone":"","foodType":"","mainFood":"","designatedDate":"2025-12-18","lat":36.048033842,"lng":127.105312054,"region":"전북특별자치도","source":"safefood","safeFoodGrade":"매우우수","safeFoodCertNo":"HG190002546"},{"id":"safefood-jeonbuk-HG190002545","name":"(주)한남여산휴게소상행선제4호점(온전히)","address":"전북특별자치도 익산시 여산면 호남고속도로 192(1층)","jibunAddress":"","phone":"","foodType":"","mainFood":"","designatedDate":"2025-12-18","lat":36.048033842,"lng":127.105312054,"region":"전북특별자치도","source":"safefood","safeFoodGrade":"매우우수","safeFoodCertNo":"HG190002545"},{"id":"safefood-jeonbuk-HG190002544","name":"(주)한남여산휴게소 상행선 제3호점","address":"전북특별자치도 익산시 여산면 호남고속도로 192(1층)","jibunAddress":"","phone":"","foodType":"","mainFood":"","designatedDate":"2025-12-18","lat":36.048033842,"lng":127.105312054,"region":"전북특별자치도","source":"safefood","safeFoodGrade":"매우우수","safeFoodCertNo":"HG190002544"},{"id":"safefood-jeonbuk-HG190002707","name":"(주)한남여산휴게소상행선제2호점","address":"전북특별자치도 익산시 여산면 호남고속도로 192(1층)","jibunAddress":"","phone":"","foodType":"","mainFood":"","designatedDate":"2025-12-24","lat":36.048033842,"lng":127.105312054,"region":"전북특별자치도","source":"safefood","safeFoodGrade":"매우우수","safeFoodCertNo":"HG190002707"},{"id":"safefood-jeonbuk-HG190002549","name":"(주)한남여산휴게소 상행선 제과제빵 1호점","address":"전북특별자치도 익산시 여산면 호남고속도로 192(1층)","jibunAddress":"","phone":"","foodType":"","mainFood":"","designatedDate":"2025-12-18","lat":36.048033842,"lng":127.105312054,"region":"전북특별자치도","source":"safefood","safeFoodGrade":"매우우수","safeFoodCertNo":"HG190002549"},{"id":"safefood-jeonbuk-HG190002708","name":"(주)한남여산휴게소상행선제3호점","address":"전북특별자치도 익산시 여산면 호남고속도로 192(1층)","jibunAddress":"","phone":"","foodType":"","mainFood":"","designatedDate":"2025-12-24","lat":36.048033842,"lng":127.105312054,"region":"전북특별자치도","source":"safefood","safeFoodGrade":"매우우수","safeFoodCertNo":"HG190002708"},{"id":"safefood-jeonbuk-HG190002709","name":"(주)한남여산휴게소상행선제2호점","address":"전북특별자치도 익산시 여산면 호남고속도로 192(1층)","jibunAddress":"","phone":"","foodType":"","mainFood":"","designatedDate":"2025-12-24","lat":36.048033842,"lng":127.105312054,"region":"전북특별자치도","source":"safefood","safeFoodGrade":"매우우수","safeFoodCertNo":"HG190002709"},{"id":"safefood-jeonbuk-HG190002705","name":"(주)한남여산휴게소상행선제1호점","address":"전북특별자치도 익산시 여산면 호남고속도로 192(1층)","jibunAddress":"","phone":"","foodType":"","mainFood":"","designatedDate":"2025-12-24","lat":36.048033842,"lng":127.105312054,"region":"전북특별자치도","source":"safefood","safeFoodGrade":"매우우수","safeFoodCertNo":"HG190002705"},{"id":"safefood-jeonbuk-HG240000530","name":"몽블랑제리(주)행사매대","address":"전북특별자치도 익산시 무왕로 1035(영등동,2층5번및6번계산대뒤)","jibunAddress":"","phone":"","foodType":"","mainFood":"","designatedDate":"2026-01-29","lat":35.967725005,"lng":127.016576438,"region":"전북특별자치도","source":"safefood","safeFoodGrade":"매우우수","safeFoodCertNo":"HG240000530"},{"id":"safefood-jeonbuk-HG240000529","name":"몽블랑제리(주)익산점","address":"전북특별자치도 익산시 무왕로 1035(영등동,홈플러스 2층)","jibunAddress":"","phone":"","foodType":"","mainFood":"","designatedDate":"2026-01-29","lat":35.967725005,"lng":127.016576438,"region":"전북특별자치도","source":"safefood","safeFoodGrade":"매우우수","safeFoodCertNo":"HG240000529"},{"id":"safefood-jeonbuk-HG230010019","name":"명륜진사갈비 무주점","address":"전북특별자치도 무주군 무주읍 단천로 151(1동 1층 101호 다온누리)","jibunAddress":"","phone":"","foodType":"","mainFood":"","designatedDate":"2025-12-11","lat":36.007362791,"lng":127.662051116,"region":"전북특별자치도","source":"safefood","safeFoodGrade":"매우우수","safeFoodCertNo":"HG230010019"},{"id":"safefood-jeonbuk-HG250640994","name":"브릭타코","address":"전북특별자치도 전주시 완산구 홍산1길 21(105동 1층 146호 효자동2가, 서희스타힐스)","jibunAddress":"","phone":"","foodType":"","mainFood":"","designatedDate":"2025-11-03","lat":35.817944035,"lng":127.14117396,"region":"전북특별자치도","source":"safefood","safeFoodGrade":"매우우수","safeFoodCertNo":"HG250640994"},{"id":"safefood-jeonbuk-HG230009807","name":"뚜레쥬르 전북순창점","address":"전북특별자치도 순창군 순창읍 경천1로 34","jibunAddress":"","phone":"","foodType":"","mainFood":"","designatedDate":"2025-12-04","lat":35.373226919,"lng":127.142915608,"region":"전북특별자치도","source":"safefood","safeFoodGrade":"매우우수","safeFoodCertNo":"HG230009807"},{"id":"safefood-jeonbuk-HG250641364","name":"파리바게트전북혁신1호점","address":"전북특별자치도 전주시 덕진구 오정1길 1(1층 중동)","jibunAddress":"","phone":"","foodType":"","mainFood":"","designatedDate":"2025-11-11","lat":35.846560658,"lng":127.120637568,"region":"전북특별자치도","source":"safefood","safeFoodGrade":"매우우수","safeFoodCertNo":"HG250641364"},{"id":"safefood-jeonbuk-HG250641664","name":"노브랜드버거전주에코시티점","address":"전북특별자치도 전주시 덕진구 세병로 12(1층 102,103호 송천동2가)","jibunAddress":"","phone":"","foodType":"","mainFood":"","designatedDate":"2025-11-19","lat":35.846560658,"lng":127.120637568,"region":"전북특별자치도","source":"safefood","safeFoodGrade":"매우우수","safeFoodCertNo":"HG250641664"},{"id":"safefood-jeonbuk-HG250640992","name":"카페일리터 임실점","address":"전북특별자치도 임실군 임실읍 운수로 15(1층 1호)","jibunAddress":"","phone":"","foodType":"","mainFood":"","designatedDate":"2025-11-03","lat":35.626948881,"lng":127.298372535,"region":"전북특별자치도","source":"safefood","safeFoodGrade":"매우우수","safeFoodCertNo":"HG250640992"},{"id":"safefood-jeonbuk-HG250641412","name":"본죽&비빔밥 전북고창점","address":"전북특별자치도 고창군 고창읍 중앙로 235","jibunAddress":"","phone":"","foodType":"","mainFood":"","designatedDate":"2025-11-12","lat":35.434296653,"lng":126.702283308,"region":"전북특별자치도","source":"safefood","safeFoodGrade":"매우우수","safeFoodCertNo":"HG250641412"},{"id":"safefood-jeonbuk-HG250641360","name":"카페362 한국농업기술진흥원점","address":"전북특별자치도 익산시 평동로 457(한국농업기술원 종합분석동 1층 송학동)","jibunAddress":"","phone":"","foodType":"","mainFood":"","designatedDate":"2025-11-11","lat":35.935158441,"lng":126.938361177,"region":"전북특별자치도","source":"safefood","safeFoodGrade":"매우우수","safeFoodCertNo":"HG250641360"},{"id":"safefood-jeonbuk-HG260001418","name":"불닭발땡초동대문엽기떡볶이 군산조촌점","address":"전북특별자치도 군산시 궁포3로 13(1층 105호 조촌동)","jibunAddress":"","phone":"","foodType":"","mainFood":"","designatedDate":"2026-02-13","lat":35.976756489,"lng":126.741054986,"region":"전북특별자치도","source":"safefood","safeFoodGrade":"매우우수","safeFoodCertNo":"HG260001418"},{"id":"safefood-jeonbuk-HG250641358","name":"네네치킨 동산점","address":"전북특별자치도 익산시 서동로 102-7(제일아파트 상가1동 107호 동산동)","jibunAddress":"","phone":"","foodType":"","mainFood":"","designatedDate":"2025-11-11","lat":35.936437629,"lng":126.967469476,"region":"전북특별자치도","source":"safefood","safeFoodGrade":"매우우수","safeFoodCertNo":"HG250641358"},{"id":"safefood-jeonbuk-HG250640987","name":"메가엠지씨커피 전주케이비에스(KBS)점","address":"전북특별자치도 전주시 완산구 마전들로 77(1층 효자동3가)","jibunAddress":"","phone":"","foodType":"","mainFood":"","designatedDate":"2025-11-03","lat":35.817944035,"lng":127.14117396,"region":"전북특별자치도","source":"safefood","safeFoodGrade":"매우우수","safeFoodCertNo":"HG250640987"},{"id":"safefood-jeonbuk-HG250640858","name":"지리산흑돼지김치제육 바래봉순금씨 남원본점","address":"전북특별자치도 남원시 용성로 197-15(주1동 1층 도통동)","jibunAddress":"","phone":"","foodType":"","mainFood":"","designatedDate":"2025-10-29","lat":35.41462425,"lng":127.394161238,"region":"전북특별자치도","source":"safefood","safeFoodGrade":"매우우수","safeFoodCertNo":"HG250640858"},{"id":"safefood-jeonbuk-HG250641637","name":"맘스피자랩(LAB) 전주효자디아이(DI)점","address":"전북특별자치도 전주시 완산구 유연로 5(E동 1층 효자동3가)","jibunAddress":"","phone":"","foodType":"","mainFood":"","designatedDate":"2025-11-19","lat":35.817944035,"lng":127.14117396,"region":"전북특별자치도","source":"safefood","safeFoodGrade":"매우우수","safeFoodCertNo":"HG250641637"},{"id":"safefood-jeonbuk-HG250641636","name":"맘스터치랩(LAB) 전주효자디아이(DI)점","address":"전북특별자치도 전주시 완산구 유연로 5(E동 1층 효자동3가)","jibunAddress":"","phone":"","foodType":"","mainFood":"","designatedDate":"2025-11-19","lat":35.817944035,"lng":127.14117396,"region":"전북특별자치도","source":"safefood","safeFoodGrade":"매우우수","safeFoodCertNo":"HG250641636"},{"id":"safefood-jeonbuk-HG240000149","name":"서울깍두기전주송천점","address":"전북특별자치도 전주시 덕진구 송천중앙로 209(1층 일부호 송천동1가)","jibunAddress":"","phone":"","foodType":"","mainFood":"","designatedDate":"2026-01-15","lat":35.846560658,"lng":127.120637568,"region":"전북특별자치도","source":"safefood","safeFoodGrade":"매우우수","safeFoodCertNo":"HG240000149"},{"id":"safefood-jeonbuk-HG250640984","name":"할리스 전주효천점","address":"전북특별자치도 전주시 완산구 쑥고개로 351(1층 101호, 102호 효자동2가)","jibunAddress":"","phone":"","foodType":"","mainFood":"","designatedDate":"2025-11-03","lat":35.817944035,"lng":127.14117396,"region":"전북특별자치도","source":"safefood","safeFoodGrade":"매우우수","safeFoodCertNo":"HG250640984"},{"id":"safefood-jeonbuk-HG250640812","name":"인생닭강정(봉동둔산점)","address":"전북특별자치도 완주군 봉동읍 둔산1로 107(115동 103호 라송 센트럴카운티)","jibunAddress":"","phone":"","foodType":"","mainFood":"","designatedDate":"2025-10-29","lat":35.935051257,"lng":127.152932723,"region":"전북특별자치도","source":"safefood","safeFoodGrade":"매우우수","safeFoodCertNo":"HG250640812"},{"id":"safefood-jeonbuk-HG250641340","name":"읍천리382 완주봉동점","address":"전북특별자치도 완주군 봉동읍 과학로 1015","jibunAddress":"","phone":"","foodType":"","mainFood":"","designatedDate":"2025-11-11","lat":35.935051257,"lng":127.152932723,"region":"전북특별자치도","source":"safefood","safeFoodGrade":"매우우수","safeFoodCertNo":"HG250641340"},{"id":"safefood-jeonbuk-HG250641600","name":"홍반점","address":"전북특별자치도 완주군 봉동읍 봉동동서로 152","jibunAddress":"","phone":"","foodType":"","mainFood":"","designatedDate":"2025-11-19","lat":35.935051257,"lng":127.152932723,"region":"전북특별자치도","source":"safefood","safeFoodGrade":"우수","safeFoodCertNo":"HG250641600"},{"id":"safefood-jeonbuk-HG250641471","name":"순백당","address":"전북특별자치도 고창군 고창읍 석정2로 160","jibunAddress":"","phone":"","foodType":"","mainFood":"","designatedDate":"2025-11-13","lat":35.434296653,"lng":126.702283308,"region":"전북특별자치도","source":"safefood","safeFoodGrade":"매우우수","safeFoodCertNo":"HG250641471"},{"id":"safefood-jeonbuk-HG240000082","name":"비비큐백제대로점","address":"전북특별자치도 전주시 완산구 전주천서로 445(상가동 1층 B-105호 서신동, 서신 아이파크 e-편한세상)","jibunAddress":"","phone":"","foodType":"","mainFood":"","designatedDate":"2026-01-10","lat":35.817944035,"lng":127.14117396,"region":"전북특별자치도","source":"safefood","safeFoodGrade":"매우우수","safeFoodCertNo":"HG240000082"},{"id":"safefood-jeonbuk-HG240001022","name":"투섬플레이스서원로점","address":"전북특별자치도 전주시 완산구 서원로 339(1층 중화산동1가)","jibunAddress":"","phone":"","foodType":"","mainFood":"","designatedDate":"2026-02-22","lat":35.817944035,"lng":127.14117396,"region":"전북특별자치도","source":"safefood","safeFoodGrade":"매우우수","safeFoodCertNo":"HG240001022"},{"id":"safefood-jeonbuk-HG220000217","name":"(주)한일알이에스롯데리아수송점","address":"전북특별자치도 군산시 서수송1길 2(1층 나운동)","jibunAddress":"","phone":"","foodType":"","mainFood":"","designatedDate":"2026-01-18","lat":35.964856076,"lng":126.709367728,"region":"전북특별자치도","source":"safefood","safeFoodGrade":"매우우수","safeFoodCertNo":"HG220000217"},{"id":"safefood-jeonbuk-HG230009540","name":"이삭토스트 완주삼봉점","address":"전북특별자치도 완주군 삼례읍 삼봉1로 2(107호)","jibunAddress":"","phone":"","foodType":"","mainFood":"","designatedDate":"2025-11-27","lat":35.923180991,"lng":127.108132149,"region":"전북특별자치도","source":"safefood","safeFoodGrade":"매우우수","safeFoodCertNo":"HG230009540"},{"id":"safefood-jeonbuk-HG190001864","name":"스타벅스전주경원점","address":"전북특별자치도 전주시 완산구 전주객사4길 44-18(고사동)","jibunAddress":"","phone":"","foodType":"","mainFood":"","designatedDate":"2025-11-25","lat":35.817944035,"lng":127.14117396,"region":"전북특별자치도","source":"safefood","safeFoodGrade":"매우우수","safeFoodCertNo":"HG190001864"},{"id":"safefood-jeonbuk-HG250002224","name":"빽다방 전주효자기전점","address":"전북특별자치도 전주시 완산구 우전로 339(1층 효자동3가)","jibunAddress":"","phone":"","foodType":"","mainFood":"","designatedDate":"2025-03-17","lat":35.817944035,"lng":127.14117396,"region":"전북특별자치도","source":"safefood","safeFoodGrade":"매우우수","safeFoodCertNo":"HG250002224"},{"id":"safefood-jeonbuk-HG250640021","name":"컴포즈커피 전주상산타운점","address":"전북특별자치도 전주시 완산구 거마평로 121(상가2동 1층 102호,118호 효자동1가)","jibunAddress":"","phone":"","foodType":"","mainFood":"","designatedDate":"2025-09-30","lat":35.817944035,"lng":127.14117396,"region":"전북특별자치도","source":"safefood","safeFoodGrade":"매우우수","safeFoodCertNo":"HG250640021"},{"id":"safefood-jeonbuk-HG210011371","name":"이건참치","address":"전북특별자치도 완주군 이서면 오공로 11-20(3층 301,302호)","jibunAddress":"","phone":"","foodType":"","mainFood":"","designatedDate":"2025-12-07","lat":35.801843506,"lng":127.025788907,"region":"전북특별자치도","source":"safefood","safeFoodGrade":"매우우수","safeFoodCertNo":"HG210011371"},{"id":"safefood-jeonbuk-HG250641900","name":"푸디스트(주)덕유산하행휴게소 GS25 덕유산휴게소하행점 고피자","address":"전북특별자치도 장수군 계북면 통영대전고속도로 147(덕유산휴게소)","jibunAddress":"","phone":"","foodType":"","mainFood":"","designatedDate":"2025-11-25","lat":35.801960667,"lng":127.657527996,"region":"전북특별자치도","source":"safefood","safeFoodGrade":"매우우수","safeFoodCertNo":"HG250641900"},{"id":"safefood-jeonbuk-HG250641899","name":"푸디스트(주)덕유산상행휴게소GS25덕유산상행점고피자","address":"전북특별자치도 무주군 안성면 통영대전고속도로 148","jibunAddress":"","phone":"","foodType":"","mainFood":"","designatedDate":"2025-11-25","lat":35.841848322,"lng":127.682317286,"region":"전북특별자치도","source":"safefood","safeFoodGrade":"매우우수","safeFoodCertNo":"HG250641899"},{"id":"safefood-jeonbuk-HG220003681","name":"푸디스트(주)덕유산상행휴게소점(스며드낵,하오츠미엔)","address":"전북특별자치도 무주군 안성면 통영대전고속도로 148(덕유산고속도로휴게소)","jibunAddress":"","phone":"","foodType":"","mainFood":"","designatedDate":"2024-05-23","lat":35.841848322,"lng":127.682317286,"region":"전북특별자치도","source":"safefood","safeFoodGrade":"매우우수","safeFoodCertNo":"HG220003681"},{"id":"safefood-jeonbuk-HG220003685","name":"푸디스트(주)덕유산상행휴게소점(소담뚝배기,카츠랑)","address":"전북특별자치도 무주군 안성면 통영대전고속도로 148(덕유산고속도로휴게소)","jibunAddress":"","phone":"","foodType":"","mainFood":"","designatedDate":"2024-05-23","lat":35.841848322,"lng":127.682317286,"region":"전북특별자치도","source":"safefood","safeFoodGrade":"매우우수","safeFoodCertNo":"HG220003685"},{"id":"safefood-jeonbuk-HG250641567","name":"교촌치킨인후점","address":"전북특별자치도 전주시 덕진구 안덕원로 275(1층 일부호 인후동1가)","jibunAddress":"","phone":"","foodType":"","mainFood":"","designatedDate":"2025-11-19","lat":35.846560658,"lng":127.120637568,"region":"전북특별자치도","source":"safefood","safeFoodGrade":"매우우수","safeFoodCertNo":"HG250641567"},{"id":"safefood-jeonbuk-HG250641566","name":"교촌치킨아중점","address":"전북특별자치도 전주시 덕진구 건산로 216(인후동1가)","jibunAddress":"","phone":"","foodType":"","mainFood":"","designatedDate":"2025-11-19","lat":35.846560658,"lng":127.120637568,"region":"전북특별자치도","source":"safefood","safeFoodGrade":"매우우수","safeFoodCertNo":"HG250641566"},{"id":"safefood-jeonbuk-HG250640541","name":"전통찻집 인사동","address":"전북특별자치도 정읍시 수성동 639-1","jibunAddress":"","phone":"","foodType":"","mainFood":"","designatedDate":"2025-10-20","lat":35.582391028574854,"lng":126.85751049295655,"region":"전북특별자치도","source":"safefood","safeFoodGrade":"매우우수","safeFoodCertNo":"HG250640541"},{"id":"safefood-jeonbuk-HG250640963","name":"복돼지삼겹살","address":"전북특별자치도 정읍시 중앙로 247(상동)","jibunAddress":"","phone":"","foodType":"","mainFood":"","designatedDate":"2025-11-03","lat":35.567722782,"lng":126.850628352,"region":"전북특별자치도","source":"safefood","safeFoodGrade":"매우우수","safeFoodCertNo":"HG250640963"},{"id":"safefood-jeonbuk-HG230009273","name":"안주텔","address":"전북특별자치도 전주시 완산구 효자로 161(2층 204호일부호 효자동3가)","jibunAddress":"","phone":"","foodType":"","mainFood":"","designatedDate":"2025-11-21","lat":35.817944035,"lng":127.14117396,"region":"전북특별자치도","source":"safefood","safeFoodGrade":"매우우수","safeFoodCertNo":"HG230009273"},{"id":"safefood-jeonbuk-HG250641890","name":"한식, 용우동, 라면","address":"전북특별자치도 진안군 진안읍 익산장수고속도로 42","jibunAddress":"","phone":"","foodType":"","mainFood":"","designatedDate":"2025-11-25","lat":35.792865888,"lng":127.433491894,"region":"전북특별자치도","source":"safefood","safeFoodGrade":"매우우수","safeFoodCertNo":"HG250641890"},{"id":"safefood-jeonbuk-HG190001844","name":"스타벅스 익산영등점","address":"전북특별자치도 익산시 무왕로 1052(영등동)","jibunAddress":"","phone":"","foodType":"","mainFood":"","designatedDate":"2025-11-25","lat":35.967725005,"lng":127.016576438,"region":"전북특별자치도","source":"safefood","safeFoodGrade":"매우우수","safeFoodCertNo":"HG190001844"},{"id":"safefood-jeonbuk-HG250640783","name":"더디다커피로스터리","address":"전북특별자치도 전주시 완산구 온고을로 2(2층 서신동)","jibunAddress":"","phone":"","foodType":"","mainFood":"","designatedDate":"2025-10-29","lat":35.817944035,"lng":127.14117396,"region":"전북특별자치도","source":"safefood","safeFoodGrade":"매우우수","safeFoodCertNo":"HG250640783"},{"id":"safefood-jeonbuk-HG250640782","name":"마이마이케이크","address":"전북특별자치도 전주시 완산구 온고을로 2(지하1층 서신동)","jibunAddress":"","phone":"","foodType":"","mainFood":"","designatedDate":"2025-10-29","lat":35.817944035,"lng":127.14117396,"region":"전북특별자치도","source":"safefood","safeFoodGrade":"매우우수","safeFoodCertNo":"HG250640782"},{"id":"safefood-jeonbuk-HG230009354","name":"할리스커피전북대덕진광장점","address":"전북특별자치도 전주시 덕진구 덕진광장로 12(덕진동1가, 1-2층일부)","jibunAddress":"","phone":"","foodType":"","mainFood":"","designatedDate":"2025-11-21","lat":35.846560658,"lng":127.120637568,"region":"전북특별자치도","source":"safefood","safeFoodGrade":"매우우수","safeFoodCertNo":"HG230009354"},{"id":"safefood-jeonbuk-HG250640016","name":"맥적 전주본점","address":"전북특별자치도 전주시 완산구 홍산북로 60-22(1층 효자동3가)","jibunAddress":"","phone":"","foodType":"","mainFood":"","designatedDate":"2025-09-30","lat":35.817944035,"lng":127.14117396,"region":"전북특별자치도","source":"safefood","safeFoodGrade":"매우우수","safeFoodCertNo":"HG250640016"},{"id":"safefood-jeonbuk-HG200006723","name":"교촌치킨(동산점)","address":"전북특별자치도 익산시 서동로 95(1층 마동)","jibunAddress":"","phone":"","foodType":"","mainFood":"","designatedDate":"2024-09-15","lat":35.936437629,"lng":126.967469476,"region":"전북특별자치도","source":"safefood","safeFoodGrade":"매우우수","safeFoodCertNo":"HG200006723"},{"id":"safefood-jeonbuk-HG250640516","name":"남원카츠","address":"전북특별자치도 남원시 향단로 102(1층 동충동)","jibunAddress":"","phone":"","foodType":"","mainFood":"","designatedDate":"2025-10-20","lat":35.404808831,"lng":127.382534089,"region":"전북특별자치도","source":"safefood","safeFoodGrade":"매우우수","safeFoodCertNo":"HG250640516"},{"id":"safefood-jeonbuk-HG250640840","name":"카페 가든히","address":"전북특별자치도 남원시 향단로 98-1(1층 동충동)","jibunAddress":"","phone":"","foodType":"","mainFood":"","designatedDate":"2025-10-29","lat":35.404808831,"lng":127.382534089,"region":"전북특별자치도","source":"safefood","safeFoodGrade":"매우우수","safeFoodCertNo":"HG250640840"},{"id":"safefood-jeonbuk-HG250640514","name":"맛플렉스","address":"전북특별자치도 남원시 향단로 64(1층 죽항동)","jibunAddress":"","phone":"","foodType":"","mainFood":"","designatedDate":"2025-10-20","lat":35.404808831,"lng":127.382534089,"region":"전북특별자치도","source":"safefood","safeFoodGrade":"매우우수","safeFoodCertNo":"HG250640514"},{"id":"safefood-jeonbuk-HG250641304","name":"삼월","address":"전북특별자치도 남원시 주천면 정령치로 210-8(주1동 1층)","jibunAddress":"","phone":"","foodType":"","mainFood":"","designatedDate":"2025-11-11","lat":35.401376754,"lng":127.421518143,"region":"전북특별자치도","source":"safefood","safeFoodGrade":"매우우수","safeFoodCertNo":"HG250641304"},{"id":"safefood-jeonbuk-HG230010254","name":"샤브퀴진","address":"전북특별자치도 전주시 완산구 온고을로 2(지하1층 서신동)","jibunAddress":"","phone":"","foodType":"","mainFood":"","designatedDate":"2025-12-15","lat":35.817944035,"lng":127.14117396,"region":"전북특별자치도","source":"safefood","safeFoodGrade":"매우우수","safeFoodCertNo":"HG230010254"},{"id":"safefood-jeonbuk-HG230010255","name":"올빚만두","address":"전북특별자치도 전주시 완산구 온고을로 2(지하1층 서신동)","jibunAddress":"","phone":"","foodType":"","mainFood":"","designatedDate":"2025-12-15","lat":35.817944035,"lng":127.14117396,"region":"전북특별자치도","source":"safefood","safeFoodGrade":"매우우수","safeFoodCertNo":"HG230010255"},{"id":"safefood-jeonbuk-HG230010246","name":"돈이찌","address":"전북특별자치도 전주시 완산구 온고을로 2(지하1층 서신동)","jibunAddress":"","phone":"","foodType":"","mainFood":"","designatedDate":"2025-12-15","lat":35.817944035,"lng":127.14117396,"region":"전북특별자치도","source":"safefood","safeFoodGrade":"매우우수","safeFoodCertNo":"HG230010246"},{"id":"safefood-jeonbuk-HG230010252","name":"주식회사미도이치","address":"전북특별자치도 전주시 완산구 온고을로 2(지하1층 서신동)","jibunAddress":"","phone":"","foodType":"","mainFood":"","designatedDate":"2025-12-15","lat":35.817944035,"lng":127.14117396,"region":"전북특별자치도","source":"safefood","safeFoodGrade":"매우우수","safeFoodCertNo":"HG230010252"},{"id":"safefood-jeonbuk-HG230010244","name":"롤리볼리 롯데백화점전주점(ROLLY BALLY)","address":"전북특별자치도 전주시 완산구 온고을로 2(롯데백화점 지하1층 서신동)","jibunAddress":"","phone":"","foodType":"","mainFood":"","designatedDate":"2025-12-15","lat":35.817944035,"lng":127.14117396,"region":"전북특별자치도","source":"safefood","safeFoodGrade":"매우우수","safeFoodCertNo":"HG230010244"},{"id":"safefood-jeonbuk-HG230010245","name":"익선동121 롯데전주점","address":"전북특별자치도 전주시 완산구 온고을로 2(지하1층 서신동)","jibunAddress":"","phone":"","foodType":"","mainFood":"","designatedDate":"2025-12-15","lat":35.817944035,"lng":127.14117396,"region":"전북특별자치도","source":"safefood","safeFoodGrade":"매우우수","safeFoodCertNo":"HG230010245"},{"id":"safefood-jeonbuk-HG230010243","name":"롯데웰푸드(주)파스퇴르밀크바 (전주점)","address":"전북특별자치도 전주시 완산구 온고을로 2(롯데백화점 전주점 지하1층 서신동)","jibunAddress":"","phone":"","foodType":"","mainFood":"","designatedDate":"2025-12-15","lat":35.817944035,"lng":127.14117396,"region":"전북특별자치도","source":"safefood","safeFoodGrade":"매우우수","safeFoodCertNo":"HG230010243"},{"id":"safefood-jeonbuk-HG230010242","name":"크리스피크림롯데전주점","address":"전북특별자치도 전주시 완산구 온고을로 2(서신동)","jibunAddress":"","phone":"","foodType":"","mainFood":"","designatedDate":"2025-12-15","lat":35.817944035,"lng":127.14117396,"region":"전북특별자치도","source":"safefood","safeFoodGrade":"매우우수","safeFoodCertNo":"HG230010242"},{"id":"safefood-jeonbuk-HG230010249","name":"띤띤익스프레스 롯데백화점전주점","address":"전북특별자치도 전주시 완산구 온고을로 2(지하1층 서신동)","jibunAddress":"","phone":"","foodType":"","mainFood":"","designatedDate":"2025-12-15","lat":35.817944035,"lng":127.14117396,"region":"전북특별자치도","source":"safefood","safeFoodGrade":"매우우수","safeFoodCertNo":"HG230010249"},{"id":"safefood-jeonbuk-HG230009692","name":"설빙고창점","address":"전북특별자치도 고창군 고창읍 월곡로 46(1층)","jibunAddress":"","phone":"","foodType":"","mainFood":"","designatedDate":"2025-11-29","lat":35.434296653,"lng":126.702283308,"region":"전북특별자치도","source":"safefood","safeFoodGrade":"매우우수","safeFoodCertNo":"HG230009692"},{"id":"safefood-jeonbuk-HG230009547","name":"설빙완주점","address":"전북특별자치도 완주군 봉동읍 둔산3로 64(2층)","jibunAddress":"","phone":"","foodType":"","mainFood":"","designatedDate":"2025-11-27","lat":35.935051257,"lng":127.152932723,"region":"전북특별자치도","source":"safefood","safeFoodGrade":"매우우수","safeFoodCertNo":"HG230009547"},{"id":"safefood-jeonbuk-HG230009358","name":"설빙인후점","address":"전북특별자치도 전주시 덕진구 무삼지로 83(2층 인후동1가)","jibunAddress":"","phone":"","foodType":"","mainFood":"","designatedDate":"2025-11-21","lat":35.846560658,"lng":127.120637568,"region":"전북특별자치도","source":"safefood","safeFoodGrade":"매우우수","safeFoodCertNo":"HG230009358"},{"id":"safefood-jeonbuk-HG210010513","name":"설빙전주에코시티점","address":"전북특별자치도 전주시 덕진구 세병로 174-9(2층 일부호 송천동2가)","jibunAddress":"","phone":"","foodType":"","mainFood":"","designatedDate":"2025-11-10","lat":35.846560658,"lng":127.120637568,"region":"전북특별자치도","source":"safefood","safeFoodGrade":"매우우수","safeFoodCertNo":"HG210010513"},{"id":"safefood-jeonbuk-HG250640774","name":"도미노피자 전북 완주점","address":"전북특별자치도 완주군 봉동읍 과학로 997(1동 1층 103호)","jibunAddress":"","phone":"","foodType":"","mainFood":"","designatedDate":"2025-10-29","lat":35.935051257,"lng":127.152932723,"region":"전북특별자치도","source":"safefood","safeFoodGrade":"매우우수","safeFoodCertNo":"HG250640774"},{"id":"safefood-jeonbuk-HG190001920","name":"스타벅스 전북정읍 DT","address":"전북특별자치도 정읍시 충정로 271(수성동)","jibunAddress":"","phone":"","foodType":"","mainFood":"","designatedDate":"2025-11-26","lat":35.557883886,"lng":126.871016623,"region":"전북특별자치도","source":"safefood","safeFoodGrade":"매우우수","safeFoodCertNo":"HG190001920"},{"id":"safefood-jeonbuk-HG250640704","name":"맘스피자전주시외버스터미널점","address":"전북특별자치도 전주시 덕진구 가리내로 34(1층 105호 금암동)","jibunAddress":"","phone":"","foodType":"","mainFood":"","designatedDate":"2025-10-27","lat":35.846560658,"lng":127.120637568,"region":"전북특별자치도","source":"safefood","safeFoodGrade":"매우우수","safeFoodCertNo":"HG250640704"},{"id":"safefood-jeonbuk-HG250640703","name":"맘스터치전주시외버스터미널점","address":"전북특별자치도 전주시 덕진구 가리내로 34(1층 106호 금암동)","jibunAddress":"","phone":"","foodType":"","mainFood":"","designatedDate":"2025-10-27","lat":35.846560658,"lng":127.120637568,"region":"전북특별자치도","source":"safefood","safeFoodGrade":"매우우수","safeFoodCertNo":"HG250640703"},{"id":"safefood-jeonbuk-HG250641524","name":"맘스터치 전주혁신도시점","address":"전북특별자치도 완주군 이서면 안전로 163(108호)","jibunAddress":"","phone":"","foodType":"","mainFood":"","designatedDate":"2025-11-19","lat":35.801843506,"lng":127.025788907,"region":"전북특별자치도","source":"safefood","safeFoodGrade":"매우우수","safeFoodCertNo":"HG250641524"},{"id":"safefood-jeonbuk-HG250640702","name":"맘스터치안골점","address":"전북특별자치도 전주시 덕진구 안덕원로 244-1(1층 인후동1가)","jibunAddress":"","phone":"","foodType":"","mainFood":"","designatedDate":"2025-10-27","lat":35.846560658,"lng":127.120637568,"region":"전북특별자치도","source":"safefood","safeFoodGrade":"매우우수","safeFoodCertNo":"HG250640702"},{"id":"safefood-jeonbuk-HG250640653","name":"맘스터치모현점","address":"전북특별자치도 익산시 고현로 96(1층 모현동1가)","jibunAddress":"","phone":"","foodType":"","mainFood":"","designatedDate":"2025-10-23","lat":35.937920051,"lng":126.941023093,"region":"전북특별자치도","source":"safefood","safeFoodGrade":"매우우수","safeFoodCertNo":"HG250640653"},{"id":"safefood-jeonbuk-HG250640010","name":"교촌치킨(신시가지점)","address":"전북특별자치도 전주시 완산구 봉곡로 114(효자동2가)","jibunAddress":"","phone":"","foodType":"","mainFood":"","designatedDate":"2025-09-30","lat":35.817944035,"lng":127.14117396,"region":"전북특별자치도","source":"safefood","safeFoodGrade":"매우우수","safeFoodCertNo":"HG250640010"},{"id":"safefood-jeonbuk-HG250641290","name":"교촌치킨 마동점","address":"전북특별자치도 익산시 선화1로 76(근린생활시설동 지하 3층 107호 마동, 익산자이 그랜드파크)","jibunAddress":"","phone":"","foodType":"","mainFood":"","designatedDate":"2025-11-11","lat":35.941203905,"lng":126.967167091,"region":"전북특별자치도","source":"safefood","safeFoodGrade":"매우우수","safeFoodCertNo":"HG250641290"},{"id":"safefood-jeonbuk-HG250640763","name":"공차 완주삼봉지구점","address":"전북특별자치도 완주군 삼례읍 삼봉3로 16(1층 104호)","jibunAddress":"","phone":"","foodType":"","mainFood":"","designatedDate":"2025-10-29","lat":35.923180991,"lng":127.108132149,"region":"전북특별자치도","source":"safefood","safeFoodGrade":"매우우수","safeFoodCertNo":"HG250640763"},{"id":"safefood-jeonbuk-HG230009538","name":"더벤티 완주군청점","address":"전북특별자치도 완주군 용진읍 운곡4로 20(상가동 B110,111호)","jibunAddress":"","phone":"","foodType":"","mainFood":"","designatedDate":"2025-11-27","lat":35.875592436,"lng":127.158481673,"region":"전북특별자치도","source":"safefood","safeFoodGrade":"매우우수","safeFoodCertNo":"HG230009538"},{"id":"safefood-jeonbuk-HG210010507","name":"배스킨라빈스 전북삼례점","address":"전북특별자치도 완주군 삼례읍 삼례로 382","jibunAddress":"","phone":"","foodType":"","mainFood":"","designatedDate":"2025-11-10","lat":35.923180991,"lng":127.108132149,"region":"전북특별자치도","source":"safefood","safeFoodGrade":"매우우수","safeFoodCertNo":"HG210010507"},{"id":"safefood-jeonbuk-HG210010500","name":"베스킨라빈스","address":"전북특별자치도 완주군 봉동읍 과학로 1033(1층)","jibunAddress":"","phone":"","foodType":"","mainFood":"","designatedDate":"2025-11-09","lat":35.935051257,"lng":127.152932723,"region":"전북특별자치도","source":"safefood","safeFoodGrade":"매우우수","safeFoodCertNo":"HG210010500"},{"id":"safefood-jeonbuk-HG240000121","name":"이디야 부안관광호텔점","address":"전북특별자치도 부안군 행안면 변산로 70-1","jibunAddress":"","phone":"","foodType":"","mainFood":"","designatedDate":"2026-01-11","lat":35.729068695,"lng":126.710681632,"region":"전북특별자치도","source":"safefood","safeFoodGrade":"매우우수","safeFoodCertNo":"HG240000121"},{"id":"safefood-jeonbuk-HG250639937","name":"뚜레쥬르군산디오션점","address":"전북특별자치도 군산시 궁포3로 14(105호 조촌동)","jibunAddress":"","phone":"","foodType":"","mainFood":"","designatedDate":"2025-09-29","lat":35.976756489,"lng":126.741054986,"region":"전북특별자치도","source":"safefood","safeFoodGrade":"매우우수","safeFoodCertNo":"HG250639937"},{"id":"safefood-jeonbuk-HG250640449","name":"멘지 군산디오션점","address":"전북특별자치도 군산시 궁포1로 24-3(202-4호 조촌동)","jibunAddress":"","phone":"","foodType":"","mainFood":"","designatedDate":"2025-10-20","lat":35.97660271,"lng":126.740569988,"region":"전북특별자치도","source":"safefood","safeFoodGrade":"매우우수","safeFoodCertNo":"HG250640449"},{"id":"safefood-jeonbuk-HG240629630","name":"누구나홀딱반한닭전주호성점","address":"전북특별자치도 전주시 덕진구 호성2길 18-5(호성동1가)","jibunAddress":"","phone":"","foodType":"","mainFood":"","designatedDate":"2024-10-15","lat":35.846560658,"lng":127.120637568,"region":"전북특별자치도","source":"safefood","safeFoodGrade":"우수","safeFoodCertNo":"HG240629630"},{"id":"safefood-jeonbuk-HG190002866","name":"롯데리아 임실점","address":"전북특별자치도 임실군 임실읍 운수로 19","jibunAddress":"","phone":"","foodType":"","mainFood":"","designatedDate":"2025-12-30","lat":35.626948881,"lng":127.298372535,"region":"전북특별자치도","source":"safefood","safeFoodGrade":"매우우수","safeFoodCertNo":"HG190002866"},{"id":"safefood-jeonbuk-HG250639933","name":"메가엠지씨커피 전주중인점","address":"전북특별자치도 전주시 완산구 우림로 1029(삼천동2가)","jibunAddress":"","phone":"","foodType":"","mainFood":"","designatedDate":"2025-09-29","lat":35.817944035,"lng":127.14117396,"region":"전북특별자치도","source":"safefood","safeFoodGrade":"매우우수","safeFoodCertNo":"HG250639933"},{"id":"safefood-jeonbuk-HG230009133","name":"한국맥도날드(유)익산영등디티점","address":"전북특별자치도 익산시 무왕로 1046(1,2층 영등동)","jibunAddress":"","phone":"","foodType":"","mainFood":"","designatedDate":"2025-11-20","lat":35.967725005,"lng":127.016576438,"region":"전북특별자치도","source":"safefood","safeFoodGrade":"매우우수","safeFoodCertNo":"HG230009133"},{"id":"safefood-jeonbuk-HG190001819","name":"스타벅스군산수송점","address":"전북특별자치도 군산시 수송로 195(1층 수송동, 파티마빌딩)","jibunAddress":"","phone":"","foodType":"","mainFood":"","designatedDate":"2025-11-22","lat":35.964463355,"lng":126.730276825,"region":"전북특별자치도","source":"safefood","safeFoodGrade":"매우우수","safeFoodCertNo":"HG190001819"},{"id":"safefood-jeonbuk-HG250639496","name":"투썸플레이스전주반월디티점","address":"전북특별자치도 전주시 덕진구 혁신로 724(1~2층 반월동)","jibunAddress":"","phone":"","foodType":"","mainFood":"","designatedDate":"2025-09-18","lat":35.846560658,"lng":127.120637568,"region":"전북특별자치도","source":"safefood","safeFoodGrade":"매우우수","safeFoodCertNo":"HG250639496"},{"id":"safefood-jeonbuk-HG230009363","name":"코레일유통(주) 던킨도너츠익산역점","address":"전북특별자치도 익산시 익산대로 153(3층 창인동2가, 익산역)","jibunAddress":"","phone":"","foodType":"","mainFood":"","designatedDate":"2025-11-21","lat":35.953110472,"lng":126.952600153,"region":"전북특별자치도","source":"safefood","safeFoodGrade":"매우우수","safeFoodCertNo":"HG230009363"},{"id":"safefood-jeonbuk-HG230010305","name":"노브랜드버거군산수송점","address":"전북특별자치도 군산시 수송로 207(1층 102호 수송동)","jibunAddress":"","phone":"","foodType":"","mainFood":"","designatedDate":"2025-12-18","lat":35.964463355,"lng":126.730276825,"region":"전북특별자치도","source":"safefood","safeFoodGrade":"매우우수","safeFoodCertNo":"HG230010305"},{"id":"safefood-jeonbuk-HG250639341","name":"네네치킨 앤 봉구스밥버거 김제점","address":"전북특별자치도 김제시 동서로 214(요촌동)","jibunAddress":"","phone":"","foodType":"","mainFood":"","designatedDate":"2025-09-17","lat":35.799353658,"lng":126.887457238,"region":"전북특별자치도","source":"safefood","safeFoodGrade":"매우우수","safeFoodCertNo":"HG250639341"},{"id":"safefood-jeonbuk-HG250641168","name":"비에이치씨(BHC)봉동 2호점","address":"전북특별자치도 완주군 봉동읍 낙평장기로 10(2동 102호 봉동 광신프로그레스 아파트)","jibunAddress":"","phone":"","foodType":"","mainFood":"","designatedDate":"2025-11-10","lat":35.935051257,"lng":127.152932723,"region":"전북특별자치도","source":"safefood","safeFoodGrade":"우수","safeFoodCertNo":"HG250641168"},{"id":"safefood-jeonbuk-HG250639663","name":"폴 바셋 고창 선운사점","address":"전북특별자치도 고창군 아산면 선운사로 232","jibunAddress":"","phone":"","foodType":"","mainFood":"","designatedDate":"2025-09-23","lat":35.503918653,"lng":126.585513217,"region":"전북특별자치도","source":"safefood","safeFoodGrade":"매우우수","safeFoodCertNo":"HG250639663"},{"id":"safefood-jeonbuk-HG250639930","name":"프랭크버거 완주군청점","address":"전북특별자치도 완주군 용진읍 운곡4로 20(B105호 모아미래도 센트럴시티 1차 아파트)","jibunAddress":"","phone":"","foodType":"","mainFood":"","designatedDate":"2025-09-29","lat":35.875592436,"lng":127.158481673,"region":"전북특별자치도","source":"safefood","safeFoodGrade":"매우우수","safeFoodCertNo":"HG250639930"},{"id":"safefood-jeonbuk-HG230008358","name":"씨지브이전주효자투썸플러스","address":"전북특별자치도 전주시 완산구 용머리로 45(효자동1가)","jibunAddress":"","phone":"","foodType":"","mainFood":"","designatedDate":"2025-11-01","lat":35.817944035,"lng":127.14117396,"region":"전북특별자치도","source":"safefood","safeFoodGrade":"매우우수","safeFoodCertNo":"HG230008358"},{"id":"safefood-jeonbuk-HG250639337","name":"노브랜드버거 남원도통점","address":"전북특별자치도 남원시 용성로 228(주1동 1층 도통동)","jibunAddress":"","phone":"","foodType":"","mainFood":"","designatedDate":"2025-09-17","lat":35.41462425,"lng":127.394161238,"region":"전북특별자치도","source":"safefood","safeFoodGrade":"매우우수","safeFoodCertNo":"HG250639337"},{"id":"safefood-jeonbuk-HG250640828","name":"비에이치씨전주인후점","address":"전북특별자치도 전주시 덕진구 심방죽로 22(1층 1호 일부호 인후동1가)","jibunAddress":"","phone":"","foodType":"","mainFood":"","designatedDate":"2025-10-29","lat":35.846560658,"lng":127.120637568,"region":"전북특별자치도","source":"safefood","safeFoodGrade":"매우우수","safeFoodCertNo":"HG250640828"},{"id":"safefood-jeonbuk-HG250640913","name":"비에이치씨(BHC) 치킨","address":"전북특별자치도 장수군 장수읍 구시장길 6-18","jibunAddress":"","phone":"","foodType":"","mainFood":"","designatedDate":"2025-10-30","lat":35.646497226,"lng":127.521846956,"region":"전북특별자치도","source":"safefood","safeFoodGrade":"매우우수","safeFoodCertNo":"HG250640913"},{"id":"safefood-jeonbuk-HG250640631","name":"투썸플레이스 익산부송점","address":"전북특별자치도 익산시 부송로 103(1층 부송동)","jibunAddress":"","phone":"","foodType":"","mainFood":"","designatedDate":"2025-10-23","lat":35.953616724,"lng":126.992289663,"region":"전북특별자치도","source":"safefood","safeFoodGrade":"매우우수","safeFoodCertNo":"HG250640631"},{"id":"safefood-jeonbuk-HG230010018","name":"어랑","address":"전북특별자치도 무주군 무주읍 주계로 92-10(2층 202,203호)","jibunAddress":"","phone":"","foodType":"","mainFood":"","designatedDate":"2025-12-11","lat":36.007362791,"lng":127.662051116,"region":"전북특별자치도","source":"safefood","safeFoodGrade":"매우우수","safeFoodCertNo":"HG230010018"},{"id":"safefood-jeonbuk-HG230010240","name":"당신은지금치킨이땡긴다 신시가지점","address":"전북특별자치도 전주시 완산구 후곡길 23-7(1층 효자동2가)","jibunAddress":"","phone":"","foodType":"","mainFood":"","designatedDate":"2025-12-15","lat":35.817944035,"lng":127.14117396,"region":"전북특별자치도","source":"safefood","safeFoodGrade":"매우우수","safeFoodCertNo":"HG230010240"},{"id":"safefood-jeonbuk-HG230009352","name":"스타벅스 익산어양점","address":"전북특별자치도 익산시 하나로 495(영등동)","jibunAddress":"","phone":"","foodType":"","mainFood":"","designatedDate":"2025-11-21","lat":35.967942866,"lng":126.980492055,"region":"전북특별자치도","source":"safefood","safeFoodGrade":"매우우수","safeFoodCertNo":"HG230009352"},{"id":"safefood-jeonbuk-HG230008030","name":"비에이치씨서학점","address":"전북특별자치도 전주시 완산구 흑석로 53(B동 102호 서서학동, 푸른맨션 상가동)","jibunAddress":"","phone":"","foodType":"","mainFood":"","designatedDate":"2025-10-25","lat":35.817944035,"lng":127.14117396,"region":"전북특별자치도","source":"safefood","safeFoodGrade":"매우우수","safeFoodCertNo":"HG230008030"},{"id":"safefood-jeonbuk-HG210009993","name":"호식이두마리치킨송천2호점","address":"전북특별자치도 전주시 덕진구 송천중앙로 246(1층 일부호 송천동2가)","jibunAddress":"","phone":"","foodType":"","mainFood":"","designatedDate":"2025-10-25","lat":35.846560658,"lng":127.120637568,"region":"전북특별자치도","source":"safefood","safeFoodGrade":"매우우수","safeFoodCertNo":"HG210009993"},{"id":"safefood-jeonbuk-HG250639077","name":"빽다방 김제시청점","address":"전북특별자치도 김제시 중앙로 57(1층 서암동)","jibunAddress":"","phone":"","foodType":"","mainFood":"","designatedDate":"2025-09-11","lat":35.803885407,"lng":126.889119275,"region":"전북특별자치도","source":"safefood","safeFoodGrade":"매우우수","safeFoodCertNo":"HG250639077"},{"id":"safefood-jeonbuk-HG190001870","name":"스타벅스커피 전주효자DT점","address":"전북특별자치도 전주시 완산구 용머리로 7(효자동1가)","jibunAddress":"","phone":"","foodType":"","mainFood":"","designatedDate":"2025-11-25","lat":35.817944035,"lng":127.14117396,"region":"전북특별자치도","source":"safefood","safeFoodGrade":"매우우수","safeFoodCertNo":"HG190001870"},{"id":"safefood-jeonbuk-HG210010736","name":"투썸플레이스 군산지곡호수공원점","address":"전북특별자치도 군산시 백토로 253(1,2층 101,201호 나운동)","jibunAddress":"","phone":"","foodType":"","mainFood":"","designatedDate":"2025-11-17","lat":35.954079599,"lng":126.702785044,"region":"전북특별자치도","source":"safefood","safeFoodGrade":"매우우수","safeFoodCertNo":"HG210010736"},{"id":"safefood-jeonbuk-HG250640166","name":"강 나 루","address":"전북특별자치도 무주군 무주읍 내도로 123","jibunAddress":"","phone":"","foodType":"","mainFood":"","designatedDate":"2025-10-14","lat":36.007362791,"lng":127.662051116,"region":"전북특별자치도","source":"safefood","safeFoodGrade":"매우우수","safeFoodCertNo":"HG250640166"},{"id":"safefood-jeonbuk-HG250640165","name":"무주반딧불카페식당","address":"전북특별자치도 무주군 무주읍 장터로 2(무주반딧불장터, 무주반딧불카페식당)","jibunAddress":"","phone":"","foodType":"","mainFood":"","designatedDate":"2025-10-14","lat":36.007362791,"lng":127.662051116,"region":"전북특별자치도","source":"safefood","safeFoodGrade":"매우우수","safeFoodCertNo":"HG250640165"},{"id":"safefood-jeonbuk-HG230009280","name":"씨유 전주교원점","address":"전북특별자치도 전주시 완산구 온고을로 1(1층 서신동)","jibunAddress":"","phone":"","foodType":"","mainFood":"","designatedDate":"2025-11-21","lat":35.817944035,"lng":127.14117396,"region":"전북특별자치도","source":"safefood","safeFoodGrade":"매우우수","safeFoodCertNo":"HG230009280"},{"id":"safefood-jeonbuk-HG210010543","name":"빈타이혁신점","address":"전북특별자치도 전주시 덕진구 안전로 108-14(1,2층 중동)","jibunAddress":"","phone":"","foodType":"","mainFood":"","designatedDate":"2025-11-10","lat":35.846560658,"lng":127.120637568,"region":"전북특별자치도","source":"safefood","safeFoodGrade":"매우우수","safeFoodCertNo":"HG210010543"},{"id":"safefood-jeonbuk-HG250639437","name":"본도시락전북대점","address":"전북특별자치도 전주시 덕진구 조경단로 83(1층 금암동)","jibunAddress":"","phone":"","foodType":"","mainFood":"","designatedDate":"2025-09-18","lat":35.846560658,"lng":127.120637568,"region":"전북특별자치도","source":"safefood","safeFoodGrade":"매우우수","safeFoodCertNo":"HG250639437"},{"id":"safefood-jeonbuk-HG250640034","name":"본도시락 부안점","address":"전북특별자치도 부안군 부안읍 석정로 223(온기곤안과)","jibunAddress":"","phone":"","foodType":"","mainFood":"","designatedDate":"2025-10-01","lat":35.730542852,"lng":126.735884107,"region":"전북특별자치도","source":"safefood","safeFoodGrade":"매우우수","safeFoodCertNo":"HG250640034"},{"id":"safefood-jeonbuk-HG230009059","name":"던킨도너츠전주고속터미널점","address":"전북특별자치도 전주시 덕진구 가리내로 70(금암동, 고속터미널 1층일부)","jibunAddress":"","phone":"","foodType":"","mainFood":"","designatedDate":"2025-11-16","lat":35.846560658,"lng":127.120637568,"region":"전북특별자치도","source":"safefood","safeFoodGrade":"매우우수","safeFoodCertNo":"HG230009059"},