[{"id":"safefood-daejeon-HG260002851","name":"버거킹 대전신탄진점","address":"대전광역시 대덕구 대덕대로 1554(신혼예식장 1층 석봉동)","jibunAddress":"","phone":"","foodType":"","mainFood":"","designatedDate":"2026-03-26","lat":36.449114213,"lng":127.421069173,"region":"대전광역시","source":"safefood","safeFoodGrade":"적합","safeFoodCertNo":"HG260002851"},{"id":"safefood-daejeon-HG260002850","name":"불닭발땡초동대문엽기떡볶이대전신탄진점","address":"대전광역시 대덕구 대덕대로 1578(1층 석봉동)","jibunAddress":"","phone":"","foodType":"","mainFood":"","designatedDate":"2026-03-26","lat":36.449114213,"lng":127.421069173,"region":"대전광역시","source":"safefood","safeFoodGrade":"적합","safeFoodCertNo":"HG260002850"},{"id":"safefood-daejeon-HG260003018","name":"더 라운지","address":"대전광역시 유성구 온천로 92(인터시티호텔 지상1층 봉명동)","jibunAddress":"","phone":"","foodType":"","mainFood":"","designatedDate":"2026-03-31","lat":36.354980625,"lng":127.342529876,"region":"대전광역시","source":"safefood","safeFoodGrade":"적합","safeFoodCertNo":"HG260003018"},{"id":"safefood-daejeon-HG260002854","name":"팔당원조칼제비 신세계대전점","address":"대전광역시 유성구 엑스포로 1(지하1층 A17호 도룡동)","jibunAddress":"","phone":"","foodType":"","mainFood":"","designatedDate":"2026-03-26","lat":36.377791214,"lng":127.405680192,"region":"대전광역시","source":"safefood","safeFoodGrade":"적합","safeFoodCertNo":"HG260002854"},{"id":"safefood-daejeon-HG260002853","name":"온기정","address":"대전광역시 유성구 엑스포로 1(신세계엑스포점 지하1층 A13호 도룡동)","jibunAddress":"","phone":"","foodType":"","mainFood":"","designatedDate":"2026-03-26","lat":36.377791214,"lng":127.405680192,"region":"대전광역시","source":"safefood","safeFoodGrade":"적합","safeFoodCertNo":"HG260002853"},{"id":"safefood-daejeon-HG260002765","name":"카페 스테이인터뷰","address":"대전광역시 유성구 엑스포로 1(신세계엑스포점 지상9층 H8호 도룡동)","jibunAddress":"","phone":"","foodType":"","mainFood":"","designatedDate":"2026-03-24","lat":36.377791214,"lng":127.405680192,"region":"대전광역시","source":"safefood","safeFoodGrade":"적합","safeFoodCertNo":"HG260002765"},{"id":"safefood-daejeon-HG260002629","name":"하프커피로스터스대전점","address":"대전광역시 유성구 엑스포로 1(신세계엑스포점 지상7층 F79호 도룡동)","jibunAddress":"","phone":"","foodType":"","mainFood":"","designatedDate":"2026-03-20","lat":36.377791214,"lng":127.405680192,"region":"대전광역시","source":"safefood","safeFoodGrade":"적합","safeFoodCertNo":"HG260002629"},{"id":"safefood-daejeon-HG260002628","name":"번앤베럴 버거하우스","address":"대전광역시 유성구 엑스포로 1(신세계엑스포점 지하1층 A61호 도룡동)","jibunAddress":"","phone":"","foodType":"","mainFood":"","designatedDate":"2026-03-20","lat":36.377791214,"lng":127.405680192,"region":"대전광역시","source":"safefood","safeFoodGrade":"적합","safeFoodCertNo":"HG260002628"},{"id":"safefood-daejeon-HG260003175","name":"타코찡","address":"대전광역시 서구 도솔로 279(1층 일부호 내동)","jibunAddress":"","phone":"","foodType":"","mainFood":"","designatedDate":"2026-04-02","lat":36.32266978,"lng":127.373561613,"region":"대전광역시","source":"safefood","safeFoodGrade":"적합","safeFoodCertNo":"HG260003175"},{"id":"safefood-daejeon-HG260003078","name":"이삭토스트 대전목원대점","address":"대전광역시 서구 동서대로 688(에프엠프라임 3차 1층 101호 도안동)","jibunAddress":"","phone":"","foodType":"","mainFood":"","designatedDate":"2026-04-01","lat":36.328055447,"lng":127.387917547,"region":"대전광역시","source":"safefood","safeFoodGrade":"적합","safeFoodCertNo":"HG260003078"},{"id":"safefood-daejeon-HG260002766","name":"본죽&비빔밥 대전복수점","address":"대전광역시 서구 복수동로 54(복수동,1층)","jibunAddress":"","phone":"","foodType":"","mainFood":"","designatedDate":"2026-03-24","lat":36.297849027,"lng":127.378563133,"region":"대전광역시","source":"safefood","safeFoodGrade":"적합","safeFoodCertNo":"HG260002766"},{"id":"safefood-daejeon-HG220002416","name":"매드포갈릭대전신세계아트&사이언스점","address":"대전광역시 유성구 엑스포로 1(신세계엑스포점 지상7층 F70호 도룡동)","jibunAddress":"","phone":"","foodType":"","mainFood":"","designatedDate":"2024-04-12","lat":36.377791214,"lng":127.405680192,"region":"대전광역시","source":"safefood","safeFoodGrade":"매우우수","safeFoodCertNo":"HG220002416"},{"id":"safefood-daejeon-HG260002171","name":"열정국밥","address":"대전광역시 유성구 관들5길 77-33(1층 관평동)","jibunAddress":"","phone":"","foodType":"","mainFood":"","designatedDate":"2026-03-10","lat":36.421880762,"lng":127.39406571,"region":"대전광역시","source":"safefood","safeFoodGrade":"좋음","safeFoodCertNo":"HG260002171"},{"id":"safefood-daejeon-HG260002387","name":"제주삼대국수 롯데백화점 대전점","address":"대전광역시 서구 계룡로 598(롯데백화점 지하1층 일부호 괴정동)","jibunAddress":"","phone":"","foodType":"","mainFood":"","designatedDate":"2026-03-12","lat":36.353441739,"lng":127.363542642,"region":"대전광역시","source":"safefood","safeFoodGrade":"매우우수","safeFoodCertNo":"HG260002387"},{"id":"safefood-daejeon-HG260002386","name":"촙촙","address":"대전광역시 서구 계룡로 598(롯데백화점 지하1층 일부호 괴정동)","jibunAddress":"","phone":"","foodType":"","mainFood":"","designatedDate":"2026-03-12","lat":36.353441739,"lng":127.363542642,"region":"대전광역시","source":"safefood","safeFoodGrade":"매우우수","safeFoodCertNo":"HG260002386"},{"id":"safefood-daejeon-HG220001957","name":"투썸플레이스 노은3지구점","address":"대전광역시 유성구 반석로 51(지상1층 101호 반석동)","jibunAddress":"","phone":"","foodType":"","mainFood":"","designatedDate":"2026-03-29","lat":36.392094927,"lng":127.313472313,"region":"대전광역시","source":"safefood","safeFoodGrade":"매우우수","safeFoodCertNo":"HG220001957"},{"id":"safefood-daejeon-HG200000923","name":"이디야커피 대전연구단지점","address":"대전광역시 유성구 대덕대로 594(지상1층 101호일부호 도룡동, 타워코리아나 주상복합)","jibunAddress":"","phone":"","foodType":"","mainFood":"","designatedDate":"2026-03-25","lat":36.381721345,"lng":127.378891269,"region":"대전광역시","source":"safefood","safeFoodGrade":"우수","safeFoodCertNo":"HG200000923"},{"id":"safefood-daejeon-HG260001586","name":"본도시락대전신탄진점","address":"대전광역시 대덕구 대청로 38(1층 103호 신탄진동)","jibunAddress":"","phone":"","foodType":"","mainFood":"","designatedDate":"2026-02-20","lat":36.44838662314152,"lng":127.45387658341932,"region":"대전광역시","source":"safefood","safeFoodGrade":"매우우수","safeFoodCertNo":"HG260001586"},{"id":"safefood-daejeon-HG260002074","name":"노브랜드버거 대전관평점","address":"대전광역시 유성구 테크노4로 105(T PLAZA 지상1층 1-10호 관평동)","jibunAddress":"","phone":"","foodType":"","mainFood":"","designatedDate":"2026-03-10","lat":36.426240701,"lng":127.389763252,"region":"대전광역시","source":"safefood","safeFoodGrade":"매우우수","safeFoodCertNo":"HG260002074"},{"id":"safefood-daejeon-HG260002069","name":"비비큐(BBQ)대전가오은어송점","address":"대전광역시 동구 대전로 400(1층 가오동)","jibunAddress":"","phone":"","foodType":"","mainFood":"","designatedDate":"2026-03-10","lat":36.301329028,"lng":127.456671098,"region":"대전광역시","source":"safefood","safeFoodGrade":"우수","safeFoodCertNo":"HG260002069"},{"id":"safefood-daejeon-HG260001357","name":"60계 치킨 대전산내대성점","address":"대전광역시 동구 산내로 1339(1층 낭월동)","jibunAddress":"","phone":"","foodType":"","mainFood":"","designatedDate":"2026-02-10","lat":36.200127417,"lng":127.449221363,"region":"대전광역시","source":"safefood","safeFoodGrade":"매우우수","safeFoodCertNo":"HG260001357"},{"id":"safefood-daejeon-HG260002042","name":"파리바게뜨탄방점","address":"대전광역시 서구 문정로 134(탄방동)","jibunAddress":"","phone":"","foodType":"","mainFood":"","designatedDate":"2026-03-10","lat":36.346173691,"lng":127.381710321,"region":"대전광역시","source":"safefood","safeFoodGrade":"매우우수","safeFoodCertNo":"HG260002042"},{"id":"safefood-daejeon-HG260002241","name":"가족회관 대전신세계점","address":"대전광역시 유성구 엑스포로 1(신세계엑스포점 지하1층 A15호 도룡동)","jibunAddress":"","phone":"","foodType":"","mainFood":"","designatedDate":"2026-03-11","lat":36.377791214,"lng":127.405680192,"region":"대전광역시","source":"safefood","safeFoodGrade":"매우우수","safeFoodCertNo":"HG260002241"},{"id":"safefood-daejeon-HG260001583","name":"파리바게트대전보건대점","address":"대전광역시 동구 우암로 332-1(가양동)","jibunAddress":"","phone":"","foodType":"","mainFood":"","designatedDate":"2026-02-20","lat":36.34530727,"lng":127.444568117,"region":"대전광역시","source":"safefood","safeFoodGrade":"매우우수","safeFoodCertNo":"HG260001583"},{"id":"safefood-daejeon-HG260002006","name":"영칼로리포케&샐러드 대전배재대점(YOUNGKCAL)","address":"대전광역시 서구 도마로 2(지하1층일부,1층 일부호 도마동)","jibunAddress":"","phone":"","foodType":"","mainFood":"","designatedDate":"2026-03-10","lat":36.321916453,"lng":127.379322955,"region":"대전광역시","source":"safefood","safeFoodGrade":"매우우수","safeFoodCertNo":"HG260002006"},{"id":"safefood-daejeon-HG200000748","name":"스시츠카무","address":"대전광역시 서구 대덕대로 211(갤러리아타임월드백화점 11층 둔산동)","jibunAddress":"","phone":"","foodType":"","mainFood":"","designatedDate":"2026-03-04","lat":36.367615486,"lng":127.37991105,"region":"대전광역시","source":"safefood","safeFoodGrade":"매우우수","safeFoodCertNo":"HG200000748"},{"id":"safefood-daejeon-HG220001232","name":"스타벅스 대전용전DT점","address":"대전광역시 동구 한밭대로 1239(1,2층 용전동)","jibunAddress":"","phone":"","foodType":"","mainFood":"","designatedDate":"2026-03-02","lat":36.357467607,"lng":127.433742729,"region":"대전광역시","source":"safefood","safeFoodGrade":"매우우수","safeFoodCertNo":"HG220001232"},{"id":"safefood-daejeon-HG260001578","name":"읍천리382 송촌점","address":"대전광역시 대덕구 송촌북로36번길 11(1층 송촌동)","jibunAddress":"","phone":"","foodType":"","mainFood":"","designatedDate":"2026-02-20","lat":36.365784627,"lng":127.43763151,"region":"대전광역시","source":"safefood","safeFoodGrade":"매우우수","safeFoodCertNo":"HG260001578"},{"id":"safefood-daejeon-HG260001344","name":"파리바게뜨","address":"대전광역시 서구 대덕대로 244(건국타워 103,104,105호 둔산동)","jibunAddress":"","phone":"","foodType":"","mainFood":"","designatedDate":"2026-02-10","lat":36.367615486,"lng":127.37991105,"region":"대전광역시","source":"safefood","safeFoodGrade":"매우우수","safeFoodCertNo":"HG260001344"},{"id":"safefood-daejeon-HG260001882","name":"풀잎채한상","address":"대전광역시 서구 둔산로123번길 21(1층 일부호 둔산동)","jibunAddress":"","phone":"","foodType":"","mainFood":"","designatedDate":"2026-03-10","lat":36.352000378,"lng":127.38742102,"region":"대전광역시","source":"safefood","safeFoodGrade":"우수","safeFoodCertNo":"HG260001882"},{"id":"safefood-daejeon-HG190002465","name":"스타벅스 대전가수원DT점","address":"대전광역시 서구 계백로 1128(1,2층 가수원동)","jibunAddress":"","phone":"","foodType":"","mainFood":"","designatedDate":"2025-12-13","lat":36.304122704,"lng":127.352934363,"region":"대전광역시","source":"safefood","safeFoodGrade":"매우우수","safeFoodCertNo":"HG190002465"},{"id":"safefood-daejeon-HG260000414","name":"서리재","address":"대전광역시 유성구 엑스포로 1(신세계엑스포점 지상7층 F64호 도룡동)","jibunAddress":"","phone":"","foodType":"","mainFood":"","designatedDate":"2026-01-16","lat":36.377791214,"lng":127.405680192,"region":"대전광역시","source":"safefood","safeFoodGrade":"매우우수","safeFoodCertNo":"HG260000414"},{"id":"safefood-daejeon-HG200000544","name":"베스타뷔페","address":"대전광역시 서구 만년로 70(10~11층 만년동)","jibunAddress":"","phone":"","foodType":"","mainFood":"","designatedDate":"2026-02-20","lat":36.367073448,"lng":127.381716452,"region":"대전광역시","source":"safefood","safeFoodGrade":"매우우수","safeFoodCertNo":"HG200000544"},{"id":"safefood-daejeon-HG260001412","name":"파리바게뜨 대전월평","address":"대전광역시 서구 청사서로 46(1층 일부호 월평동)","jibunAddress":"","phone":"","foodType":"","mainFood":"","designatedDate":"2026-02-12","lat":36.358509392,"lng":127.376886413,"region":"대전광역시","source":"safefood","safeFoodGrade":"매우우수","safeFoodCertNo":"HG260001412"},{"id":"safefood-daejeon-HG240001110","name":"쉐프렐라","address":"대전광역시 서구 도산로 372(수메디컬센터 1층 일부호 용문동)","jibunAddress":"","phone":"","foodType":"","mainFood":"","designatedDate":"2026-02-28","lat":36.33534784,"lng":127.389782849,"region":"대전광역시","source":"safefood","safeFoodGrade":"매우우수","safeFoodCertNo":"HG240001110"},{"id":"safefood-daejeon-HG220001010","name":"푸라닭 대전노은점","address":"대전광역시 유성구 은구비로 18(지상1층 117호 지족동, 가나파로스빌1)","jibunAddress":"","phone":"","foodType":"","mainFood":"","designatedDate":"2026-02-21","lat":36.375753476,"lng":127.315450062,"region":"대전광역시","source":"safefood","safeFoodGrade":"매우우수","safeFoodCertNo":"HG220001010"},{"id":"safefood-daejeon-HG260000960","name":"네네치킨 도마써밋점","address":"대전광역시 서구 사마1길 28(도마동,1층)","jibunAddress":"","phone":"","foodType":"","mainFood":"","designatedDate":"2026-01-29","lat":36.3172707,"lng":127.376677173,"region":"대전광역시","source":"safefood","safeFoodGrade":"매우우수","safeFoodCertNo":"HG260000960"},{"id":"safefood-daejeon-HG240001108","name":"빽다방 대전용문역점","address":"대전광역시 서구 도산로 372(수메디컬센터 1층 일부호 용문동)","jibunAddress":"","phone":"","foodType":"","mainFood":"","designatedDate":"2026-02-28","lat":36.33534784,"lng":127.389782849,"region":"대전광역시","source":"safefood","safeFoodGrade":"매우우수","safeFoodCertNo":"HG240001108"},{"id":"safefood-daejeon-HG220000429","name":"맷차","address":"대전광역시 유성구 엑스포로 1(신세계엑스포점 지상7층 F69호 도룡동)","jibunAddress":"","phone":"","foodType":"","mainFood":"","designatedDate":"2026-01-26","lat":36.377791214,"lng":127.405680192,"region":"대전광역시","source":"safefood","safeFoodGrade":"매우우수","safeFoodCertNo":"HG220000429"},{"id":"safefood-daejeon-HG260001242","name":"메가엠지씨커피 대전은어송중점","address":"대전광역시 동구 동구청로 8(1층 101호 대성동)","jibunAddress":"","phone":"","foodType":"","mainFood":"","designatedDate":"2026-02-09","lat":36.299898306,"lng":127.459357471,"region":"대전광역시","source":"safefood","safeFoodGrade":"매우우수","safeFoodCertNo":"HG260001242"},{"id":"safefood-daejeon-HG220002028","name":"버거킹대전유성온천역점","address":"대전광역시 유성구 대학로 8(시네마E텔 지상1층 봉명동)","jibunAddress":"","phone":"","foodType":"","mainFood":"","designatedDate":"2026-03-30","lat":36.360496312,"lng":127.344427401,"region":"대전광역시","source":"safefood","safeFoodGrade":"매우우수","safeFoodCertNo":"HG220002028"},{"id":"safefood-daejeon-HG220001000","name":"60계대전복수점","address":"대전광역시 서구 복수남로 43(1층 복수동)","jibunAddress":"","phone":"","foodType":"","mainFood":"","designatedDate":"2026-02-21","lat":36.297555035,"lng":127.379164697,"region":"대전광역시","source":"safefood","safeFoodGrade":"매우우수","safeFoodCertNo":"HG220001000"},{"id":"safefood-daejeon-HG260001297","name":"메가엠지씨커피 대전용산테크노피아점","address":"대전광역시 유성구 테크노중앙로 155(테크노피아 지상1층 104호 용산동)","jibunAddress":"","phone":"","foodType":"","mainFood":"","designatedDate":"2026-02-10","lat":36.42606375,"lng":127.391345646,"region":"대전광역시","source":"safefood","safeFoodGrade":"매우우수","safeFoodCertNo":"HG260001297"},{"id":"safefood-daejeon-HG240001738","name":"메가엠지씨커피 대전내동롯데점","address":"대전광역시 서구 신갈마로 51(지하2층 B209호 내동, 더리치빌 아파트)","jibunAddress":"","phone":"","foodType":"","mainFood":"","designatedDate":"2026-03-22","lat":36.348930836,"lng":127.367943121,"region":"대전광역시","source":"safefood","safeFoodGrade":"매우우수","safeFoodCertNo":"HG240001738"},{"id":"safefood-daejeon-HG260001210","name":"동대문엽기떡볶이","address":"대전광역시 서구 갈마로 223-1(1층 괴정동)","jibunAddress":"","phone":"","foodType":"","mainFood":"","designatedDate":"2026-02-09","lat":36.341263573,"lng":127.372320519,"region":"대전광역시","source":"safefood","safeFoodGrade":"매우우수","safeFoodCertNo":"HG260001210"},{"id":"safefood-daejeon-HG260000059","name":"버거킹대전반석디티점","address":"대전광역시 유성구 북유성대로 288(지상1,2층 하기동)","jibunAddress":"","phone":"","foodType":"","mainFood":"","designatedDate":"2026-01-07","lat":36.399077877,"lng":127.309174618,"region":"대전광역시","source":"safefood","safeFoodGrade":"좋음","safeFoodCertNo":"HG260000059"},{"id":"safefood-daejeon-HG260000194","name":"버거킹대전용두디티점","address":"대전광역시 중구 계룡로 853(1~2층 용두동)","jibunAddress":"","phone":"","foodType":"","mainFood":"","designatedDate":"2026-01-12","lat":36.324531731,"lng":127.409502421,"region":"대전광역시","source":"safefood","safeFoodGrade":"매우우수","safeFoodCertNo":"HG260000194"},{"id":"safefood-daejeon-HG260000193","name":"스타벅스서대전네거리점","address":"대전광역시 중구 계룡로 878(1층 오류동)","jibunAddress":"","phone":"","foodType":"","mainFood":"","designatedDate":"2026-01-12","lat":36.324531731,"lng":127.409502421,"region":"대전광역시","source":"safefood","safeFoodGrade":"매우우수","safeFoodCertNo":"HG260000193"},{"id":"safefood-daejeon-HG240000732","name":"참맛있는칼국수","address":"대전광역시 서구 청사서로54번길 17(2층 월평동, 2층일부)","jibunAddress":"","phone":"","foodType":"","mainFood":"","designatedDate":"2026-02-05","lat":36.362770788,"lng":127.377653779,"region":"대전광역시","source":"safefood","safeFoodGrade":"우수","safeFoodCertNo":"HG240000732"},{"id":"safefood-daejeon-HG260000186","name":"파리바게뜨(대전우송대점)","address":"대전광역시 동구 동대전로 133(1층 자양동)","jibunAddress":"","phone":"","foodType":"","mainFood":"","designatedDate":"2026-01-12","lat":36.346309769,"lng":127.444648444,"region":"대전광역시","source":"safefood","safeFoodGrade":"매우우수","safeFoodCertNo":"HG260000186"},{"id":"safefood-daejeon-HG260000056","name":"파스쿠찌 대전방동호수공원DI점","address":"대전광역시 유성구 성북로 84(지상2,3층 방동)","jibunAddress":"","phone":"","foodType":"","mainFood":"","designatedDate":"2026-01-07","lat":36.287810585,"lng":127.30705942,"region":"대전광역시","source":"safefood","safeFoodGrade":"매우우수","safeFoodCertNo":"HG260000056"},{"id":"safefood-daejeon-HG220000475","name":"도제 신세계백화점 Art&Science점","address":"대전광역시 유성구 엑스포로 1(신세계엑스포점 지하1층 A47호 도룡동)","jibunAddress":"","phone":"","foodType":"","mainFood":"","designatedDate":"2026-01-27","lat":36.377791214,"lng":127.405680192,"region":"대전광역시","source":"safefood","safeFoodGrade":"매우우수","safeFoodCertNo":"HG220000475"},{"id":"safefood-daejeon-HG260000572","name":"뚜레쥬르엑스포점","address":"대전광역시 유성구 엑스포로 488(전민동,엑스포코아1층 15호)","jibunAddress":"","phone":"","foodType":"","mainFood":"","designatedDate":"2026-01-21","lat":36.377791214,"lng":127.405680192,"region":"대전광역시","source":"safefood","safeFoodGrade":"매우우수","safeFoodCertNo":"HG260000572"},{"id":"safefood-daejeon-HG220000554","name":"그린파이브(대전점)","address":"대전광역시 유성구 엑스포로 1(신세계엑스포점  지하1층 A6호 도룡동)","jibunAddress":"","phone":"","foodType":"","mainFood":"","designatedDate":"2026-02-03","lat":36.377791214,"lng":127.405680192,"region":"대전광역시","source":"safefood","safeFoodGrade":"매우우수","safeFoodCertNo":"HG220000554"},{"id":"safefood-daejeon-HG260000503","name":"파리바게뜨(대전산성)","address":"대전광역시 중구 대둔산로 389-1(산성동)","jibunAddress":"","phone":"","foodType":"","mainFood":"","designatedDate":"2026-01-20","lat":36.309484814,"lng":127.388179246,"region":"대전광역시","source":"safefood","safeFoodGrade":"우수","safeFoodCertNo":"HG260000503"},{"id":"safefood-daejeon-HG220000487","name":"구오","address":"대전광역시 유성구 엑스포로 1(신세계엑스포점 지하1층 A12호 도룡동)","jibunAddress":"","phone":"","foodType":"","mainFood":"","designatedDate":"2026-01-27","lat":36.377791214,"lng":127.405680192,"region":"대전광역시","source":"safefood","safeFoodGrade":"매우우수","safeFoodCertNo":"HG220000487"},{"id":"safefood-daejeon-HG220000051","name":"GUO(구오)","address":"대전광역시 서구 대덕대로 211(갤러리아타임월드백화점 지하2층 일부 둔산동)","jibunAddress":"","phone":"","foodType":"","mainFood":"","designatedDate":"2026-01-12","lat":36.367615486,"lng":127.37991105,"region":"대전광역시","source":"safefood","safeFoodGrade":"매우우수","safeFoodCertNo":"HG220000051"},{"id":"safefood-daejeon-HG260000174","name":"파리바게뜨 만년KBS점","address":"대전광역시 서구 대덕대로 402(만년동,1층)","jibunAddress":"","phone":"","foodType":"","mainFood":"","designatedDate":"2026-01-12","lat":36.367615486,"lng":127.37991105,"region":"대전광역시","source":"safefood","safeFoodGrade":"매우우수","safeFoodCertNo":"HG260000174"},{"id":"safefood-daejeon-HG250642940","name":"베스킨라빈스대전관평","address":"대전광역시 유성구 테크노4로 137(지상1층 103호 관평동)","jibunAddress":"","phone":"","foodType":"","mainFood":"","designatedDate":"2025-12-15","lat":36.426240701,"lng":127.389763252,"region":"대전광역시","source":"safefood","safeFoodGrade":"매우우수","safeFoodCertNo":"HG250642940"},{"id":"safefood-daejeon-HG220000643","name":"스타벅스 대전엑스포스카이점","address":"대전광역시 유성구 엑스포로 1(신세계엑스포점 지상39층 T38-1호 도룡동)","jibunAddress":"","phone":"","foodType":"","mainFood":"","designatedDate":"2026-02-07","lat":36.377791214,"lng":127.405680192,"region":"대전광역시","source":"safefood","safeFoodGrade":"매우우수","safeFoodCertNo":"HG220000643"},{"id":"safefood-daejeon-HG250643054","name":"플러스82&요아잇 대전 송촌점","address":"대전광역시 대덕구 계족산로81번길 106(1층 송촌동)","jibunAddress":"","phone":"","foodType":"","mainFood":"","designatedDate":"2025-12-16","lat":36.363687129,"lng":127.439909965,"region":"대전광역시","source":"safefood","safeFoodGrade":"매우우수","safeFoodCertNo":"HG250643054"},{"id":"safefood-daejeon-HG260000489","name":"파스쿠찌대전석교점","address":"대전광역시 중구 대종로 165(1층,2층 석교동)","jibunAddress":"","phone":"","foodType":"","mainFood":"","designatedDate":"2026-01-20","lat":36.311122204,"lng":127.43970266,"region":"대전광역시","source":"safefood","safeFoodGrade":"매우우수","safeFoodCertNo":"HG260000489"},{"id":"safefood-daejeon-HG220000547","name":"오설록","address":"대전광역시 유성구 엑스포로 1(신세계엑스포점 지하1층 A36호 도룡동)","jibunAddress":"","phone":"","foodType":"","mainFood":"","designatedDate":"2026-02-03","lat":36.377791214,"lng":127.405680192,"region":"대전광역시","source":"safefood","safeFoodGrade":"매우우수","safeFoodCertNo":"HG220000547"},{"id":"safefood-daejeon-HG250642705","name":"파리바게뜨 대전대청동일","address":"대전광역시 대덕구 대청로 44(1층 신탄진동)","jibunAddress":"","phone":"","foodType":"","mainFood":"","designatedDate":"2025-12-09","lat":36.44838662314152,"lng":127.45387658341932,"region":"대전광역시","source":"safefood","safeFoodGrade":"매우우수","safeFoodCertNo":"HG250642705"},{"id":"safefood-daejeon-HG220000426","name":"스타벅스대전신탄진DT점","address":"대전광역시 대덕구 대덕대로 1544(1,2층 석봉동)","jibunAddress":"","phone":"","foodType":"","mainFood":"","designatedDate":"2026-01-26","lat":36.449114213,"lng":127.421069173,"region":"대전광역시","source":"safefood","safeFoodGrade":"매우우수","safeFoodCertNo":"HG220000426"},{"id":"safefood-daejeon-HG220000480","name":"태양커피","address":"대전광역시 유성구 엑스포로 1(신세계엑스포점 지상4층 D94호 도룡동)","jibunAddress":"","phone":"","foodType":"","mainFood":"","designatedDate":"2026-01-27","lat":36.377791214,"lng":127.405680192,"region":"대전광역시","source":"safefood","safeFoodGrade":"매우우수","safeFoodCertNo":"HG220000480"},{"id":"safefood-daejeon-HG220000343","name":"스타벅스 신세계대전B1","address":"대전광역시 유성구 엑스포로 1(신세계엑스포점 지하1층 A63호 도룡동)","jibunAddress":"","phone":"","foodType":"","mainFood":"","designatedDate":"2026-01-21","lat":36.377791214,"lng":127.405680192,"region":"대전광역시","source":"safefood","safeFoodGrade":"매우우수","safeFoodCertNo":"HG220000343"},{"id":"safefood-daejeon-HG220000385","name":"폴바셋 갤러리아타임월드점","address":"대전광역시 서구 대덕대로 211(갤러리아타임월드백화점 11층 일부호 둔산동)","jibunAddress":"","phone":"","foodType":"","mainFood":"","designatedDate":"2026-01-24","lat":36.367615486,"lng":127.37991105,"region":"대전광역시","source":"safefood","safeFoodGrade":"매우우수","safeFoodCertNo":"HG220000385"},{"id":"safefood-daejeon-HG240000029","name":"상무초밥 유성점","address":"대전광역시 유성구 대학로 44(지상1층 106~110호 봉명동)","jibunAddress":"","phone":"","foodType":"","mainFood":"","designatedDate":"2026-01-09","lat":36.360496312,"lng":127.344427401,"region":"대전광역시","source":"safefood","safeFoodGrade":"매우우수","safeFoodCertNo":"HG240000029"},{"id":"safefood-daejeon-HG220000596","name":"이가네떡볶이","address":"대전광역시 유성구 엑스포로 1(신세계엑스포점 지하1층 A51호 도룡동)","jibunAddress":"","phone":"","foodType":"","mainFood":"","designatedDate":"2026-02-03","lat":36.377791214,"lng":127.405680192,"region":"대전광역시","source":"safefood","safeFoodGrade":"매우우수","safeFoodCertNo":"HG220000596"},{"id":"safefood-daejeon-HG240000004","name":"스시덴고쿠 대전테크노중앙로점","address":"대전광역시 유성구 테크노중앙로 123(현대프리미엄아울렛 대전점 판매시설동 지상3층 3208호 용산동)","jibunAddress":"","phone":"","foodType":"","mainFood":"","designatedDate":"2026-01-08","lat":36.42606375,"lng":127.391345646,"region":"대전광역시","source":"safefood","safeFoodGrade":"매우우수","safeFoodCertNo":"HG240000004"},{"id":"safefood-daejeon-HG240001007","name":"공차(월평점)","address":"대전광역시 서구 청사서로 34(1층 일부호 월평동)","jibunAddress":"","phone":"","foodType":"","mainFood":"","designatedDate":"2026-02-22","lat":36.358509392,"lng":127.376886413,"region":"대전광역시","source":"safefood","safeFoodGrade":"매우우수","safeFoodCertNo":"HG240001007"},{"id":"safefood-daejeon-HG260000135","name":"파리바게트태평점","address":"대전광역시 중구 평촌로 108(1층 유천동)","jibunAddress":"","phone":"","foodType":"","mainFood":"","designatedDate":"2026-01-12","lat":36.321872264,"lng":127.39663138,"region":"대전광역시","source":"safefood","safeFoodGrade":"매우우수","safeFoodCertNo":"HG260000135"},{"id":"safefood-daejeon-HG220000442","name":"오드펠로우즈","address":"대전광역시 유성구 엑스포로 1(신세계엑스포점 지상7층 F61호 도룡동)","jibunAddress":"","phone":"","foodType":"","mainFood":"","designatedDate":"2026-01-26","lat":36.377791214,"lng":127.405680192,"region":"대전광역시","source":"safefood","safeFoodGrade":"매우우수","safeFoodCertNo":"HG220000442"},{"id":"safefood-daejeon-HG250642818","name":"메르치45 갤러리아타임월드점","address":"대전광역시 서구 대덕대로 211(갤러리아타임월드백화점 지하2층 일부호 둔산동)","jibunAddress":"","phone":"","foodType":"","mainFood":"","designatedDate":"2025-12-10","lat":36.367615486,"lng":127.37991105,"region":"대전광역시","source":"safefood","safeFoodGrade":"매우우수","safeFoodCertNo":"HG250642818"},{"id":"safefood-daejeon-HG250642812","name":"카페디아즈","address":"대전광역시 서구 대덕대로 211(갤러리아타임월드백화점 11층 일부호 둔산동)","jibunAddress":"","phone":"","foodType":"","mainFood":"","designatedDate":"2025-12-10","lat":36.367615486,"lng":127.37991105,"region":"대전광역시","source":"safefood","safeFoodGrade":"매우우수","safeFoodCertNo":"HG250642812"},{"id":"safefood-daejeon-HG250642811","name":"선속초코다리냉면","address":"대전광역시 서구 대덕대로 211(11층 둔산동, 11층일부)","jibunAddress":"","phone":"","foodType":"","mainFood":"","designatedDate":"2025-12-10","lat":36.367615486,"lng":127.37991105,"region":"대전광역시","source":"safefood","safeFoodGrade":"매우우수","safeFoodCertNo":"HG250642811"},{"id":"safefood-daejeon-HG250642906","name":"도형민식당","address":"대전광역시 서구 대덕대로 211(갤러리아타임월드백화점 11층 일부호 둔산동)","jibunAddress":"","phone":"","foodType":"","mainFood":"","designatedDate":"2025-12-15","lat":36.367615486,"lng":127.37991105,"region":"대전광역시","source":"safefood","safeFoodGrade":"매우우수","safeFoodCertNo":"HG250642906"},{"id":"safefood-daejeon-HG250642896","name":"봉혜자반상 갤러리아백화점타임월드","address":"대전광역시 서구 대덕대로 211(갤러리아타임월드백화점 11층 일부호 둔산동)","jibunAddress":"","phone":"","foodType":"","mainFood":"","designatedDate":"2025-12-15","lat":36.367615486,"lng":127.37991105,"region":"대전광역시","source":"safefood","safeFoodGrade":"매우우수","safeFoodCertNo":"HG250642896"},{"id":"safefood-daejeon-HG220000354","name":"(주)겐츠신세계백화점대전점","address":"대전광역시 유성구 엑스포로 1(신세계엑스포점 지하1층 A64호 도룡동)","jibunAddress":"","phone":"","foodType":"","mainFood":"","designatedDate":"2026-01-21","lat":36.377791214,"lng":127.405680192,"region":"대전광역시","source":"safefood","safeFoodGrade":"매우우수","safeFoodCertNo":"HG220000354"},{"id":"safefood-daejeon-HG250641277","name":"백미당 대전테크노중앙로점","address":"대전광역시 유성구 테크노중앙로 123(현대프리미엄아울렛 대전점 판매시설동 지상3층 3202-13호 용산동)","jibunAddress":"","phone":"","foodType":"","mainFood":"","designatedDate":"2025-11-10","lat":36.42606375,"lng":127.391345646,"region":"대전광역시","source":"safefood","safeFoodGrade":"매우우수","safeFoodCertNo":"HG250641277"},{"id":"safefood-daejeon-HG250642189","name":"파스쿠찌대전카이스트점","address":"대전광역시 유성구 대학로 291(한국과학기술원 B-20전기전자공학및전산학분야동 내 정보전자공학동 1층 구성동)","jibunAddress":"","phone":"","foodType":"","mainFood":"","designatedDate":"2025-11-27","lat":36.360496312,"lng":127.344427401,"region":"대전광역시","source":"safefood","safeFoodGrade":"매우우수","safeFoodCertNo":"HG250642189"},{"id":"safefood-daejeon-HG220000433","name":"비쳉향푸드주식회사신세계대전점","address":"대전광역시 유성구 엑스포로 1(신세계엑스포점 지하1층 A9호 도룡동)","jibunAddress":"","phone":"","foodType":"","mainFood":"","designatedDate":"2026-01-26","lat":36.377791214,"lng":127.405680192,"region":"대전광역시","source":"safefood","safeFoodGrade":"매우우수","safeFoodCertNo":"HG220000433"},{"id":"safefood-daejeon-HG200000007","name":"스타벅스대전목원대점","address":"대전광역시 서구 동서대로 682(1층 도안동, 팔복빌딩)","jibunAddress":"","phone":"","foodType":"","mainFood":"","designatedDate":"2026-01-02","lat":36.328055447,"lng":127.387917547,"region":"대전광역시","source":"safefood","safeFoodGrade":"매우우수","safeFoodCertNo":"HG200000007"},{"id":"safefood-daejeon-HG250642085","name":"이마트24 대전탄방점","address":"대전광역시 서구 문정로 84(1층 탄방동, 1층일부)","jibunAddress":"","phone":"","foodType":"","mainFood":"","designatedDate":"2025-11-26","lat":36.346173691,"lng":127.381710321,"region":"대전광역시","source":"safefood","safeFoodGrade":"매우우수","safeFoodCertNo":"HG250642085"},{"id":"safefood-daejeon-HG250642078","name":"스타벅스커피대전대덕로점","address":"대전광역시 서구 대덕대로234번길 18(1층 둔산동)","jibunAddress":"","phone":"","foodType":"","mainFood":"","designatedDate":"2025-11-26","lat":36.353811844,"lng":127.381384005,"region":"대전광역시","source":"safefood","safeFoodGrade":"매우우수","safeFoodCertNo":"HG250642078"},{"id":"safefood-daejeon-HG250642074","name":"동동국수 롯데대전점","address":"대전광역시 서구 계룡로 598(롯데백화점 지하1층 일부 괴정동)","jibunAddress":"","phone":"","foodType":"","mainFood":"","designatedDate":"2025-11-26","lat":36.353441739,"lng":127.363542642,"region":"대전광역시","source":"safefood","safeFoodGrade":"우수","safeFoodCertNo":"HG250642074"},{"id":"safefood-daejeon-HG250641961","name":"카페봄봄","address":"대전광역시 유성구 관평2로 22(지상1층 관평동)","jibunAddress":"","phone":"","foodType":"","mainFood":"","designatedDate":"2025-11-25","lat":36.423968928,"lng":127.389330587,"region":"대전광역시","source":"safefood","safeFoodGrade":"매우우수","safeFoodCertNo":"HG250641961"},{"id":"safefood-daejeon-HG250641641","name":"맘스터치 대전청사점","address":"대전광역시 서구 문예로 137(1층 둔산동, 1층일부)","jibunAddress":"","phone":"","foodType":"","mainFood":"","designatedDate":"2025-11-19","lat":36.348072405,"lng":127.389844576,"region":"대전광역시","source":"safefood","safeFoodGrade":"매우우수","safeFoodCertNo":"HG250641641"},{"id":"safefood-daejeon-HG230010117","name":"한국맥도날드 유한회사 대전 가장 DT점","address":"대전광역시 서구 도산로 324(가장동)","jibunAddress":"","phone":"","foodType":"","mainFood":"","designatedDate":"2025-12-11","lat":36.33534784,"lng":127.389782849,"region":"대전광역시","source":"safefood","safeFoodGrade":"매우우수","safeFoodCertNo":"HG230010117"},{"id":"safefood-daejeon-HG210011216","name":"배스킨라빈스 대전용운","address":"대전광역시 동구 새울로 107(01호 용운동)","jibunAddress":"","phone":"","foodType":"","mainFood":"","designatedDate":"2025-12-01","lat":36.322050081,"lng":127.463551223,"region":"대전광역시","source":"safefood","safeFoodGrade":"매우우수","safeFoodCertNo":"HG210011216"},{"id":"safefood-daejeon-HG230009682","name":"뚜레쥬르 대전신탄진대청점","address":"대전광역시 대덕구 대청로 38(1층 신탄진동)","jibunAddress":"","phone":"","foodType":"","mainFood":"","designatedDate":"2025-11-29","lat":36.44838662314152,"lng":127.45387658341932,"region":"대전광역시","source":"safefood","safeFoodGrade":"매우우수","safeFoodCertNo":"HG230009682"},{"id":"safefood-daejeon-HG250641221","name":"뚜레쥬르대전장대점","address":"대전광역시 유성구 문화원로 2(1층 장대동)","jibunAddress":"","phone":"","foodType":"","mainFood":"","designatedDate":"2025-11-10","lat":36.358404062,"lng":127.351718273,"region":"대전광역시","source":"safefood","safeFoodGrade":"매우우수","safeFoodCertNo":"HG250641221"},{"id":"safefood-daejeon-HG230010105","name":"보난자커피 대전점","address":"대전광역시 서구 대덕대로 211(갤러리아타임월드백화점 지하1층 일부호 둔산동)","jibunAddress":"","phone":"","foodType":"","mainFood":"","designatedDate":"2025-12-11","lat":36.367615486,"lng":127.37991105,"region":"대전광역시","source":"safefood","safeFoodGrade":"매우우수","safeFoodCertNo":"HG230010105"},{"id":"safefood-daejeon-HG250641218","name":"도토리편백집 대전테크노중앙로점","address":"대전광역시 유성구 테크노중앙로 123(현대프리미엄아울렛 대전점 판매시설동 지상3층 3206호 용산동)","jibunAddress":"","phone":"","foodType":"","mainFood":"","designatedDate":"2025-11-10","lat":36.42606375,"lng":127.391345646,"region":"대전광역시","source":"safefood","safeFoodGrade":"매우우수","safeFoodCertNo":"HG250641218"},{"id":"safefood-daejeon-HG250641601","name":"투썸플레이스 둔산은하수점","address":"대전광역시 서구 대덕대로176번길 9(1층 일부호 둔산동)","jibunAddress":"","phone":"","foodType":"","mainFood":"","designatedDate":"2025-11-19","lat":36.347127453,"lng":127.378908735,"region":"대전광역시","source":"safefood","safeFoodGrade":"매우우수","safeFoodCertNo":"HG250641601"},{"id":"safefood-daejeon-HG230010293","name":"가가솥밥 현대프리미엄아울렛대전점","address":"대전광역시 유성구 테크노중앙로 123(현대프리미엄아울렛 대전점 판매시설동 지상3층 3207호 용산동)","jibunAddress":"","phone":"","foodType":"","mainFood":"","designatedDate":"2025-12-18","lat":36.42606375,"lng":127.391345646,"region":"대전광역시","source":"safefood","safeFoodGrade":"매우우수","safeFoodCertNo":"HG230010293"},{"id":"safefood-daejeon-HG250641160","name":"만석장 대전테크노중앙로점","address":"대전광역시 유성구 테크노중앙로 123(현대프리미엄아울렛 대전점 판매시설동 지상3층 3204호 용산동)","jibunAddress":"","phone":"","foodType":"","mainFood":"","designatedDate":"2025-11-06","lat":36.42606375,"lng":127.391345646,"region":"대전광역시","source":"safefood","safeFoodGrade":"매우우수","safeFoodCertNo":"HG250641160"},{"id":"safefood-daejeon-HG230009123","name":"투썸플레이스 대전갈마점","address":"대전광역시 서구 신갈마로 186(다우 갤러리휴리움아파트 상가 지하1층 125호 갈마동)","jibunAddress":"","phone":"","foodType":"","mainFood":"","designatedDate":"2025-11-20","lat":36.348930836,"lng":127.367943121,"region":"대전광역시","source":"safefood","safeFoodGrade":"매우우수","safeFoodCertNo":"HG230009123"},{"id":"safefood-daejeon-HG230009673","name":"씨유신탄진타운점","address":"대전광역시 대덕구 신탄진로790번길 38(1층 신탄진동)","jibunAddress":"","phone":"","foodType":"","mainFood":"","designatedDate":"2025-11-29","lat":36.448245906,"lng":127.431624815,"region":"대전광역시","source":"safefood","safeFoodGrade":"매우우수","safeFoodCertNo":"HG230009673"},{"id":"safefood-daejeon-HG190001855","name":"스타벅스대전한남대DT","address":"대전광역시 대덕구 한밭대로 1122(1,2층 중리동)","jibunAddress":"","phone":"","foodType":"","mainFood":"","designatedDate":"2025-11-25","lat":36.359327196,"lng":127.425918528,"region":"대전광역시","source":"safefood","safeFoodGrade":"매우우수","safeFoodCertNo":"HG190001855"},{"id":"safefood-daejeon-HG190002698","name":"스타벅스 대전복수점","address":"대전광역시 서구 복수남로 28(1층 복수동)","jibunAddress":"","phone":"","foodType":"","mainFood":"","designatedDate":"2025-12-24","lat":36.297555035,"lng":127.379164697,"region":"대전광역시","source":"safefood","safeFoodGrade":"매우우수","safeFoodCertNo":"HG190002698"},{"id":"safefood-daejeon-HG190002509","name":"스타벅스대전테크노밸리점","address":"대전광역시 유성구 테크노4로 105(1층 1-6,1-11호 관평동, 대덕티프라자)","jibunAddress":"","phone":"","foodType":"","mainFood":"","designatedDate":"2025-12-13","lat":36.426240701,"lng":127.389763252,"region":"대전광역시","source":"safefood","safeFoodGrade":"매우우수","safeFoodCertNo":"HG190002509"},{"id":"safefood-daejeon-HG250641150","name":"메가엠지씨커피 대전유성푸르지오점","address":"대전광역시 유성구 온천로 45(유성 푸르지오 시티 유스퀘어동 지상1층 121호 봉명동)","jibunAddress":"","phone":"","foodType":"","mainFood":"","designatedDate":"2025-11-06","lat":36.354980625,"lng":127.342529876,"region":"대전광역시","source":"safefood","safeFoodGrade":"매우우수","safeFoodCertNo":"HG250641150"},{"id":"safefood-daejeon-HG210011035","name":"한양분식","address":"대전광역시 서구 대덕대로 211(갤러리아타임월드백화점 지하2층 일부 둔산동)","jibunAddress":"","phone":"","foodType":"","mainFood":"","designatedDate":"2025-11-25","lat":36.367615486,"lng":127.37991105,"region":"대전광역시","source":"safefood","safeFoodGrade":"매우우수","safeFoodCertNo":"HG210011035"},{"id":"safefood-daejeon-HG250640955","name":"보드게임카페 BGM(비지엠)아지트","address":"대전광역시 서구 문정로 62(프라임빌딩 3층 일부호 탄방동)","jibunAddress":"","phone":"","foodType":"","mainFood":"","designatedDate":"2025-11-03","lat":36.346173691,"lng":127.381710321,"region":"대전광역시","source":"safefood","safeFoodGrade":"매우우수","safeFoodCertNo":"HG250640955"},{"id":"safefood-daejeon-HG230008052","name":"투썸플레이스법동점","address":"대전광역시 대덕구 동춘당로 187(법동)","jibunAddress":"","phone":"","foodType":"","mainFood":"","designatedDate":"2025-10-30","lat":36.364117252,"lng":127.4406118,"region":"대전광역시","source":"safefood","safeFoodGrade":"매우우수","safeFoodCertNo":"HG230008052"},{"id":"safefood-daejeon-HG240002866","name":"스텔라떡볶이대전중구청점","address":"대전광역시 중구 중교로 6(1층 대흥동)","jibunAddress":"","phone":"","foodType":"","mainFood":"","designatedDate":"2024-04-24","lat":36.325879644,"lng":127.424693248,"region":"대전광역시","source":"safefood","safeFoodGrade":"매우우수","safeFoodCertNo":"HG240002866"},{"id":"safefood-daejeon-HG190002284","name":"그린테이블 대전점","address":"대전광역시 서구 계룡로 598(괴정동)","jibunAddress":"","phone":"","foodType":"","mainFood":"","designatedDate":"2025-12-09","lat":36.353441739,"lng":127.363542642,"region":"대전광역시","source":"safefood","safeFoodGrade":"매우우수","safeFoodCertNo":"HG190002284"},{"id":"safefood-daejeon-HG210010791","name":"삐삐네 대전점","address":"대전광역시 서구 계룡로 598(롯데백화점 지하1층 일부 괴정동)","jibunAddress":"","phone":"","foodType":"","mainFood":"","designatedDate":"2025-11-19","lat":36.353441739,"lng":127.363542642,"region":"대전광역시","source":"safefood","safeFoodGrade":"매우우수","safeFoodCertNo":"HG210010791"},{"id":"safefood-daejeon-HG250640481","name":"교촌치킨 낭월점","address":"대전광역시 동구 산내로 1333(102호 낭월동)","jibunAddress":"","phone":"","foodType":"","mainFood":"","designatedDate":"2025-10-20","lat":36.200127417,"lng":127.449221363,"region":"대전광역시","source":"safefood","safeFoodGrade":"매우우수","safeFoodCertNo":"HG250640481"},{"id":"safefood-daejeon-HG230009103","name":"뚜레쥬르탄방역점","address":"대전광역시 서구 문정로 64(탄방동,1층 101호)","jibunAddress":"","phone":"","foodType":"","mainFood":"","designatedDate":"2025-11-20","lat":36.346173691,"lng":127.381710321,"region":"대전광역시","source":"safefood","safeFoodGrade":"매우우수","safeFoodCertNo":"HG230009103"},{"id":"safefood-daejeon-HG190002022","name":"스타벅스대전시청사거리점","address":"대전광역시 서구 둔산남로 50(1층 탄방동)","jibunAddress":"","phone":"","foodType":"","mainFood":"","designatedDate":"2025-11-26","lat":36.348746566,"lng":127.388647516,"region":"대전광역시","source":"safefood","safeFoodGrade":"매우우수","safeFoodCertNo":"HG190002022"},{"id":"safefood-daejeon-HG190002665","name":"스타벅스 대전법원점","address":"대전광역시 서구 둔산로123번길 43(1층 둔산동, 1층일부)","jibunAddress":"","phone":"","foodType":"","mainFood":"","designatedDate":"2025-12-23","lat":36.352000378,"lng":127.38742102,"region":"대전광역시","source":"safefood","safeFoodGrade":"매우우수","safeFoodCertNo":"HG190002665"},{"id":"safefood-daejeon-HG250640466","name":"BHC 대전도마점","address":"대전광역시 서구 도마로 46(1층 도마동)","jibunAddress":"","phone":"","foodType":"","mainFood":"","designatedDate":"2025-10-20","lat":36.321916453,"lng":127.379322955,"region":"대전광역시","source":"safefood","safeFoodGrade":"우수","safeFoodCertNo":"HG250640466"},{"id":"safefood-daejeon-HG190002230","name":"폴 바셋 롯데백화점 대전점","address":"대전광역시 서구 계룡로 598(1층 괴정동, 롯데백화점 1층일부)","jibunAddress":"","phone":"","foodType":"","mainFood":"","designatedDate":"2025-12-09","lat":36.353441739,"lng":127.363542642,"region":"대전광역시","source":"safefood","safeFoodGrade":"매우우수","safeFoodCertNo":"HG190002230"},{"id":"safefood-daejeon-HG230008461","name":"투썸플레이스대전만년점","address":"대전광역시 서구 만년로 70(1층 만년동)","jibunAddress":"","phone":"","foodType":"","mainFood":"","designatedDate":"2025-11-09","lat":36.367073448,"lng":127.381716452,"region":"대전광역시","source":"safefood","safeFoodGrade":"매우우수","safeFoodCertNo":"HG230008461"},{"id":"safefood-daejeon-HG210010670","name":"던킨도너츠 대전충남대점","address":"대전광역시 유성구 대학로 86(지상1층 108,109호 궁동)","jibunAddress":"","phone":"","foodType":"","mainFood":"","designatedDate":"2025-11-15","lat":36.360496312,"lng":127.344427401,"region":"대전광역시","source":"safefood","safeFoodGrade":"매우우수","safeFoodCertNo":"HG210010670"},{"id":"safefood-daejeon-HG190002526","name":"스타벅스 대전관평동점","address":"대전광역시 유성구 테크노중앙로 68(1,2,3층 관평동)","jibunAddress":"","phone":"","foodType":"","mainFood":"","designatedDate":"2025-12-13","lat":36.42606375,"lng":127.391345646,"region":"대전광역시","source":"safefood","safeFoodGrade":"매우우수","safeFoodCertNo":"HG190002526"},{"id":"safefood-daejeon-HG190001959","name":"스타벅스 충남대정문점","address":"대전광역시 유성구 대학로 82(궁동, 지상1층)","jibunAddress":"","phone":"","foodType":"","mainFood":"","designatedDate":"2025-11-26","lat":36.360496312,"lng":127.344427401,"region":"대전광역시","source":"safefood","safeFoodGrade":"매우우수","safeFoodCertNo":"HG190001959"},{"id":"safefood-daejeon-HG250639734","name":"교촌치킨만년점","address":"대전광역시 서구 만년로67번길 34-26(만년스퀘어 1동 1층 106호,107호 만년동)","jibunAddress":"","phone":"","foodType":"","mainFood":"","designatedDate":"2025-09-24","lat":36.368438827,"lng":127.380771543,"region":"대전광역시","source":"safefood","safeFoodGrade":"매우우수","safeFoodCertNo":"HG250639734"},{"id":"safefood-daejeon-HG250639732","name":"이태리국시","address":"대전광역시 서구 둔산로31번길 31(2층 둔산동)","jibunAddress":"","phone":"","foodType":"","mainFood":"","designatedDate":"2025-09-24","lat":36.353095151,"lng":127.377798099,"region":"대전광역시","source":"safefood","safeFoodGrade":"좋음","safeFoodCertNo":"HG250639732"},{"id":"safefood-daejeon-HG250639092","name":"메가엠지씨커피 대전효동현대점","address":"대전광역시 동구 계족로 33(1층 103호 효동)","jibunAddress":"","phone":"","foodType":"","mainFood":"","designatedDate":"2025-09-11","lat":36.344799577,"lng":127.433177184,"region":"대전광역시","source":"safefood","safeFoodGrade":"매우우수","safeFoodCertNo":"HG250639092"},{"id":"safefood-daejeon-HG230009126","name":"무색(無色)","address":"대전광역시 동구 동대전로 125(2층 대동)","jibunAddress":"","phone":"","foodType":"","mainFood":"","designatedDate":"2025-11-20","lat":36.346309769,"lng":127.444648444,"region":"대전광역시","source":"safefood","safeFoodGrade":"우수","safeFoodCertNo":"HG230009126"},{"id":"safefood-daejeon-HG250639724","name":"본죽 앤 비빔밥(대전전민동점)","address":"대전광역시 유성구 엑스포로 475(지상 1층 전민동)","jibunAddress":"","phone":"","foodType":"","mainFood":"","designatedDate":"2025-09-24","lat":36.377791214,"lng":127.405680192,"region":"대전광역시","source":"safefood","safeFoodGrade":"매우우수","safeFoodCertNo":"HG250639724"},{"id":"safefood-daejeon-HG250639667","name":"본죽&비빔밥 대덕테크노밸리점","address":"대전광역시 유성구 테크노4로 119(지상1층 관평동, 리치스카이타워)","jibunAddress":"","phone":"","foodType":"","mainFood":"","designatedDate":"2025-09-23","lat":36.426240701,"lng":127.389763252,"region":"대전광역시","source":"safefood","safeFoodGrade":"매우우수","safeFoodCertNo":"HG250639667"},{"id":"safefood-daejeon-HG250639666","name":"앤티앤스프레즐 대전테크노중앙로점","address":"대전광역시 유성구 테크노중앙로 123(현대프리미엄아울렛 대전점 판매시설동 지상3층 3202-9호 용산동)","jibunAddress":"","phone":"","foodType":"","mainFood":"","designatedDate":"2025-09-23","lat":36.42606375,"lng":127.391345646,"region":"대전광역시","source":"safefood","safeFoodGrade":"매우우수","safeFoodCertNo":"HG250639666"},{"id":"safefood-daejeon-HG250639551","name":"본죽앤비빔밥대전태평쌍용예가점","address":"대전광역시 중구 평촌로 102(유천동,1층)","jibunAddress":"","phone":"","foodType":"","mainFood":"","designatedDate":"2025-09-19","lat":36.321872264,"lng":127.39663138,"region":"대전광역시","source":"safefood","safeFoodGrade":"매우우수","safeFoodCertNo":"HG250639551"},{"id":"safefood-daejeon-HG230010129","name":"스타벅스 대전용문DT점","address":"대전광역시 서구 도산로 336(스타벅스용문DT점 1,2층 용문동)","jibunAddress":"","phone":"","foodType":"","mainFood":"","designatedDate":"2025-12-13","lat":36.33534784,"lng":127.389782849,"region":"대전광역시","source":"safefood","safeFoodGrade":"매우우수","safeFoodCertNo":"HG230010129"},{"id":"safefood-daejeon-HG190001829","name":"스타벅스대전ICDT점","address":"대전광역시 대덕구 동서대로 1776(1,2층 비래동)","jibunAddress":"","phone":"","foodType":"","mainFood":"","designatedDate":"2025-11-25","lat":36.352105026,"lng":127.443094393,"region":"대전광역시","source":"safefood","safeFoodGrade":"매우우수","safeFoodCertNo":"HG190001829"},{"id":"safefood-daejeon-HG250639717","name":"스타벅스대전탄방점","address":"대전광역시 서구 문정로 78(탄방동,1층)","jibunAddress":"","phone":"","foodType":"","mainFood":"","designatedDate":"2025-09-24","lat":36.346173691,"lng":127.381710321,"region":"대전광역시","source":"safefood","safeFoodGrade":"매우우수","safeFoodCertNo":"HG250639717"},{"id":"safefood-daejeon-HG250639084","name":"메가엠지씨커피 산내동행정복지센터점","address":"대전광역시 동구 산내로 1326(1층 낭월동, 낭월 다가온)","jibunAddress":"","phone":"","foodType":"","mainFood":"","designatedDate":"2025-09-11","lat":36.200127417,"lng":127.449221363,"region":"대전광역시","source":"safefood","safeFoodGrade":"매우우수","safeFoodCertNo":"HG250639084"},{"id":"safefood-daejeon-HG250639083","name":"메가엠지씨커피 판암역점","address":"대전광역시 동구 옥천로 169(판암역 르네블루 102동 L121호 판암동)","jibunAddress":"","phone":"","foodType":"","mainFood":"","designatedDate":"2025-09-11","lat":36.316335904,"lng":127.455523467,"region":"대전광역시","source":"safefood","safeFoodGrade":"매우우수","safeFoodCertNo":"HG250639083"},{"id":"safefood-daejeon-HG190001745","name":"스타벅스대전만년점","address":"대전광역시 서구 만년로 81(1층 만년동)","jibunAddress":"","phone":"","foodType":"","mainFood":"","designatedDate":"2025-11-15","lat":36.367073448,"lng":127.381716452,"region":"대전광역시","source":"safefood","safeFoodGrade":"매우우수","safeFoodCertNo":"HG190001745"},{"id":"safefood-daejeon-HG250638954","name":"스타벅스 둔산대덕대로점","address":"대전광역시 서구 대덕대로 200(1층 101호 둔산동)","jibunAddress":"","phone":"","foodType":"","mainFood":"","designatedDate":"2025-09-08","lat":36.367615486,"lng":127.37991105,"region":"대전광역시","source":"safefood","safeFoodGrade":"매우우수","safeFoodCertNo":"HG250638954"},{"id":"safefood-daejeon-HG250639150","name":"비에이치씨(BHC)대전봉명점","address":"대전광역시 유성구 온천로 60(지상1층 101,102,105호 봉명동, 사이언스타운 주상복합)","jibunAddress":"","phone":"","foodType":"","mainFood":"","designatedDate":"2025-09-11","lat":36.354980625,"lng":127.342529876,"region":"대전광역시","source":"safefood","safeFoodGrade":"매우우수","safeFoodCertNo":"HG250639150"},{"id":"safefood-daejeon-HG210010155","name":"육십(60)계치킨신탄진점","address":"대전광역시 대덕구 신탄진동로23번길 34(1층 신탄진동)","jibunAddress":"","phone":"","foodType":"","mainFood":"","designatedDate":"2025-10-28","lat":36.449828792,"lng":127.431583012,"region":"대전광역시","source":"safefood","safeFoodGrade":"매우우수","safeFoodCertNo":"HG210010155"},{"id":"safefood-daejeon-HG190001988","name":"스타벅스둔산은하수점","address":"대전광역시 서구 둔산로31번길 28(둔산동,1층)","jibunAddress":"","phone":"","foodType":"","mainFood":"","designatedDate":"2025-11-26","lat":36.353095151,"lng":127.377798099,"region":"대전광역시","source":"safefood","safeFoodGrade":"매우우수","safeFoodCertNo":"HG190001988"},{"id":"safefood-daejeon-HG190001909","name":"스타벅스 대전둔산남로점","address":"대전광역시 서구 둔산남로 100(1층 탄방동)","jibunAddress":"","phone":"","foodType":"","mainFood":"","designatedDate":"2025-11-26","lat":36.348746566,"lng":127.388647516,"region":"대전광역시","source":"safefood","safeFoodGrade":"매우우수","safeFoodCertNo":"HG190001909"},{"id":"safefood-daejeon-HG190001918","name":"스타벅스대전대사디티점","address":"대전광역시 중구 계룡로 949(1~2층 대사동)","jibunAddress":"","phone":"","foodType":"","mainFood":"","designatedDate":"2025-11-26","lat":36.324531731,"lng":127.409502421,"region":"대전광역시","source":"safefood","safeFoodGrade":"매우우수","safeFoodCertNo":"HG190001918"},{"id":"safefood-daejeon-HG250639530","name":"비비큐식당","address":"대전광역시 중구 평촌로 110-1(유천동)","jibunAddress":"","phone":"","foodType":"","mainFood":"","designatedDate":"2025-09-19","lat":36.321872264,"lng":127.39663138,"region":"대전광역시","source":"safefood","safeFoodGrade":"매우우수","safeFoodCertNo":"HG250639530"},{"id":"safefood-daejeon-HG230009102","name":"투썸플레이스 남대전IC점","address":"대전광역시 동구 산내로 1217-14(구도동[*미고시])","jibunAddress":"","phone":"","foodType":"","mainFood":"","designatedDate":"2025-11-20","lat":36.200127417,"lng":127.449221363,"region":"대전광역시","source":"safefood","safeFoodGrade":"매우우수","safeFoodCertNo":"HG230009102"},{"id":"safefood-daejeon-HG210010085","name":"배스킨라빈스 대전산내점","address":"대전광역시 동구 산내로 1329(낭월동)","jibunAddress":"","phone":"","foodType":"","mainFood":"","designatedDate":"2025-10-26","lat":36.200127417,"lng":127.449221363,"region":"대전광역시","source":"safefood","safeFoodGrade":"매우우수","safeFoodCertNo":"HG210010085"},{"id":"safefood-daejeon-HG250638784","name":"본죽앤비빔밥대전신탄점","address":"대전광역시 대덕구 대덕대로 1555(상가동 122호 석봉동, 금강엑슬루타워)","jibunAddress":"","phone":"","foodType":"","mainFood":"","designatedDate":"2025-09-04","lat":36.449114213,"lng":127.421069173,"region":"대전광역시","source":"safefood","safeFoodGrade":"우수","safeFoodCertNo":"HG250638784"},{"id":"safefood-daejeon-HG250638931","name":"이봉원의 봉짬뽕","address":"대전광역시 서구 계룡로 598(롯데백화점 9층 일부호 괴정동)","jibunAddress":"","phone":"","foodType":"","mainFood":"","designatedDate":"2025-09-08","lat":36.353441739,"lng":127.363542642,"region":"대전광역시","source":"safefood","safeFoodGrade":"매우우수","safeFoodCertNo":"HG250638931"},{"id":"safefood-daejeon-HG250638930","name":"성심당 리틀키친","address":"대전광역시 서구 계룡로 598(롯데백화점 지하1층 일부 괴정동)","jibunAddress":"","phone":"","foodType":"","mainFood":"","designatedDate":"2025-09-08","lat":36.353441739,"lng":127.363542642,"region":"대전광역시","source":"safefood","safeFoodGrade":"매우우수","safeFoodCertNo":"HG250638930"},{"id":"safefood-daejeon-HG250638929","name":"옛맛솜씨 롯데대전점","address":"대전광역시 서구 계룡로 598(롯데백화점 지하1층 일부호 괴정동)","jibunAddress":"","phone":"","foodType":"","mainFood":"","designatedDate":"2025-09-08","lat":36.353441739,"lng":127.363542642,"region":"대전광역시","source":"safefood","safeFoodGrade":"매우우수","safeFoodCertNo":"HG250638929"},{"id":"safefood-daejeon-HG250638928","name":"능두네","address":"대전광역시 서구 계룡로 598(롯데백화점 9층 일부호 괴정동)","jibunAddress":"","phone":"","foodType":"","mainFood":"","designatedDate":"2025-09-08","lat":36.353441739,"lng":127.363542642,"region":"대전광역시","source":"safefood","safeFoodGrade":"매우우수","safeFoodCertNo":"HG250638928"},{"id":"safefood-daejeon-HG250638228","name":"맥도날드대전한남대디티점","address":"대전광역시 대덕구 한밭대로 1102(1,2층 중리동)","jibunAddress":"","phone":"","foodType":"","mainFood":"","designatedDate":"2025-08-26","lat":36.359327196,"lng":127.425918528,"region":"대전광역시","source":"safefood","safeFoodGrade":"매우우수","safeFoodCertNo":"HG250638228"},{"id":"safefood-daejeon-HG190001349","name":"스타벅스 대전수침교DT점","address":"대전광역시 서구 계룡로 692(1,2층 용문동)","jibunAddress":"","phone":"","foodType":"","mainFood":"","designatedDate":"2025-10-17","lat":36.353441739,"lng":127.363542642,"region":"대전광역시","source":"safefood","safeFoodGrade":"매우우수","safeFoodCertNo":"HG190001349"},{"id":"safefood-daejeon-HG230009677","name":"스타벅스커피대전송촌점","address":"대전광역시 대덕구 송촌북로36번길 36(105호 송촌동)","jibunAddress":"","phone":"","foodType":"","mainFood":"","designatedDate":"2025-11-29","lat":36.365784627,"lng":127.43763151,"region":"대전광역시","source":"safefood","safeFoodGrade":"매우우수","safeFoodCertNo":"HG230009677"},{"id":"safefood-daejeon-HG190001441","name":"스타벅스대전중앙로R점","address":"대전광역시 중구 대종로 486(1~2층 은행동)","jibunAddress":"","phone":"","foodType":"","mainFood":"","designatedDate":"2025-10-29","lat":36.311122204,"lng":127.43970266,"region":"대전광역시","source":"safefood","safeFoodGrade":"매우우수","safeFoodCertNo":"HG190001441"},{"id":"safefood-daejeon-HG190001416","name":"스타벅스대전판암디티(DT)점","address":"대전광역시 동구 옥천로 118(1,2층 판암동)","jibunAddress":"","phone":"","foodType":"","mainFood":"","designatedDate":"2025-10-29","lat":36.316335904,"lng":127.455523467,"region":"대전광역시","source":"safefood","safeFoodGrade":"매우우수","safeFoodCertNo":"HG190001416"},{"id":"safefood-daejeon-HG250638566","name":"노티드 대전 신세계","address":"대전광역시 유성구 엑스포로 1(신세계엑스포점 지하1층 A34호 도룡동)","jibunAddress":"","phone":"","foodType":"","mainFood":"","designatedDate":"2025-09-01","lat":36.377791214,"lng":127.405680192,"region":"대전광역시","source":"safefood","safeFoodGrade":"매우우수","safeFoodCertNo":"HG250638566"},{"id":"safefood-daejeon-HG250637773","name":"찬합 현대아울렛 대전점","address":"대전광역시 유성구 테크노중앙로 123(현대프리미엄아울렛 대전점 지상3층 용산동)","jibunAddress":"","phone":"","foodType":"","mainFood":"","designatedDate":"2025-08-18","lat":36.42606375,"lng":127.391345646,"region":"대전광역시","source":"safefood","safeFoodGrade":"매우우수","safeFoodCertNo":"HG250637773"},{"id":"safefood-daejeon-HG250638516","name":"뚜레쥬르태평점","address":"대전광역시 중구 평촌로 111(상가1 401동 117호 태평동, 태평아파트)","jibunAddress":"","phone":"","foodType":"","mainFood":"","designatedDate":"2025-09-01","lat":36.321872264,"lng":127.39663138,"region":"대전광역시","source":"safefood","safeFoodGrade":"매우우수","safeFoodCertNo":"HG250638516"},{"id":"safefood-daejeon-HG250638515","name":"뚜레쥬르태평점2","address":"대전광역시 중구 평촌로 111(상가1 401동 104,105호 태평동, 태평아파트)","jibunAddress":"","phone":"","foodType":"","mainFood":"","designatedDate":"2025-09-01","lat":36.321872264,"lng":127.39663138,"region":"대전광역시","source":"safefood","safeFoodGrade":"매우우수","safeFoodCertNo":"HG250638515"},{"id":"safefood-daejeon-HG190001733","name":"스타벅스대전호텔","address":"대전광역시 서구 둔산중로134번길 13(둔산동,104,105호)","jibunAddress":"","phone":"","foodType":"","mainFood":"","designatedDate":"2025-11-15","lat":36.359021541,"lng":127.38871452,"region":"대전광역시","source":"safefood","safeFoodGrade":"매우우수","safeFoodCertNo":"HG190001733"},{"id":"safefood-daejeon-HG250638513","name":"지탑피씨","address":"대전광역시 대덕구 대덕대로 1610(지하1층 석봉동)","jibunAddress":"","phone":"","foodType":"","mainFood":"","designatedDate":"2025-09-01","lat":36.449114213,"lng":127.421069173,"region":"대전광역시","source":"safefood","safeFoodGrade":"매우우수","safeFoodCertNo":"HG250638513"},{"id":"safefood-daejeon-HG230008496","name":"선비꼬마김밥 동일스위트점","address":"대전광역시 대덕구 대청로 43(A동 109호 신탄진동, 대전 동일스위트 리버스카이 1단지)","jibunAddress":"","phone":"","foodType":"","mainFood":"","designatedDate":"2025-11-09","lat":36.44838662314152,"lng":127.45387658341932,"region":"대전광역시","source":"safefood","safeFoodGrade":"매우우수","safeFoodCertNo":"HG230008496"},{"id":"safefood-daejeon-HG250638497","name":"콘타이 대전테크노중앙로점","address":"대전광역시 유성구 테크노중앙로 123(현대프리미엄아울렛 대전점 판매시설동 지상1층 1125호 용산동)","jibunAddress":"","phone":"","foodType":"","mainFood":"","designatedDate":"2025-09-01","lat":36.42606375,"lng":127.391345646,"region":"대전광역시","source":"safefood","safeFoodGrade":"매우우수","safeFoodCertNo":"HG250638497"},{"id":"safefood-daejeon-HG230006856","name":"호식이두마리치킨문창점","address":"대전광역시 중구 대종로 358(세종빌딩 1층 부사동)","jibunAddress":"","phone":"","foodType":"","mainFood":"","designatedDate":"2025-09-14","lat":36.311122204,"lng":127.43970266,"region":"대전광역시","source":"safefood","safeFoodGrade":"매우우수","safeFoodCertNo":"HG230006856"},{"id":"safefood-daejeon-HG250637211","name":"비비큐 치킨앤비어 대전터미널점","address":"대전광역시 동구 동서대로1695번길 30(대전복합터미널동관 CE110호 용전동)","jibunAddress":"","phone":"","foodType":"","mainFood":"","designatedDate":"2025-08-05","lat":36.351435319,"lng":127.43738504,"region":"대전광역시","source":"safefood","safeFoodGrade":"매우우수","safeFoodCertNo":"HG250637211"},{"id":"safefood-daejeon-HG250638269","name":"상무초밥 둔산직영점","address":"대전광역시 서구 둔산로31번길 66(둔산동,1층)","jibunAddress":"","phone":"","foodType":"","mainFood":"","designatedDate":"2025-08-26","lat":36.353095151,"lng":127.377798099,"region":"대전광역시","source":"safefood","safeFoodGrade":"매우우수","safeFoodCertNo":"HG250638269"},{"id":"safefood-daejeon-HG250637458","name":"케익부띠끄 롯데대전점2","address":"대전광역시 서구 계룡로 598(롯데백화점 지하1층 일부호 괴정동)","jibunAddress":"","phone":"","foodType":"","mainFood":"","designatedDate":"2025-08-11","lat":36.353441739,"lng":127.363542642,"region":"대전광역시","source":"safefood","safeFoodGrade":"매우우수","safeFoodCertNo":"HG250637458"},{"id":"safefood-daejeon-HG250637457","name":"케익부띠끄 롯데대전점1","address":"대전광역시 서구 계룡로 598(롯데백화점 지하1층 일부호 괴정동)","jibunAddress":"","phone":"","foodType":"","mainFood":"","designatedDate":"2025-08-11","lat":36.353441739,"lng":127.363542642,"region":"대전광역시","source":"safefood","safeFoodGrade":"매우우수","safeFoodCertNo":"HG250637457"},{"id":"safefood-daejeon-HG250637453","name":"파머스포케 대전둔산점","address":"대전광역시 서구 둔산로31번길 72(1층 101일부호 둔산동)","jibunAddress":"","phone":"","foodType":"","mainFood":"","designatedDate":"2025-08-11","lat":36.353095151,"lng":127.377798099,"region":"대전광역시","source":"safefood","safeFoodGrade":"매우우수","safeFoodCertNo":"HG250637453"},{"id":"safefood-daejeon-HG250637176","name":"파리바게뜨 도마점","address":"대전광역시 서구 배재로 155-7(도마동,경남@상가 1층 5호)","jibunAddress":"","phone":"","foodType":"","mainFood":"","designatedDate":"2025-08-05","lat":36.315317567,"lng":127.37098466,"region":"대전광역시","source":"safefood","safeFoodGrade":"매우우수","safeFoodCertNo":"HG250637176"},{"id":"safefood-daejeon-HG230006562","name":"호식이두마리치킨 노은점","address":"대전광역시 유성구 노은동로79번길 58(노은동)","jibunAddress":"","phone":"","foodType":"","mainFood":"","designatedDate":"2025-09-05","lat":36.367849678,"lng":127.321756416,"region":"대전광역시","source":"safefood","safeFoodGrade":"매우우수","safeFoodCertNo":"HG230006562"},{"id":"safefood-daejeon-HG250637570","name":"씨유 대전복수스타점","address":"대전광역시 서구 복수남로 55(1층 복수동, 1층일부)","jibunAddress":"","phone":"","foodType":"","mainFood":"","designatedDate":"2025-08-12","lat":36.297555035,"lng":127.379164697,"region":"대전광역시","source":"safefood","safeFoodGrade":"우수","safeFoodCertNo":"HG250637570"},{"id":"safefood-daejeon-HG190001337","name":"스타벅스대전유천디티점","address":"대전광역시 중구 계백로 1604(1~2층 유천동)","jibunAddress":"","phone":"","foodType":"","mainFood":"","designatedDate":"2025-10-17","lat":36.318842774,"lng":127.397945046,"region":"대전광역시","source":"safefood","safeFoodGrade":"매우우수","safeFoodCertNo":"HG190001337"},{"id":"safefood-daejeon-HG230006561","name":"폴바셋 현대프리미엄아울렛대전점","address":"대전광역시 유성구 테크노중앙로 123(현대프리미엄아울렛 대전점 판매시설동 지상1층 1113호 용산동)","jibunAddress":"","phone":"","foodType":"","mainFood":"","designatedDate":"2025-09-05","lat":36.42606375,"lng":127.391345646,"region":"대전광역시","source":"safefood","safeFoodGrade":"매우우수","safeFoodCertNo":"HG230006561"},{"id":"safefood-daejeon-HG230006574","name":"스타벅스 대전현대아울렛점","address":"대전광역시 유성구 테크노중앙로 123(현대프리미엄아울렛 대전점 판매시설동 지상1층 1237호 용산동)","jibunAddress":"","phone":"","foodType":"","mainFood":"","designatedDate":"2025-09-05","lat":36.42606375,"lng":127.391345646,"region":"대전광역시","source":"safefood","safeFoodGrade":"매우우수","safeFoodCertNo":"HG230006574"},{"id":"safefood-daejeon-HG250637088","name":"요아정 대전복수점","address":"대전광역시 서구 복수동로 52(1층 일부호 복수동)","jibunAddress":"","phone":"","foodType":"","mainFood":"","designatedDate":"2025-08-05","lat":36.297849027,"lng":127.378563133,"region":"대전광역시","source":"safefood","safeFoodGrade":"매우우수","safeFoodCertNo":"HG250637088"},{"id":"safefood-daejeon-HG230006660","name":"스타벅스 대전용운점","address":"대전광역시 동구 동부로 178(1,2층 용운동)","jibunAddress":"","phone":"","foodType":"","mainFood":"","designatedDate":"2025-09-06","lat":36.328004616,"lng":127.466729877,"region":"대전광역시","source":"safefood","safeFoodGrade":"매우우수","safeFoodCertNo":"HG230006660"},{"id":"safefood-daejeon-HG250636734","name":"본죽엔비빔밥 노은3지구점","address":"대전광역시 유성구 지족동로 152(지상1층 103호 지족동, 코오롱타워)","jibunAddress":"","phone":"","foodType":"","mainFood":"","designatedDate":"2025-07-29","lat":36.38676342801562,"lng":127.30874648673381,"region":"대전광역시","source":"safefood","safeFoodGrade":"매우우수","safeFoodCertNo":"HG250636734"},{"id":"safefood-daejeon-HG190001304","name":"스타벅스대전가오점","address":"대전광역시 동구 동구청로 101(가오동, 세이프존 109,110,203,204호)","jibunAddress":"","phone":"","foodType":"","mainFood":"","designatedDate":"2025-10-17","lat":36.299898306,"lng":127.459357471,"region":"대전광역시","source":"safefood","safeFoodGrade":"매우우수","safeFoodCertNo":"HG190001304"},{"id":"safefood-daejeon-HG250637015","name":"맘스터치 갈마행복점","address":"대전광역시 서구 갈마로 62-1(1층 일부호 갈마동)","jibunAddress":"","phone":"","foodType":"","mainFood":"","designatedDate":"2025-08-05","lat":36.341263573,"lng":127.372320519,"region":"대전광역시","source":"safefood","safeFoodGrade":"매우우수","safeFoodCertNo":"HG250637015"},{"id":"safefood-daejeon-HG250636705","name":"맘스터치대전은행점","address":"대전광역시 중구 중앙로156번길 49(2층 은행동)","jibunAddress":"","phone":"","foodType":"","mainFood":"","designatedDate":"2025-07-28","lat":36.328029753,"lng":127.427119426,"region":"대전광역시","source":"safefood","safeFoodGrade":"우수","safeFoodCertNo":"HG250636705"},{"id":"safefood-daejeon-HG250636704","name":"맘스피자대전은행점","address":"대전광역시 중구 중앙로156번길 49(2층 은행동)","jibunAddress":"","phone":"","foodType":"","mainFood":"","designatedDate":"2025-07-28","lat":36.328029753,"lng":127.427119426,"region":"대전광역시","source":"safefood","safeFoodGrade":"우수","safeFoodCertNo":"HG250636704"},{"id":"safefood-daejeon-HG250636974","name":"한솥도시락 대전시청점","address":"대전광역시 서구 둔산중로 50(파이낸스빌딩 1층 105호 둔산동)","jibunAddress":"","phone":"","foodType":"","mainFood":"","designatedDate":"2025-08-05","lat":36.359106444,"lng":127.387187449,"region":"대전광역시","source":"safefood","safeFoodGrade":"매우우수","safeFoodCertNo":"HG250636974"},{"id":"safefood-daejeon-HG230006846","name":"투썸플레이스 신탄진대청호점","address":"대전광역시 대덕구 대청로 152(1층 신탄진동)","jibunAddress":"","phone":"","foodType":"","mainFood":"","designatedDate":"2025-09-14","lat":36.44838662314152,"lng":127.45387658341932,"region":"대전광역시","source":"safefood","safeFoodGrade":"매우우수","safeFoodCertNo":"HG230006846"},{"id":"safefood-daejeon-HG250636948","name":"주랑해","address":"대전광역시 서구 갈마역로25번길 17-15(1층 갈마동)","jibunAddress":"","phone":"","foodType":"","mainFood":"","designatedDate":"2025-08-05","lat":36.3527262476506,"lng":127.372458280442,"region":"대전광역시","source":"safefood","safeFoodGrade":"우수","safeFoodCertNo":"HG250636948"},{"id":"safefood-daejeon-HG230010298","name":"차이797 대전현대아울렛점","address":"대전광역시 유성구 테크노중앙로 123(현대프리미엄아울렛 대전점 판매시설동 지상3층 3205호 용산동)","jibunAddress":"","phone":"","foodType":"","mainFood":"","designatedDate":"2025-12-18","lat":36.42606375,"lng":127.391345646,"region":"대전광역시","source":"safefood","safeFoodGrade":"매우우수","safeFoodCertNo":"HG230010298"},{"id":"safefood-daejeon-HG210008541","name":"투썸플레이스 충남대점","address":"대전광역시 유성구 대학로 87(궁동,지상1층)","jibunAddress":"","phone":"","foodType":"","mainFood":"","designatedDate":"2025-09-03","lat":36.360496312,"lng":127.344427401,"region":"대전광역시","source":"safefood","safeFoodGrade":"매우우수","safeFoodCertNo":"HG210008541"},{"id":"safefood-daejeon-HG230006401","name":"땀땀","address":"대전광역시 서구 대덕대로 211(갤러리아타임월드백화점 11층 일부 둔산동)","jibunAddress":"","phone":"","foodType":"","mainFood":"","designatedDate":"2025-08-31","lat":36.367615486,"lng":127.37991105,"region":"대전광역시","source":"safefood","safeFoodGrade":"매우우수","safeFoodCertNo":"HG230006401"},{"id":"safefood-daejeon-HG210008320","name":"엔제리너스커피 둔산한방병원점","address":"대전광역시 서구 대덕대로176번길 75(1층 일부 둔산동)","jibunAddress":"","phone":"","foodType":"","mainFood":"","designatedDate":"2025-08-30","lat":36.347127453,"lng":127.378908735,"region":"대전광역시","source":"safefood","safeFoodGrade":"매우우수","safeFoodCertNo":"HG210008320"},{"id":"safefood-daejeon-HG230006726","name":"펄스맥","address":"대전광역시 서구 계룡로 598(지하1층 괴정동, 지하1층일부)","jibunAddress":"","phone":"","foodType":"","mainFood":"","designatedDate":"2025-09-08","lat":36.353441739,"lng":127.363542642,"region":"대전광역시","source":"safefood","safeFoodGrade":"매우우수","safeFoodCertNo":"HG230006726"},{"id":"safefood-daejeon-HG210009215","name":"라온 롯데백화점대전점","address":"대전광역시 서구 계룡로 598(롯데백화점 9층 일부호 괴정동)","jibunAddress":"","phone":"","foodType":"","mainFood":"","designatedDate":"2025-09-28","lat":36.353441739,"lng":127.363542642,"region":"대전광역시","source":"safefood","safeFoodGrade":"매우우수","safeFoodCertNo":"HG210009215"},{"id":"safefood-daejeon-HG230006730","name":"정담샤브연 롯대백화점대전점","address":"대전광역시 서구 계룡로 598(롯데백화점 지하1층 일부호 괴정동)","jibunAddress":"","phone":"","foodType":"","mainFood":"","designatedDate":"2025-09-08","lat":36.353441739,"lng":127.363542642,"region":"대전광역시","source":"safefood","safeFoodGrade":"매우우수","safeFoodCertNo":"HG230006730"},{"id":"safefood-daejeon-HG210009208","name":"청수당신록","address":"대전광역시 서구 계룡로 598(롯데백화점 9층 일부호 괴정동)","jibunAddress":"","phone":"","foodType":"","mainFood":"","designatedDate":"2025-09-28","lat":36.353441739,"lng":127.363542642,"region":"대전광역시","source":"safefood","safeFoodGrade":"매우우수","safeFoodCertNo":"HG210009208"},{"id":"safefood-daejeon-HG230006740","name":"롯데백화점대전점 비첸향","address":"대전광역시 서구 계룡로 598(롯데백화점 지하1층 일부 괴정동)","jibunAddress":"","phone":"","foodType":"","mainFood":"","designatedDate":"2025-09-08","lat":36.353441739,"lng":127.363542642,"region":"대전광역시","source":"safefood","safeFoodGrade":"매우우수","safeFoodCertNo":"HG230006740"},{"id":"safefood-daejeon-HG210008988","name":"배스킨라빈스 대전용문점","address":"대전광역시 서구 계룡로 634-1(1층 용문동, 1층일부)","jibunAddress":"","phone":"","foodType":"","mainFood":"","designatedDate":"2025-09-15","lat":36.353441739,"lng":127.363542642,"region":"대전광역시","source":"safefood","safeFoodGrade":"매우우수","safeFoodCertNo":"HG210008988"},{"id":"safefood-daejeon-HG210008540","name":"60계 도마변동점","address":"대전광역시 서구 도마로 30(1층 도마동)","jibunAddress":"","phone":"","foodType":"","mainFood":"","designatedDate":"2025-09-03","lat":36.321916453,"lng":127.379322955,"region":"대전광역시","source":"safefood","safeFoodGrade":"매우우수","safeFoodCertNo":"HG210008540"},{"id":"safefood-daejeon-HG250636547","name":"할리스커피신성점","address":"대전광역시 유성구 유성대로1184번길 18(지상1,2층 신성동)","jibunAddress":"","phone":"","foodType":"","mainFood":"","designatedDate":"2025-07-25","lat":36.3949684831333,"lng":127.352933366659,"region":"대전광역시","source":"safefood","safeFoodGrade":"우수","safeFoodCertNo":"HG250636547"},{"id":"safefood-daejeon-HG250635624","name":"정돈 갤러리아타임월드","address":"대전광역시 서구 대덕대로 211(갤러리아타임월드백화점 11층 일부 둔산동)","jibunAddress":"","phone":"","foodType":"","mainFood":"","designatedDate":"2025-07-03","lat":36.367615486,"lng":127.37991105,"region":"대전광역시","source":"safefood","safeFoodGrade":"매우우수","safeFoodCertNo":"HG250635624"},{"id":"safefood-daejeon-HG250635848","name":"메가엠지씨커피 대전도마호반써밋점","address":"대전광역시 서구 도산로 79(지하1층 B108호 도마동, 호반써밋 그랜드 센트럴)","jibunAddress":"","phone":"","foodType":"","mainFood":"","designatedDate":"2025-07-09","lat":36.33534784,"lng":127.389782849,"region":"대전광역시","source":"safefood","safeFoodGrade":"매우우수","safeFoodCertNo":"HG250635848"},{"id":"safefood-daejeon-HG250636183","name":"스타벅스 유성선병원점","address":"대전광역시 유성구 북유성대로 93(유성선병원 H동 지하 1층 지족동)","jibunAddress":"","phone":"","foodType":"","mainFood":"","designatedDate":"2025-07-16","lat":36.399077877,"lng":127.309174618,"region":"대전광역시","source":"safefood","safeFoodGrade":"매우우수","safeFoodCertNo":"HG250636183"},{"id":"safefood-daejeon-HG250635958","name":"서래함박 하우스메이드","address":"대전광역시 유성구 엑스포로 1(지상 7층 A74-1호 도룡동)","jibunAddress":"","phone":"","foodType":"","mainFood":"","designatedDate":"2025-07-11","lat":36.377791214,"lng":127.405680192,"region":"대전광역시","source":"safefood","safeFoodGrade":"매우우수","safeFoodCertNo":"HG250635958"},{"id":"safefood-daejeon-HG250635431","name":"육미제당 대전괴정롯데점","address":"대전광역시 서구 계룡로 586(1층 103호 괴정동)","jibunAddress":"","phone":"","foodType":"","mainFood":"","designatedDate":"2025-07-01","lat":36.353441739,"lng":127.363542642,"region":"대전광역시","source":"safefood","safeFoodGrade":"매우우수","safeFoodCertNo":"HG250635431"},{"id":"safefood-daejeon-HG210007531","name":"던킨 대전관평점","address":"대전광역시 유성구 테크노중앙로 50(1층 B103호 관평동)","jibunAddress":"","phone":"","foodType":"","mainFood":"","designatedDate":"2025-08-06","lat":36.42606375,"lng":127.391345646,"region":"대전광역시","source":"safefood","safeFoodGrade":"매우우수","safeFoodCertNo":"HG210007531"},{"id":"safefood-daejeon-HG220007703","name":"CGV대전탄방 POPCORN FACTORY","address":"대전광역시 서구 문정로 85(7층 탄방동, 세이탄방점)","jibunAddress":"","phone":"","foodType":"","mainFood":"","designatedDate":"2024-09-13","lat":36.346173691,"lng":127.381710321,"region":"대전광역시","source":"safefood","safeFoodGrade":"매우우수","safeFoodCertNo":"HG220007703"},{"id":"safefood-daejeon-HG250635400","name":"파리바게뜨가장점","address":"대전광역시 서구 가장로 100(가장동,1층)","jibunAddress":"","phone":"","foodType":"","mainFood":"","designatedDate":"2025-07-01","lat":36.335429816,"lng":127.38405518,"region":"대전광역시","source":"safefood","safeFoodGrade":"매우우수","safeFoodCertNo":"HG250635400"},{"id":"safefood-daejeon-HG250635376","name":"교촌치킨법동점","address":"대전광역시 대덕구 중리로 48(1층 중리동)","jibunAddress":"","phone":"","foodType":"","mainFood":"","designatedDate":"2025-07-01","lat":36.360138434,"lng":127.425483682,"region":"대전광역시","source":"safefood","safeFoodGrade":"매우우수","safeFoodCertNo":"HG250635376"},{"id":"safefood-daejeon-HG250634332","name":"반올림피자대전한화생명볼파크점1-1","address":"대전광역시 중구 대종로 373(베이스볼드림파크 1층 107블록호 부사동)","jibunAddress":"","phone":"","foodType":"","mainFood":"","designatedDate":"2025-06-09","lat":36.311122204,"lng":127.43970266,"region":"대전광역시","source":"safefood","safeFoodGrade":"매우우수","safeFoodCertNo":"HG250634332"},{"id":"safefood-daejeon-HG250634331","name":"반올림피자대전한화생명볼파크점","address":"대전광역시 중구 대종로 373(베이스볼드림파크 1층 100B블록호 부사동)","jibunAddress":"","phone":"","foodType":"","mainFood":"","designatedDate":"2025-06-09","lat":36.311122204,"lng":127.43970266,"region":"대전광역시","source":"safefood","safeFoodGrade":"매우우수","safeFoodCertNo":"HG250634331"},{"id":"safefood-daejeon-HG250634330","name":"비비큐대전한화생명볼파크2층1루","address":"대전광역시 중구 대종로 373(베이스볼드림파크 2층 1루호 부사동)","jibunAddress":"","phone":"","foodType":"","mainFood":"","designatedDate":"2025-06-09","lat":36.311122204,"lng":127.43970266,"region":"대전광역시","source":"safefood","safeFoodGrade":"매우우수","safeFoodCertNo":"HG250634330"},{"id":"safefood-daejeon-HG250634329","name":"비비큐대전한화생명볼파크1층1루","address":"대전광역시 중구 대종로 373(베이스볼드림파크 1층 1루우측호 부사동)","jibunAddress":"","phone":"","foodType":"","mainFood":"","designatedDate":"2025-06-09","lat":36.311122204,"lng":127.43970266,"region":"대전광역시","source":"safefood","safeFoodGrade":"매우우수","safeFoodCertNo":"HG250634329"},{"id":"safefood-daejeon-HG250634328","name":"비비큐대전한화생명볼파크1층메인","address":"대전광역시 중구 대종로 373(베이스볼드림파크 1층 메인호 부사동)","jibunAddress":"","phone":"","foodType":"","mainFood":"","designatedDate":"2025-06-09","lat":36.311122204,"lng":127.43970266,"region":"대전광역시","source":"safefood","safeFoodGrade":"매우우수","safeFoodCertNo":"HG250634328"},{"id":"safefood-daejeon-HG250634327","name":"비비큐대전한화생명볼파크점1층메인-1","address":"대전광역시 중구 대종로 373(베이스볼드림파크 1층 103블럭호 부사동)","jibunAddress":"","phone":"","foodType":"","mainFood":"","designatedDate":"2025-06-09","lat":36.311122204,"lng":127.43970266,"region":"대전광역시","source":"safefood","safeFoodGrade":"매우우수","safeFoodCertNo":"HG250634327"},{"id":"safefood-daejeon-HG250634326","name":"스플래쉬","address":"대전광역시 중구 대종로 373(베이스볼드림파크 4층 3루호 부사동)","jibunAddress":"","phone":"","foodType":"","mainFood":"","designatedDate":"2025-06-09","lat":36.311122204,"lng":127.43970266,"region":"대전광역시","source":"safefood","safeFoodGrade":"우수","safeFoodCertNo":"HG250634326"},{"id":"safefood-daejeon-HG250634325","name":"대전한화생명볼파크1985이닝스아라마크(주)2-1","address":"대전광역시 중구 대종로 373(베이스볼드림파크 2층 3루 218블록호 부사동)","jibunAddress":"","phone":"","foodType":"","mainFood":"","designatedDate":"2025-06-09","lat":36.311122204,"lng":127.43970266,"region":"대전광역시","source":"safefood","safeFoodGrade":"매우우수","safeFoodCertNo":"HG250634325"},{"id":"safefood-daejeon-HG250634324","name":"브뤼셀프라이한화생명볼파크점","address":"대전광역시 중구 대종로 373(베이스볼드림파크 1층 3루 120블럭호 부사동)","jibunAddress":"","phone":"","foodType":"","mainFood":"","designatedDate":"2025-06-09","lat":36.311122204,"lng":127.43970266,"region":"대전광역시","source":"safefood","safeFoodGrade":"매우우수","safeFoodCertNo":"HG250634324"},{"id":"safefood-daejeon-HG250634323","name":"완미족발대전한화생명볼파크점-1","address":"대전광역시 중구 대종로 373(베이스볼드림파크 1층 100B호 부사동)","jibunAddress":"","phone":"","foodType":"","mainFood":"","designatedDate":"2025-06-09","lat":36.311122204,"lng":127.43970266,"region":"대전광역시","source":"safefood","safeFoodGrade":"매우우수","safeFoodCertNo":"HG250634323"},{"id":"safefood-daejeon-HG250634322","name":"완미족발대전한화생명볼파크점","address":"대전광역시 중구 대종로 373(베이스볼드림파크 1층 메인게이트 앞 왼쪽호 부사동)","jibunAddress":"","phone":"","foodType":"","mainFood":"","designatedDate":"2025-06-09","lat":36.311122204,"lng":127.43970266,"region":"대전광역시","source":"safefood","safeFoodGrade":"매우우수","safeFoodCertNo":"HG250634322"},{"id":"safefood-daejeon-HG250634321","name":"대전한화생명볼파크1985이닝스아라마크(주)1-1","address":"대전광역시 중구 대종로 373(베이스볼드림파크 1층 3루 100C 블록 옆호 부사동)","jibunAddress":"","phone":"","foodType":"","mainFood":"","designatedDate":"2025-06-09","lat":36.311122204,"lng":127.43970266,"region":"대전광역시","source":"safefood","safeFoodGrade":"매우우수","safeFoodCertNo":"HG250634321"},{"id":"safefood-daejeon-HG250634320","name":"대전한화생명볼파크1985이닝스아라마크(주)","address":"대전광역시 중구 대종로 373(베이스볼드림파크 2층 1루 끝호 부사동)","jibunAddress":"","phone":"","foodType":"","mainFood":"","designatedDate":"2025-06-09","lat":36.311122204,"lng":127.43970266,"region":"대전광역시","source":"safefood","safeFoodGrade":"매우우수","safeFoodCertNo":"HG250634320"},{"id":"safefood-daejeon-HG250634319","name":"민선에프앤드씨(농심가락)","address":"대전광역시 중구 대종로 373(베이스볼드림파크 1층 3루호 부사동)","jibunAddress":"","phone":"","foodType":"","mainFood":"","designatedDate":"2025-06-09","lat":36.311122204,"lng":127.43970266,"region":"대전광역시","source":"safefood","safeFoodGrade":"매우우수","safeFoodCertNo":"HG250634319"},{"id":"safefood-daejeon-HG250634317","name":"빽다방빵연구소대전한화생명볼파크점","address":"대전광역시 중구 대종로 373(베이스볼드림파크 1층 3루외부호 부사동)","jibunAddress":"","phone":"","foodType":"","mainFood":"","designatedDate":"2025-06-09","lat":36.311122204,"lng":127.43970266,"region":"대전광역시","source":"safefood","safeFoodGrade":"매우우수","safeFoodCertNo":"HG250634317"},{"id":"safefood-daejeon-HG250634316","name":"더본테이스티2-1호점","address":"대전광역시 중구 대종로 373(베이스볼드림파크 2층 203블록 옆호 부사동)","jibunAddress":"","phone":"","foodType":"","mainFood":"","designatedDate":"2025-06-09","lat":36.311122204,"lng":127.43970266,"region":"대전광역시","source":"safefood","safeFoodGrade":"매우우수","safeFoodCertNo":"HG250634316"},{"id":"safefood-daejeon-HG250634315","name":"더본테이스티1-1호","address":"대전광역시 중구 대종로 373(베이스볼드림파크 1층 100A블록 옆호 부사동)","jibunAddress":"","phone":"","foodType":"","mainFood":"","designatedDate":"2025-06-09","lat":36.311122204,"lng":127.43970266,"region":"대전광역시","source":"safefood","safeFoodGrade":"매우우수","safeFoodCertNo":"HG250634315"},{"id":"safefood-daejeon-HG250634314","name":"더본테이스티대전한화생명볼파크점","address":"대전광역시 중구 대종로 373(베이스볼드림파크 2층 3루내야끝호 부사동)","jibunAddress":"","phone":"","foodType":"","mainFood":"","designatedDate":"2025-06-09","lat":36.311122204,"lng":127.43970266,"region":"대전광역시","source":"safefood","safeFoodGrade":"매우우수","safeFoodCertNo":"HG250634314"},{"id":"safefood-daejeon-HG250634313","name":"주식회사은구비커피","address":"대전광역시 중구 대종로 373(베이스볼드림파크 1층 1루 출입구 오른쪽호 부사동)","jibunAddress":"","phone":"","foodType":"","mainFood":"","designatedDate":"2025-06-09","lat":36.311122204,"lng":127.43970266,"region":"대전광역시","source":"safefood","safeFoodGrade":"매우우수","safeFoodCertNo":"HG250634313"},{"id":"safefood-daejeon-HG250634312","name":"공차대전한화생명볼파크점","address":"대전광역시 중구 대종로 373(베이스볼드림파크 1층 메인게이트옆호 부사동)","jibunAddress":"","phone":"","foodType":"","mainFood":"","designatedDate":"2025-06-09","lat":36.311122204,"lng":127.43970266,"region":"대전광역시","source":"safefood","safeFoodGrade":"매우우수","safeFoodCertNo":"HG250634312"},{"id":"safefood-daejeon-HG250634311","name":"카페요아정한화생명볼파크점","address":"대전광역시 중구 대종로 373(베이스볼드림파크 1층 3루 119블럭호 부사동)","jibunAddress":"","phone":"","foodType":"","mainFood":"","designatedDate":"2025-06-09","lat":36.311122204,"lng":127.43970266,"region":"대전광역시","source":"safefood","safeFoodGrade":"매우우수","safeFoodCertNo":"HG250634311"},{"id":"safefood-daejeon-HG250634310","name":"오수리","address":"대전광역시 중구 대종로 373(베이스볼드림파크 1층 104블럭호 부사동)","jibunAddress":"","phone":"","foodType":"","mainFood":"","designatedDate":"2025-06-09","lat":36.311122204,"lng":127.43970266,"region":"대전광역시","source":"safefood","safeFoodGrade":"우수","safeFoodCertNo":"HG250634310"},{"id":"safefood-daejeon-HG250634588","name":"북촌손만두한화이글스볼파크점","address":"대전광역시 중구 대종로 373(베이스볼드림파크 1층 1루 108블럭호 부사동)","jibunAddress":"","phone":"","foodType":"","mainFood":"","designatedDate":"2025-06-16","lat":36.311122204,"lng":127.43970266,"region":"대전광역시","source":"safefood","safeFoodGrade":"우수","safeFoodCertNo":"HG250634588"},{"id":"safefood-daejeon-HG250634587","name":"이글스브루어리1-2호점","address":"대전광역시 중구 대종로 373(베이스볼드림파크 1층 100A블럭호 부사동)","jibunAddress":"","phone":"","foodType":"","mainFood":"","designatedDate":"2025-06-16","lat":36.311122204,"lng":127.43970266,"region":"대전광역시","source":"safefood","safeFoodGrade":"매우우수","safeFoodCertNo":"HG250634587"},{"id":"safefood-daejeon-HG250634586","name":"이글스브루어리1-1호점","address":"대전광역시 중구 대종로 373(베이스볼드림파크 1층 100블럭호 부사동)","jibunAddress":"","phone":"","foodType":"","mainFood":"","designatedDate":"2025-06-16","lat":36.311122204,"lng":127.43970266,"region":"대전광역시","source":"safefood","safeFoodGrade":"매우우수","safeFoodCertNo":"HG250634586"},{"id":"safefood-daejeon-HG250634585","name":"이글스브루어리","address":"대전광역시 중구 대종로 373(베이스볼드림파크 1층 1루 104블럭호 부사동)","jibunAddress":"","phone":"","foodType":"","mainFood":"","designatedDate":"2025-06-16","lat":36.311122204,"lng":127.43970266,"region":"대전광역시","source":"safefood","safeFoodGrade":"매우우수","safeFoodCertNo":"HG250634585"},{"id":"safefood-daejeon-HG250634584","name":"구르닭","address":"대전광역시 중구 대종로 373(베이스볼드림파크 1층 3루 3-1게이트앞 117블럭호 부사동)","jibunAddress":"","phone":"","foodType":"","mainFood":"","designatedDate":"2025-06-16","lat":36.311122204,"lng":127.43970266,"region":"대전광역시","source":"safefood","safeFoodGrade":"우수","safeFoodCertNo":"HG250634584"},{"id":"safefood-daejeon-HG250634309","name":"자담치킨대전한화생명볼파크점3-1호점","address":"대전광역시 중구 대종로 373(베이스볼드림파크 2층 203번 블록옆호 부사동)","jibunAddress":"","phone":"","foodType":"","mainFood":"","designatedDate":"2025-06-09","lat":36.311122204,"lng":127.43970266,"region":"대전광역시","source":"safefood","safeFoodGrade":"매우우수","safeFoodCertNo":"HG250634309"},{"id":"safefood-daejeon-HG250634308","name":"자담치킨대전한화생명볼파크3호점","address":"대전광역시 중구 대종로 373(베이스볼드림파크 2층 215번 블록호 부사동)","jibunAddress":"","phone":"","foodType":"","mainFood":"","designatedDate":"2025-06-09","lat":36.311122204,"lng":127.43970266,"region":"대전광역시","source":"safefood","safeFoodGrade":"매우우수","safeFoodCertNo":"HG250634308"},{"id":"safefood-daejeon-HG250634307","name":"자담치킨대전한화생명볼파크2호점","address":"대전광역시 중구 대종로 373(베이스볼드림파크 1층 107블록 뒤호 부사동)","jibunAddress":"","phone":"","foodType":"","mainFood":"","designatedDate":"2025-06-09","lat":36.311122204,"lng":127.43970266,"region":"대전광역시","source":"safefood","safeFoodGrade":"매우우수","safeFoodCertNo":"HG250634307"},{"id":"safefood-daejeon-HG250634306","name":"자담치킨대전한화생명볼파크1-1호점","address":"대전광역시 중구 대종로 373(베이스볼드림파크 1층 1번 100B블럭 앞호 부사동)","jibunAddress":"","phone":"","foodType":"","mainFood":"","designatedDate":"2025-06-09","lat":36.311122204,"lng":127.43970266,"region":"대전광역시","source":"safefood","safeFoodGrade":"매우우수","safeFoodCertNo":"HG250634306"},{"id":"safefood-daejeon-HG250634305","name":"자담치킨대전한화생명볼파크1호점","address":"대전광역시 중구 대종로 373(베이스볼드림파크 1층 1번 100B블럭호 부사동)","jibunAddress":"","phone":"","foodType":"","mainFood":"","designatedDate":"2025-06-09","lat":36.311122204,"lng":127.43970266,"region":"대전광역시","source":"safefood","safeFoodGrade":"매우우수","safeFoodCertNo":"HG250634305"},{"id":"safefood-daejeon-HG250634304","name":"바로그집대전한화생명볼파크점","address":"대전광역시 중구 대종로 373(베이스볼드림파크 1층 1루 출입구호 부사동)","jibunAddress":"","phone":"","foodType":"","mainFood":"","designatedDate":"2025-06-09","lat":36.311122204,"lng":127.43970266,"region":"대전광역시","source":"safefood","safeFoodGrade":"매우우수","safeFoodCertNo":"HG250634304"},{"id":"safefood-daejeon-HG250634583","name":"선비꼬마김밥대전야구장점","address":"대전광역시 중구 대종로 373(베이스볼드림파크 1층 1루게이트1 앞호 부사동)","jibunAddress":"","phone":"","foodType":"","mainFood":"","designatedDate":"2025-06-16","lat":36.311122204,"lng":127.43970266,"region":"대전광역시","source":"safefood","safeFoodGrade":"매우우수","safeFoodCertNo":"HG250634583"},{"id":"safefood-daejeon-HG210007460","name":"한국맥도날드(유)대전부사디티점","address":"대전광역시 중구 충무로 139(1~2층 부사동)","jibunAddress":"","phone":"","foodType":"","mainFood":"","designatedDate":"2025-08-05","lat":36.319269136,"lng":127.430639783,"region":"대전광역시","source":"safefood","safeFoodGrade":"매우우수","safeFoodCertNo":"HG210007460"},{"id":"safefood-daejeon-HG250634784","name":"bhc 선사유적지점","address":"대전광역시 서구 청사서로 40(월평동)","jibunAddress":"","phone":"","foodType":"","mainFood":"","designatedDate":"2025-06-17","lat":36.358509392,"lng":127.376886413,"region":"대전광역시","source":"safefood","safeFoodGrade":"매우우수","safeFoodCertNo":"HG250634784"},{"id":"safefood-daejeon-HG250634779","name":"던킨도너츠 대전카이스트점","address":"대전광역시 유성구 대학로 291(한국과학기술원  B-26 응용공학분야동 지상1층 구성동)","jibunAddress":"","phone":"","foodType":"","mainFood":"","designatedDate":"2025-06-17","lat":36.360496312,"lng":127.344427401,"region":"대전광역시","source":"safefood","safeFoodGrade":"매우우수","safeFoodCertNo":"HG250634779"},{"id":"safefood-daejeon-HG250634913","name":"교촌치킨가오천동점","address":"대전광역시 동구 대전로 446(가오동)","jibunAddress":"","phone":"","foodType":"","mainFood":"","designatedDate":"2025-06-19","lat":36.301329028,"lng":127.456671098,"region":"대전광역시","source":"safefood","safeFoodGrade":"우수","safeFoodCertNo":"HG250634913"},{"id":"safefood-daejeon-HG210006905","name":"어니언수제어묵","address":"대전광역시 서구 대덕대로 211(갤러리아타임월드백화점 지하2층 일부호 둔산동)","jibunAddress":"","phone":"","foodType":"","mainFood":"","designatedDate":"2025-07-22","lat":36.367615486,"lng":127.37991105,"region":"대전광역시","source":"safefood","safeFoodGrade":"매우우수","safeFoodCertNo":"HG210006905"},{"id":"safefood-daejeon-HG250634901","name":"버거킹 대전용문역점","address":"대전광역시 서구 계룡로 630(수정빌딩 1층 용문동)","jibunAddress":"","phone":"","foodType":"","mainFood":"","designatedDate":"2025-06-19","lat":36.353441739,"lng":127.363542642,"region":"대전광역시","source":"safefood","safeFoodGrade":"매우우수","safeFoodCertNo":"HG250634901"},{"id":"safefood-daejeon-HG230008344","name":"주식회사오렌지블로썸송촌지점","address":"대전광역시 대덕구 계족산로81번길 70(예성프라자 1층 102호, 103호 송촌동)","jibunAddress":"","phone":"","foodType":"","mainFood":"","designatedDate":"2025-10-31","lat":36.363687129,"lng":127.439909965,"region":"대전광역시","source":"safefood","safeFoodGrade":"매우우수","safeFoodCertNo":"HG230008344"},{"id":"safefood-daejeon-HG250634506","name":"배스킨라빈스 대전도마점","address":"대전광역시 서구 도산로 79(지하1층 B102호, B110일부호 도마동, 호반써밋 그랜드 센트럴)","jibunAddress":"","phone":"","foodType":"","mainFood":"","designatedDate":"2025-06-11","lat":36.33534784,"lng":127.389782849,"region":"대전광역시","source":"safefood","safeFoodGrade":"매우우수","safeFoodCertNo":"HG250634506"},{"id":"safefood-daejeon-HG230005932","name":"롤썸 갤러리아타임월드점","address":"대전광역시 서구 대덕대로 211(갤러리아타임월드백화점 지하2층 일부호 둔산동)","jibunAddress":"","phone":"","foodType":"","mainFood":"","designatedDate":"2025-08-17","lat":36.367615486,"lng":127.37991105,"region":"대전광역시","source":"safefood","safeFoodGrade":"매우우수","safeFoodCertNo":"HG230005932"},{"id":"safefood-daejeon-HG250634683","name":"이디야대전송촌동점","address":"대전광역시 대덕구 선비마을로 14(1층 송촌동)","jibunAddress":"","phone":"","foodType":"","mainFood":"","designatedDate":"2025-06-16","lat":36.362355812,"lng":127.446191171,"region":"대전광역시","source":"safefood","safeFoodGrade":"우수","safeFoodCertNo":"HG250634683"},{"id":"safefood-daejeon-HG250634098","name":"연남왕돈까스 타임월드점","address":"대전광역시 서구 대덕대로 211(갤러리아타임월드백화점 지하2층 일부 둔산동)","jibunAddress":"","phone":"","foodType":"","mainFood":"","designatedDate":"2025-06-02","lat":36.367615486,"lng":127.37991105,"region":"대전광역시","source":"safefood","safeFoodGrade":"매우우수","safeFoodCertNo":"HG250634098"},{"id":"safefood-daejeon-HG250634854","name":"동대문엽기떡볶이가오점","address":"대전광역시 동구 동구청로 101(106호 가오동, 세이프존)","jibunAddress":"","phone":"","foodType":"","mainFood":"","designatedDate":"2025-06-18","lat":36.299898306,"lng":127.459357471,"region":"대전광역시","source":"safefood","safeFoodGrade":"매우우수","safeFoodCertNo":"HG250634854"},{"id":"safefood-daejeon-HG250634483","name":"움버거앤윙스 대전도마점","address":"대전광역시 서구 도산로 104(1층 도마동)","jibunAddress":"","phone":"","foodType":"","mainFood":"","designatedDate":"2025-06-11","lat":36.33534784,"lng":127.389782849,"region":"대전광역시","source":"safefood","safeFoodGrade":"매우우수","safeFoodCertNo":"HG250634483"},{"id":"safefood-daejeon-HG250634750","name":"본죽","address":"대전광역시 서구 문정로 77(탄방동,321호)","jibunAddress":"","phone":"","foodType":"","mainFood":"","designatedDate":"2025-06-17","lat":36.346173691,"lng":127.381710321,"region":"대전광역시","source":"safefood","safeFoodGrade":"좋음","safeFoodCertNo":"HG250634750"},{"id":"safefood-daejeon-HG250634064","name":"장충동왕족발&고기국수","address":"대전광역시 서구 대덕대로 211(갤러리아타임월드백화점 지하2층 일부호 둔산동)","jibunAddress":"","phone":"","foodType":"","mainFood":"","designatedDate":"2025-06-02","lat":36.367615486,"lng":127.37991105,"region":"대전광역시","source":"safefood","safeFoodGrade":"매우우수","safeFoodCertNo":"HG250634064"},{"id":"safefood-daejeon-HG250634844","name":"멜팅소울 롯데백화점대전점","address":"대전광역시 서구 계룡로 598(롯데백화점 지하1층 일부호 괴정동)","jibunAddress":"","phone":"","foodType":"","mainFood":"","designatedDate":"2025-06-18","lat":36.353441739,"lng":127.363542642,"region":"대전광역시","source":"safefood","safeFoodGrade":"매우우수","safeFoodCertNo":"HG250634844"},{"id":"safefood-daejeon-HG250634842","name":"안동한우마을","address":"대전광역시 서구 계룡로 598(롯데백화점 지하1층 일부호 괴정동)","jibunAddress":"","phone":"","foodType":"","mainFood":"","designatedDate":"2025-06-18","lat":36.353441739,"lng":127.363542642,"region":"대전광역시","source":"safefood","safeFoodGrade":"매우우수","safeFoodCertNo":"HG250634842"},{"id":"safefood-daejeon-HG250634033","name":"불닭발동대문엽기떡볶이 둔산점","address":"대전광역시 서구 둔산로31번길 52(덕삼빌딩 1층 일부호 둔산동)","jibunAddress":"","phone":"","foodType":"","mainFood":"","designatedDate":"2025-06-02","lat":36.353095151,"lng":127.377798099,"region":"대전광역시","source":"safefood","safeFoodGrade":"매우우수","safeFoodCertNo":"HG250634033"},{"id":"safefood-daejeon-HG250634743","name":"불닭발땡초동대문엽기떡볶이 테크노밸리점","address":"대전광역시 유성구 관평2로 22(지상1층 106호 관평동)","jibunAddress":"","phone":"","foodType":"","mainFood":"","designatedDate":"2025-06-17","lat":36.423968928,"lng":127.389330587,"region":"대전광역시","source":"safefood","safeFoodGrade":"매우우수","safeFoodCertNo":"HG250634743"},{"id":"safefood-daejeon-HG250634013","name":"한국맥도날드(유)대전가수원DT점","address":"대전광역시 서구 계백로 1124(1,2층 가수원동)","jibunAddress":"","phone":"","foodType":"","mainFood":"","designatedDate":"2025-06-02","lat":36.304122704,"lng":127.352934363,"region":"대전광역시","source":"safefood","safeFoodGrade":"매우우수","safeFoodCertNo":"HG250634013"},{"id":"safefood-daejeon-HG230005648","name":"(유)아웃백스테이크하우스코리아 대전현대아울렛점","address":"대전광역시 유성구 테크노중앙로 123(현대프리미엄아울렛 대전점 판매시설동 지상3층 3142호 용산동)","jibunAddress":"","phone":"","foodType":"","mainFood":"","designatedDate":"2025-08-08","lat":36.42606375,"lng":127.391345646,"region":"대전광역시","source":"safefood","safeFoodGrade":"매우우수","safeFoodCertNo":"HG230005648"},{"id":"safefood-daejeon-HG250633189","name":"케이에프씨 대전터미널점","address":"대전광역시 동구 동서대로1695번길 22(1층 용전동)","jibunAddress":"","phone":"","foodType":"","mainFood":"","designatedDate":"2025-05-13","lat":36.351435319,"lng":127.43738504,"region":"대전광역시","source":"safefood","safeFoodGrade":"매우우수","safeFoodCertNo":"HG250633189"},{"id":"safefood-daejeon-HG230004665","name":"노티드 대전갤러리아","address":"대전광역시 서구 대덕대로 219(갤러리아타임월드백화점 EAST 1층 일부호 둔산동)","jibunAddress":"","phone":"","foodType":"","mainFood":"","designatedDate":"2025-07-11","lat":36.367615486,"lng":127.37991105,"region":"대전광역시","source":"safefood","safeFoodGrade":"매우우수","safeFoodCertNo":"HG230004665"},{"id":"safefood-daejeon-HG180000810","name":"매드포갈릭 롯데대전점","address":"대전광역시 서구 계룡로 598(9층 괴정동)","jibunAddress":"","phone":"","foodType":"","mainFood":"","designatedDate":"2024-10-08","lat":36.353441739,"lng":127.363542642,"region":"대전광역시","source":"safefood","safeFoodGrade":"매우우수","safeFoodCertNo":"HG180000810"},{"id":"safefood-daejeon-HG240003973","name":"담음 롯데백화점대전점","address":"대전광역시 서구 계룡로 598(괴정동,지하1층)","jibunAddress":"","phone":"","foodType":"","mainFood":"","designatedDate":"2024-05-24","lat":36.353441739,"lng":127.363542642,"region":"대전광역시","source":"safefood","safeFoodGrade":"매우우수","safeFoodCertNo":"HG240003973"},{"id":"safefood-daejeon-HG230003834","name":"맥도날드대전유천디티점","address":"대전광역시 중구 계백로 1549(1,2층 유천동)","jibunAddress":"","phone":"","foodType":"","mainFood":"","designatedDate":"2025-06-16","lat":36.318842774,"lng":127.397945046,"region":"대전광역시","source":"safefood","safeFoodGrade":"매우우수","safeFoodCertNo":"HG230003834"},{"id":"safefood-daejeon-HG230004537","name":"투썸플레이스 대전송촌점","address":"대전광역시 대덕구 송촌북로36번길 10(1층 송촌동)","jibunAddress":"","phone":"","foodType":"","mainFood":"","designatedDate":"2025-07-06","lat":36.365784627,"lng":127.43763151,"region":"대전광역시","source":"safefood","safeFoodGrade":"매우우수","safeFoodCertNo":"HG230004537"},{"id":"safefood-daejeon-HG250636801","name":"본죽&비빔밥 대전갈마점","address":"대전광역시 서구 신갈마로 186(지하1층 111호 갈마동, 갤러리휴리움)","jibunAddress":"","phone":"","foodType":"","mainFood":"","designatedDate":"2025-08-04","lat":36.348930836,"lng":127.367943121,"region":"대전광역시","source":"safefood","safeFoodGrade":"매우우수","safeFoodCertNo":"HG250636801"},{"id":"safefood-daejeon-HG250637846","name":"공차 롯데시네마대전센트럴점","address":"대전광역시 서구 대덕대로 216(6층 604호 둔산동)","jibunAddress":"","phone":"","foodType":"","mainFood":"","designatedDate":"2025-08-20","lat":36.367615486,"lng":127.37991105,"region":"대전광역시","source":"safefood","safeFoodGrade":"매우우수","safeFoodCertNo":"HG250637846"},{"id":"safefood-daejeon-HG210005399","name":"롯데컬처웍스(주)롯데시네마 대전센트럴","address":"대전광역시 서구 대덕대로 216(6층 603호 둔산동)","jibunAddress":"","phone":"","foodType":"","mainFood":"","designatedDate":"2025-06-17","lat":36.367615486,"lng":127.37991105,"region":"대전광역시","source":"safefood","safeFoodGrade":"매우우수","safeFoodCertNo":"HG210005399"},{"id":"safefood-daejeon-HG250634582","name":"명랑시대쌀핫도그한화생명볼파크점","address":"대전광역시 중구 대종로 373(베이스볼드림파크 1층 1루측호 부사동)","jibunAddress":"","phone":"","foodType":"","mainFood":"","designatedDate":"2025-06-16","lat":36.311122204,"lng":127.43970266,"region":"대전광역시","source":"safefood","safeFoodGrade":"매우우수","safeFoodCertNo":"HG250634582"},{"id":"safefood-daejeon-HG250632883","name":"샐러드유 갤러리아타임월드점","address":"대전광역시 서구 대덕대로 211(갤러리아타임월드백화점 지하2층 일부호 둔산동)","jibunAddress":"","phone":"","foodType":"","mainFood":"","designatedDate":"2025-05-08","lat":36.367615486,"lng":127.37991105,"region":"대전광역시","source":"safefood","safeFoodGrade":"우수","safeFoodCertNo":"HG250632883"},{"id":"safefood-daejeon-HG230005862","name":"투썸플레이스 가장로점","address":"대전광역시 서구 가장로 63(1,2층 괴정동)","jibunAddress":"","phone":"","foodType":"","mainFood":"","designatedDate":"2025-08-17","lat":36.335429816,"lng":127.38405518,"region":"대전광역시","source":"safefood","safeFoodGrade":"매우우수","safeFoodCertNo":"HG230005862"},{"id":"safefood-daejeon-HG250634623","name":"교촌치킨신탄진점","address":"대전광역시 대덕구 대덕대로 1550(1층 석봉동)","jibunAddress":"","phone":"","foodType":"","mainFood":"","designatedDate":"2025-06-16","lat":36.449114213,"lng":127.421069173,"region":"대전광역시","source":"safefood","safeFoodGrade":"매우우수","safeFoodCertNo":"HG250634623"},{"id":"safefood-daejeon-HG210006514","name":"공차 대전복수점","address":"대전광역시 서구 복수동로 56(1층 일부호 복수동)","jibunAddress":"","phone":"","foodType":"","mainFood":"","designatedDate":"2025-07-15","lat":36.297849027,"lng":127.378563133,"region":"대전광역시","source":"safefood","safeFoodGrade":"매우우수","safeFoodCertNo":"HG210006514"},{"id":"safefood-daejeon-HG230005110","name":"(유)아웃백스테이크하우스코리아 대전갤러리아점","address":"대전광역시 서구 대덕대로 211(갤러리아타임월드백화점 11층 일부호 둔산동)","jibunAddress":"","phone":"","foodType":"","mainFood":"","designatedDate":"2025-07-25","lat":36.367615486,"lng":127.37991105,"region":"대전광역시","source":"safefood","safeFoodGrade":"매우우수","safeFoodCertNo":"HG230005110"},{"id":"safefood-daejeon-HG250633158","name":"롯데리아 대전성남점","address":"대전광역시 동구 우암로 159(지앤지빌딩 101,102호 성남동)","jibunAddress":"","phone":"","foodType":"","mainFood":"","designatedDate":"2025-05-13","lat":36.34530727,"lng":127.444568117,"region":"대전광역시","source":"safefood","safeFoodGrade":"매우우수","safeFoodCertNo":"HG250633158"},{"id":"safefood-daejeon-HG250632514","name":"본죽&비빔밥 대전대동오거리점","address":"대전광역시 동구 동대전로 72(2층 대동)","jibunAddress":"","phone":"","foodType":"","mainFood":"","designatedDate":"2025-04-29","lat":36.346309769,"lng":127.444648444,"region":"대전광역시","source":"safefood","safeFoodGrade":"매우우수","safeFoodCertNo":"HG250632514"},{"id":"safefood-daejeon-HG250632792","name":"본죽&비빔밥 대전도마동점","address":"대전광역시 서구 배재로 166(도마동,1층)","jibunAddress":"","phone":"","foodType":"","mainFood":"","designatedDate":"2025-05-08","lat":36.315317567,"lng":127.37098466,"region":"대전광역시","source":"safefood","safeFoodGrade":"매우우수","safeFoodCertNo":"HG250632792"},{"id":"safefood-daejeon-HG250631999","name":"본죽앤 비빔밥(내동 롯데점)","address":"대전광역시 서구 신갈마로 51(B212호 내동)","jibunAddress":"","phone":"","foodType":"","mainFood":"","designatedDate":"2025-04-17","lat":36.348930836,"lng":127.367943121,"region":"대전광역시","source":"safefood","safeFoodGrade":"매우우수","safeFoodCertNo":"HG250631999"},{"id":"safefood-daejeon-HG250632144","name":"본죽앤비빔밥 대전반석역점","address":"대전광역시 유성구 반석로 19(반석동)","jibunAddress":"","phone":"","foodType":"","mainFood":"","designatedDate":"2025-04-22","lat":36.392094927,"lng":127.313472313,"region":"대전광역시","source":"safefood","safeFoodGrade":"매우우수","safeFoodCertNo":"HG250632144"},{"id":"safefood-daejeon-HG250632052","name":"본죽앤비빔밥 판암점","address":"대전광역시 동구 옥천로 168(판암동,,5)","jibunAddress":"","phone":"","foodType":"","mainFood":"","designatedDate":"2025-04-18","lat":36.316335904,"lng":127.455523467,"region":"대전광역시","source":"safefood","safeFoodGrade":"매우우수","safeFoodCertNo":"HG250632052"},{"id":"safefood-daejeon-HG250003515","name":"이디야커피 충남고점","address":"대전광역시 서구 둔산남로 164(1층 일부호 탄방동)","jibunAddress":"","phone":"","foodType":"","mainFood":"","designatedDate":"2025-04-14","lat":36.348746566,"lng":127.388647516,"region":"대전광역시","source":"safefood","safeFoodGrade":"매우우수","safeFoodCertNo":"HG250003515"},{"id":"safefood-daejeon-HG250632460","name":"이디야","address":"대전광역시 서구 문정로 41(탄방동)","jibunAddress":"","phone":"","foodType":"","mainFood":"","designatedDate":"2025-04-29","lat":36.346173691,"lng":127.381710321,"region":"대전광역시","source":"safefood","safeFoodGrade":"우수","safeFoodCertNo":"HG250632460"},{"id":"safefood-daejeon-HG250631919","name":"빽다방 충남대정문점","address":"대전광역시 유성구 대학로 86(포커스타운 1층 107호 궁동)","jibunAddress":"","phone":"","foodType":"","mainFood":"","designatedDate":"2025-04-17","lat":36.360496312,"lng":127.344427401,"region":"대전광역시","source":"safefood","safeFoodGrade":"매우우수","safeFoodCertNo":"HG250631919"},{"id":"safefood-daejeon-HG230003089","name":"호식이두마리치킨 도마점","address":"대전광역시 서구 사마1길 60(1층 일부호 도마동)","jibunAddress":"","phone":"","foodType":"","mainFood":"","designatedDate":"2025-05-25","lat":36.3172707,"lng":127.376677173,"region":"대전광역시","source":"safefood","safeFoodGrade":"매우우수","safeFoodCertNo":"HG230003089"},{"id":"safefood-daejeon-HG250632049","name":"니쿠텐 신세계대전점","address":"대전광역시 유성구 엑스포로 1(신세계엑스포점 지상7층 F74호 도룡동)","jibunAddress":"","phone":"","foodType":"","mainFood":"","designatedDate":"2025-04-18","lat":36.377791214,"lng":127.405680192,"region":"대전광역시","source":"safefood","safeFoodGrade":"매우우수","safeFoodCertNo":"HG250632049"},{"id":"safefood-daejeon-HG250632441","name":"수리치킨","address":"대전광역시 중구 충무로 129(1층 대사동)","jibunAddress":"","phone":"","foodType":"","mainFood":"","designatedDate":"2025-04-29","lat":36.319269136,"lng":127.430639783,"region":"대전광역시","source":"safefood","safeFoodGrade":"매우우수","safeFoodCertNo":"HG250632441"},{"id":"safefood-daejeon-HG230002829","name":"호식이두마리치킨(내동점)","address":"대전광역시 서구 도솔로 261-1(1층 일부 내동)","jibunAddress":"","phone":"","foodType":"","mainFood":"","designatedDate":"2025-05-16","lat":36.32266978,"lng":127.373561613,"region":"대전광역시","source":"safefood","safeFoodGrade":"우수","safeFoodCertNo":"HG230002829"},{"id":"safefood-daejeon-HG220005614","name":"투썸플레이스 대전탄방중앙점","address":"대전광역시 서구 둔산남로 94(1,2각일부층 탄방동)","jibunAddress":"","phone":"","foodType":"","mainFood":"","designatedDate":"2024-07-13","lat":36.348746566,"lng":127.388647516,"region":"대전광역시","source":"safefood","safeFoodGrade":"매우우수","safeFoodCertNo":"HG220005614"},{"id":"safefood-daejeon-HG210005416","name":"쉐이크쉑 대전타임월드점","address":"대전광역시 서구 대덕대로 219(1층 일부 둔산동)","jibunAddress":"","phone":"","foodType":"","mainFood":"","designatedDate":"2025-06-18","lat":36.367615486,"lng":127.37991105,"region":"대전광역시","source":"safefood","safeFoodGrade":"매우우수","safeFoodCertNo":"HG210005416"},{"id":"safefood-daejeon-HG250003307","name":"노브랜드버거 대전시청점","address":"대전광역시 서구 문예로 61(대림빌딩 1층 일부호 둔산동)","jibunAddress":"","phone":"","foodType":"","mainFood":"","designatedDate":"2025-04-08","lat":36.348072405,"lng":127.389844576,"region":"대전광역시","source":"safefood","safeFoodGrade":"매우우수","safeFoodCertNo":"HG250003307"},{"id":"safefood-daejeon-HG250003295","name":"투썸플레이스 북대전IC점","address":"대전광역시 유성구 대덕대로 1024(지상1,2층 관평동)","jibunAddress":"","phone":"","foodType":"","mainFood":"","designatedDate":"2025-04-08","lat":36.381721345,"lng":127.378891269,"region":"대전광역시","source":"safefood","safeFoodGrade":"매우우수","safeFoodCertNo":"HG250003295"},{"id":"safefood-daejeon-HG230002621","name":"투썸플레이스 대전비래점","address":"대전광역시 대덕구 비래동로 7(1층 비래동)","jibunAddress":"","phone":"","foodType":"","mainFood":"","designatedDate":"2025-05-08","lat":36.355615395,"lng":127.450275888,"region":"대전광역시","source":"safefood","safeFoodGrade":"매우우수","safeFoodCertNo":"HG230002621"},{"id":"safefood-daejeon-HG210005648","name":"(주)케이엘그룹카이스트","address":"대전광역시 유성구 대덕대로 535(지상1,2층 가정동)","jibunAddress":"","phone":"","foodType":"","mainFood":"","designatedDate":"2025-06-24","lat":36.381721345,"lng":127.378891269,"region":"대전광역시","source":"safefood","safeFoodGrade":"좋음","safeFoodCertNo":"HG210005648"},{"id":"safefood-daejeon-HG230004209","name":"스타벅스대전목동디티점","address":"대전광역시 중구 동서대로 1387(1,2층 목동)","jibunAddress":"","phone":"","foodType":"","mainFood":"","designatedDate":"2025-06-27","lat":36.333598973,"lng":127.411795541,"region":"대전광역시","source":"safefood","safeFoodGrade":"매우우수","safeFoodCertNo":"HG230004209"},{"id":"safefood-daejeon-HG250003101","name":"본도시락대전대덕테크노밸리점","address":"대전광역시 유성구 테크노4로 115(지상1층 104호 관평동, 화산타워)","jibunAddress":"","phone":"","foodType":"","mainFood":"","designatedDate":"2025-04-04","lat":36.426240701,"lng":127.389763252,"region":"대전광역시","source":"safefood","safeFoodGrade":"매우우수","safeFoodCertNo":"HG250003101"},{"id":"safefood-daejeon-HG250003099","name":"스타벅스 갤러리아타임월드","address":"대전광역시 서구 대덕대로 211(갤러리아타임월드백화점 11층 일부호 둔산동)","jibunAddress":"","phone":"","foodType":"","mainFood":"","designatedDate":"2025-04-04","lat":36.367615486,"lng":127.37991105,"region":"대전광역시","source":"safefood","safeFoodGrade":"매우우수","safeFoodCertNo":"HG250003099"},{"id":"safefood-daejeon-HG250632030","name":"교동면옥 대전관평점","address":"대전광역시 유성구 테크노4로 57(지상1층 관평동)","jibunAddress":"","phone":"","foodType":"","mainFood":"","designatedDate":"2025-04-18","lat":36.426240701,"lng":127.389763252,"region":"대전광역시","source":"safefood","safeFoodGrade":"매우우수","safeFoodCertNo":"HG250632030"},{"id":"safefood-daejeon-HG210003794","name":"카페월든2","address":"대전광역시 중구 동서대로 1385-5(2층 목동)","jibunAddress":"","phone":"","foodType":"","mainFood":"","designatedDate":"2025-05-07","lat":36.333598973,"lng":127.411795541,"region":"대전광역시","source":"safefood","safeFoodGrade":"매우우수","safeFoodCertNo":"HG210003794"},{"id":"safefood-daejeon-HG210003773","name":"카페월든","address":"대전광역시 중구 동서대로 1385-5(1층 목동)","jibunAddress":"","phone":"","foodType":"","mainFood":"","designatedDate":"2025-05-07","lat":36.333598973,"lng":127.411795541,"region":"대전광역시","source":"safefood","safeFoodGrade":"매우우수","safeFoodCertNo":"HG210003773"},{"id":"safefood-daejeon-HG250003082","name":"뚜레쥬르 복합터미널점","address":"대전광역시 동구 동서대로1695번길 30(대전복합터미널동관 1층 CE104호 용전동)","jibunAddress":"","phone":"","foodType":"","mainFood":"","designatedDate":"2025-04-04","lat":36.351435319,"lng":127.43738504,"region":"대전광역시","source":"safefood","safeFoodGrade":"매우우수","safeFoodCertNo":"HG250003082"},{"id":"safefood-daejeon-HG250003245","name":"파리바게뜨 대전괴정점","address":"대전광역시 서구 계룡로 546(괴정동,1층)","jibunAddress":"","phone":"","foodType":"","mainFood":"","designatedDate":"2025-04-08","lat":36.353441739,"lng":127.363542642,"region":"대전광역시","source":"safefood","safeFoodGrade":"매우우수","safeFoodCertNo":"HG250003245"},{"id":"safefood-daejeon-HG250002441","name":"백미당 갤러리아대전점","address":"대전광역시 서구 대덕대로 211(갤러리아타임월드백화점 지하2층 일부호 둔산동)","jibunAddress":"","phone":"","foodType":"","mainFood":"","designatedDate":"2025-03-20","lat":36.367615486,"lng":127.37991105,"region":"대전광역시","source":"safefood","safeFoodGrade":"매우우수","safeFoodCertNo":"HG250002441"},{"id":"safefood-daejeon-HG250002842","name":"도미노피자 대전대동점","address":"대전광역시 동구 계족로 194-37(1층 대동)","jibunAddress":"","phone":"","foodType":"","mainFood":"","designatedDate":"2025-03-28","lat":36.344799577,"lng":127.433177184,"region":"대전광역시","source":"safefood","safeFoodGrade":"우수","safeFoodCertNo":"HG250002842"},{"id":"safefood-daejeon-HG230002414","name":"롯데리아가장점","address":"대전광역시 서구 가장로 106(가장동,삼성아달리상가113)","jibunAddress":"","phone":"","foodType":"","mainFood":"","designatedDate":"2025-04-27","lat":36.335429816,"lng":127.38405518,"region":"대전광역시","source":"safefood","safeFoodGrade":"매우우수","safeFoodCertNo":"HG230002414"},{"id":"safefood-daejeon-HG230002497","name":"씨유대전가양사랑점","address":"대전광역시 동구 우암로 292(101호 가양동)","jibunAddress":"","phone":"","foodType":"","mainFood":"","designatedDate":"2025-05-02","lat":36.34530727,"lng":127.444568117,"region":"대전광역시","source":"safefood","safeFoodGrade":"매우우수","safeFoodCertNo":"HG230002497"},{"id":"safefood-daejeon-HG230002349","name":"빽다방 대전신탄진동일점","address":"대전광역시 대덕구 대청로 38(1층 102호 신탄진동)","jibunAddress":"","phone":"","foodType":"","mainFood":"","designatedDate":"2025-04-25","lat":36.44838662314152,"lng":127.45387658341932,"region":"대전광역시","source":"safefood","safeFoodGrade":"매우우수","safeFoodCertNo":"HG230002349"},{"id":"safefood-daejeon-HG250631795","name":"던킨송촌점","address":"대전광역시 대덕구 송촌북로 42(1층 송촌동)","jibunAddress":"","phone":"","foodType":"","mainFood":"","designatedDate":"2025-04-15","lat":36.362715665,"lng":127.436839884,"region":"대전광역시","source":"safefood","safeFoodGrade":"매우우수","safeFoodCertNo":"HG250631795"},{"id":"safefood-daejeon-HG250002186","name":"지에스25 충남대파크점","address":"대전광역시 유성구 대학로75번길 10(지상1층 궁동)","jibunAddress":"","phone":"","foodType":"","mainFood":"","designatedDate":"2025-03-14","lat":36.360412619,"lng":127.343562539,"region":"대전광역시","source":"safefood","safeFoodGrade":"매우우수","safeFoodCertNo":"HG250002186"},{"id":"safefood-daejeon-HG250002402","name":"도미노피자대전유천점","address":"대전광역시 중구 계백로 1606-1(1층 유천동)","jibunAddress":"","phone":"","foodType":"","mainFood":"","designatedDate":"2025-03-20","lat":36.318842774,"lng":127.397945046,"region":"대전광역시","source":"safefood","safeFoodGrade":"매우우수","safeFoodCertNo":"HG250002402"},